% program   : RTKPOST ver.2.4.2
% inp file  : D:\Google Drive\UERJ\_Projeto Final\20190115_Marco 91500 IBGE\20190115_LevantamentoCompleto.19o
% inp file  : D:\Google Drive\UERJ\_Projeto Final\20190115_Marco 91500 IBGE\brdm0150.19p
% obs start : 2019/01/15 09:25:22.0 GPST (week2036 206722.0s)
% obs end   : 2019/01/15 10:25:42.0 GPST (week2036 210342.0s)
% pos mode  : single
% elev mask : 15.0 deg
% ionos opt : broadcast
% tropo opt : saastamoinen
% ephemeris : broadcast
% navi sys  : gps glonass
%
% (x/y/z-ecef=WGS84,Q=1:fix,2:float,3:sbas,4:dgps,5:single,6:ppp,ns=# of satellites)
%  GPST                      x-ecef(m)      y-ecef(m)      z-ecef(m)   Q  ns   sdx(m)   sdy(m)   sdz(m)  sdxy(m)  sdyz(m)  sdzx(m) age(s)  ratio
2019/01/15 09:25:23.000   4280227.0112  -4034429.0631  -2458291.0991   5   9   4.4684   4.6047   3.1801  -3.6288   0.4726  -2.2339   0.00    0.0
2019/01/15 09:25:24.000   4280230.2707  -4034435.9413  -2458273.2845   5   9   4.2600   4.6656   3.5373  -3.6960  -0.9731  -1.9165   0.00    0.0
2019/01/15 09:25:25.000   4280222.5090  -4034430.1014  -2458262.3421   5  10   4.2572   4.5978   3.0893  -3.6784   0.6496  -1.9908   0.00    0.0
2019/01/15 09:25:26.000   4280221.5967  -4034422.5083  -2458282.1635   5   9   4.5374   4.9870   4.4111  -4.0698   2.5500  -2.9835   0.00    0.0
2019/01/15 09:25:27.000   4280217.5828  -4034414.6151  -2458286.2542   5   8   4.7828   4.9878   4.5330  -4.0545   2.5326  -3.2371   0.00    0.0
2019/01/15 09:25:28.000   4280236.2980  -4034439.9450  -2458280.9088   5   9   4.7060   4.6900   3.1721  -3.9228   1.0433  -2.3247   0.00    0.0
2019/01/15 09:25:29.000   4280213.4550  -4034411.4053  -2458280.3323   5   9   4.5381   4.9874   4.4097  -4.0706   2.5494  -2.9818   0.00    0.0
2019/01/15 09:25:30.000   4280233.2449  -4034432.4518  -2458277.8128   5   8   4.6039   4.9946   5.9509  -4.0961   2.7503  -3.4617   0.00    0.0
2019/01/15 09:25:31.000   4280209.4431  -4034412.0317  -2458240.3462   5   9   4.5385   4.9876   4.4088  -4.0711   2.5490  -2.9806   0.00    0.0
2019/01/15 09:25:32.000   4280201.2922  -4034402.4305  -2458267.4171   5   9   4.5388   4.9877   4.4083  -4.0714   2.5488  -2.9800   0.00    0.0
2019/01/15 09:25:33.000   4280229.8545  -4034431.6962  -2458286.4613   5   8   5.1067   5.1570   4.6065  -4.4321   2.8720  -3.4653   0.00    0.0
2019/01/15 09:25:34.000   4280218.3831  -4034406.3913  -2458276.8185   5   8   4.7856   4.9886   4.5305  -4.0571   2.5320  -3.2347   0.00    0.0
2019/01/15 09:25:35.000   4280230.5617  -4034429.7211  -2458285.5820   5   8   5.1071   5.1573   4.6056  -4.4327   2.8717  -3.4642   0.00    0.0
2019/01/15 09:25:36.000   4280228.0644  -4034426.6866  -2458263.6423   5   9   4.5397   4.9882   4.4065  -4.0725   2.5481  -2.9776   0.00    0.0
2019/01/15 09:25:37.000   4280228.4469  -4034427.0857  -2458294.1871   5   9   4.5399   4.9884   4.4060  -4.0727   2.5479  -2.9771   0.00    0.0
2019/01/15 09:25:38.000   4280232.0752  -4034411.6102  -2458268.0710   5   9   4.3297   5.2502   5.7315  -3.8331   4.6866  -3.6761   0.00    0.0
2019/01/15 09:25:39.000   4280221.1786  -4034416.3193  -2458267.1887   5   9   4.7763   4.0441   4.5586  -3.7233   3.2098  -3.6265   0.00    0.0
2019/01/15 09:25:40.000   4280218.5636  -4034409.1621  -2458262.9545   5   9   4.3296   5.2501   5.7321  -3.8328   4.6869  -3.6752   0.00    0.0
2019/01/15 09:25:41.000   4280234.4513  -4034433.2172  -2458289.7236   5  10   4.2312   3.8958   4.3415  -3.3853   2.9656  -3.1732   0.00    0.0
2019/01/15 09:25:42.000   4280221.2860  -4034419.7977  -2458267.5899   5  10   4.2312   3.8956   4.3411  -3.3852   2.9652  -3.1726   0.00    0.0
2019/01/15 09:25:43.000   4280214.8529  -4034413.8609  -2458274.5988   5  10   4.2311   3.8955   4.3407  -3.3850   2.9649  -3.1720   0.00    0.0
2019/01/15 09:25:44.000   4280234.4604  -4034434.0829  -2458287.5066   5  10   4.2311   3.8953   4.3403  -3.3849   2.9645  -3.1714   0.00    0.0
2019/01/15 09:25:45.000   4280231.3441  -4034427.0057  -2458277.8989   5   9   4.2613   3.8985   5.2117  -3.3969   3.0420  -3.3938   0.00    0.0
2019/01/15 09:25:46.000   4280227.5581  -4034425.3149  -2458286.3416   5   9   4.7756   4.0427   4.5559  -3.7223   3.2072  -3.6225   0.00    0.0
2019/01/15 09:25:47.000   4280220.3642  -4034420.8603  -2458275.6282   5  10   4.2310   3.8947   4.3392  -3.3846   2.9633  -3.1696   0.00    0.0
2019/01/15 09:25:48.000   4280218.3579  -4034420.2921  -2458279.3053   5  10   4.2309   3.8946   4.3388  -3.3845   2.9630  -3.1690   0.00    0.0
2019/01/15 09:25:49.000   4280224.2211  -4034420.9695  -2458278.2053   5  10   4.2309   3.8944   4.3384  -3.3843   2.9626  -3.1684   0.00    0.0
2019/01/15 09:25:50.000   4280213.2602  -4034408.3146  -2458259.3094   5  12   4.2132   3.8019   4.2118  -3.3876   3.1064  -3.1634   0.00    0.0
2019/01/15 09:25:52.000   4280233.2991  -4034421.0639  -2458276.6773   5  12   4.2131   3.8013   4.2113  -3.3872   3.1057  -3.1624   0.00    0.0
2019/01/15 09:25:53.000   4280215.8517  -4034402.1749  -2458272.0674   5  11   4.6598   4.0205   4.3060  -3.7523   3.2895  -3.4334   0.00    0.0
2019/01/15 09:25:54.000   4280226.9470  -4034419.4255  -2458279.6049   5  12   4.2130   3.8008   4.2108  -3.3868   3.1050  -3.1615   0.00    0.0
2019/01/15 09:25:55.000   4280211.3061  -4034404.5264  -2458270.0837   5  12   4.2129   3.8005   4.2105  -3.3866   3.1046  -3.1611   0.00    0.0
2019/01/15 09:25:56.000   4280216.3115  -4034407.5775  -2458258.2490   5  12   4.2129   3.8002   4.2103  -3.3863   3.1042  -3.1606   0.00    0.0
2019/01/15 09:25:57.000   4280222.8507  -4034408.4324  -2458274.0257   5  12   4.2128   3.8000   4.2100  -3.3861   3.1039  -3.1601   0.00    0.0
2019/01/15 09:25:59.000   4280207.4461  -4034405.8287  -2458251.9192   5  11   4.5336   3.8010   4.3629  -3.4130   3.1235  -3.4498   0.00    0.0
2019/01/15 09:26:01.000   4280216.0003  -4034396.4805  -2458242.8262   5  11   4.3176   5.1167   5.6791  -3.8347   4.7638  -3.6856   0.00    0.0
2019/01/15 09:26:02.000   4280210.8715  -4034405.9130  -2458257.0819   5  12   4.2126   3.7986   4.2087  -3.3851   3.1020  -3.1578   0.00    0.0
2019/01/15 09:26:03.000   4280218.8243  -4034409.2774  -2458266.4365   5  12   4.2125   3.7983   4.2085  -3.3849   3.1017  -3.1573   0.00    0.0
2019/01/15 09:26:04.000   4280220.7507  -4034413.4942  -2458259.9181   5  12   4.2125   3.7980   4.2082  -3.3847   3.1013  -3.1569   0.00    0.0
2019/01/15 09:26:05.000   4280225.2144  -4034413.7556  -2458265.5422   5  12   4.2124   3.7977   4.2079  -3.3845   3.1009  -3.1564   0.00    0.0
2019/01/15 09:26:06.000   4280222.4206  -4034418.8033  -2458270.6174   5  11   4.3780   3.9337   5.5474  -3.5606   3.6502  -3.7779   0.00    0.0
2019/01/15 09:26:07.000   4280226.4918  -4034422.6564  -2458290.4043   5  11   4.6599   4.0171   4.3032  -3.7502   3.2856  -3.4287   0.00    0.0
2019/01/15 09:26:08.000   4280221.2635  -4034408.8336  -2458260.2067   5  11   4.6599   4.0169   4.3030  -3.7501   3.2853  -3.4284   0.00    0.0
2019/01/15 09:26:09.000   4280216.3380  -4034416.2819  -2458259.3639   5  11   4.6599   4.0167   4.3028  -3.7500   3.2850  -3.4280   0.00    0.0
2019/01/15 09:26:10.000   4280212.5448  -4034414.1080  -2458273.2707   5  12   4.2121   3.7963   4.2066  -3.3834   3.0991  -3.1541   0.00    0.0
2019/01/15 09:26:11.000   4280215.2640  -4034412.5283  -2458274.8413   5  11   4.3756   3.9307   5.5409  -3.5573   3.6443  -3.7708   0.00    0.0
2019/01/15 09:26:12.000   4280227.8542  -4034425.3622  -2458280.2282   5  11   4.3751   3.9301   5.5396  -3.5567   3.6431  -3.7694   0.00    0.0
2019/01/15 09:26:14.000   4280215.0253  -4034419.7725  -2458271.6759   5  11   4.3741   3.9289   5.5370  -3.5554   3.6407  -3.7665   0.00    0.0
2019/01/15 09:26:15.000   4280222.8011  -4034416.3199  -2458260.0291   5  12   4.2119   3.7950   4.2053  -3.3824   3.0973  -3.1517   0.00    0.0
2019/01/15 09:26:16.000   4280224.4209  -4034420.5008  -2458268.1729   5  12   4.2118   3.7947   4.2050  -3.3821   3.0969  -3.1513   0.00    0.0
2019/01/15 09:26:17.000   4280221.5308  -4034414.2820  -2458264.5872   5  12   4.2118   3.7944   4.2048  -3.3819   3.0965  -3.1508   0.00    0.0
2019/01/15 09:26:18.000   4280220.6399  -4034416.4781  -2458267.8803   5  12   4.2117   3.7941   4.2045  -3.3817   3.0962  -3.1503   0.00    0.0
2019/01/15 09:26:19.000   4280214.3595  -4034417.7251  -2458281.4652   5  11   4.3717   3.9259   5.5304  -3.5522   3.6348  -3.7594   0.00    0.0
2019/01/15 09:26:20.000   4280220.6686  -4034407.4204  -2458263.1261   5  11   4.2203   3.8428   4.2679  -3.4058   3.0217  -3.1176   0.00    0.0
2019/01/15 09:26:21.000   4280201.1368  -4034411.3090  -2458265.3442   5  11   5.7471   3.9003   4.2390  -3.8704   3.1740  -3.4712   0.00    0.0
2019/01/15 09:26:22.000   4280213.2242  -4034413.4585  -2458279.2559   5  12   4.2115   3.7930   4.2034  -3.3809   3.0947  -3.1485   0.00    0.0
2019/01/15 09:26:24.000   4280225.2272  -4034422.1868  -2458277.9276   5  11   4.3693   3.9230   5.5239  -3.5490   3.6289  -3.7523   0.00    0.0
2019/01/15 09:26:26.000   4280230.5064  -4034419.0611  -2458281.8854   5  11   4.2258   3.8120   4.2272  -3.3598   3.0641  -3.1719   0.00    0.0
2019/01/15 09:26:27.000   4280218.6339  -4034414.3342  -2458281.7031   5  11   4.3679   3.9212   5.5200  -3.5471   3.6254  -3.7480   0.00    0.0
2019/01/15 09:26:28.000   4280219.2829  -4034422.5088  -2458283.0900   5  11   4.3675   3.9206   5.5187  -3.5465   3.6242  -3.7466   0.00    0.0
2019/01/15 09:26:29.000   4280221.4305  -4034423.4723  -2458264.1099   5  12   4.2112   3.7911   4.2015  -3.3794   3.0921  -3.1452   0.00    0.0
2019/01/15 09:26:30.000   4280220.6748  -4034421.8731  -2458287.9180   5  11   4.2203   3.8406   4.2648  -3.4044   3.0177  -3.1122   0.00    0.0
2019/01/15 09:26:31.000   4280206.4270  -4034404.6801  -2458265.8744   5  11   4.3660   3.9188   5.5148  -3.5446   3.6207  -3.7423   0.00    0.0
2019/01/15 09:26:32.000   4280226.6783  -4034424.1604  -2458269.3207   5  12   4.2110   3.7903   4.2007  -3.3788   3.0910  -3.1438   0.00    0.0
2019/01/15 09:26:34.000   4280221.8589  -4034416.3515  -2458266.6611   5  12   4.2109   3.7897   4.2002  -3.3784   3.0902  -3.1428   0.00    0.0
2019/01/15 09:26:36.000   4280227.6387  -4034423.9685  -2458266.2955   5  12   4.2108   3.7892   4.1997  -3.3780   3.0895  -3.1419   0.00    0.0
2019/01/15 09:26:37.000   4280225.7491  -4034426.4826  -2458275.5807   5  12   4.2108   3.7889   4.1994  -3.3778   3.0891  -3.1414   0.00    0.0
2019/01/15 09:26:38.000   4280233.3903  -4034434.1653  -2458284.8735   5  11   4.5379   3.7906   4.3571  -3.4083   3.1118  -3.4398   0.00    0.0
2019/01/15 09:26:40.000   4280233.3232  -4034428.6085  -2458289.8492   5  12   4.2106   3.7881   4.1986  -3.3771   3.0880  -3.1400   0.00    0.0
2019/01/15 09:26:41.000   4280212.7349  -4034413.8752  -2458259.2524   5  12   4.2106   3.7878   4.1983  -3.3769   3.0876  -3.1395   0.00    0.0
2019/01/15 09:26:42.000   4280229.2201  -4034423.5599  -2458255.4333   5  11   4.3609   3.9124   5.5004  -3.5377   3.6077  -3.7267   0.00    0.0
2019/01/15 09:26:45.000   4280215.6008  -4034414.0105  -2458266.8526   5  11   4.6602   4.0081   4.2952  -3.7446   3.2746  -3.4157   0.00    0.0
2019/01/15 09:26:46.000   4280237.1822  -4034427.9607  -2458286.9804   5  12   4.2103   3.7864   4.1969  -3.3759   3.0858  -3.1371   0.00    0.0
2019/01/15 09:26:47.000   4280232.2899  -4034428.9696  -2458280.5080   5  12   4.2103   3.7862   4.1966  -3.3757   3.0854  -3.1366   0.00    0.0
2019/01/15 09:26:48.000   4280224.7652  -4034417.5938  -2458271.6564   5  11   4.6602   4.0074   4.2946  -3.7441   3.2737  -3.4147   0.00    0.0
2019/01/15 09:26:50.000   4280242.3639  -4034436.5407  -2458300.2155   5  11   4.2276   3.8293   4.5891  -3.4078   3.2540  -3.2470   0.00    0.0
2019/01/15 09:26:52.000   4280229.3874  -4034428.4549  -2458272.9833   5  11   4.2243   3.8053   4.2189  -3.3543   3.0548  -3.1588   0.00    0.0
2019/01/15 09:26:53.000   4280233.4880  -4034421.0844  -2458277.0974   5  11   4.6602   4.0062   4.2935  -3.7434   3.2723  -3.4129   0.00    0.0
2019/01/15 09:26:54.000   4280236.4671  -4034432.2806  -2458284.7927   5  12   4.2099   3.7842   4.1947  -3.3742   3.0828  -3.1333   0.00    0.0
2019/01/15 09:26:57.000   4280221.1757  -4034417.2026  -2458269.4279   5  12   4.2098   3.7834   4.1939  -3.3736   3.0817  -3.1319   0.00    0.0
2019/01/15 09:26:58.000   4280220.9100  -4034422.8275  -2458264.7197   5  10   4.7493   4.0052   4.3516  -3.7371   3.2659  -3.5059   0.00    0.0
2019/01/15 09:26:59.000   4280225.1730  -4034425.0472  -2458266.8168   5  10   4.7493   4.0050   4.3514  -3.7370   3.2656  -3.5055   0.00    0.0
2019/01/15 09:27:00.000   4280228.9126  -4034423.3944  -2458273.5176   5  11   4.6603   4.0045   4.2920  -3.7423   3.2702  -3.4105   0.00    0.0
2019/01/15 09:27:01.000   4280226.1820  -4034418.9210  -2458271.7479   5  12   4.2096   3.7823   4.1928  -3.3728   3.0802  -3.1300   0.00    0.0
2019/01/15 09:27:02.000   4280214.0671  -4034418.7757  -2458262.5860   5  12   4.2095   3.7821   4.1925  -3.3726   3.0798  -3.1295   0.00    0.0
2019/01/15 09:27:03.000   4280209.8062  -4034416.1742  -2458262.3473   5  11   4.6603   4.0038   4.2913  -3.7419   3.2693  -3.4094   0.00    0.0
2019/01/15 09:27:04.000   4280209.4517  -4034411.5632  -2458251.9901   5  12   4.2094   3.7815   4.1919  -3.3722   3.0791  -3.1286   0.00    0.0
2019/01/15 09:27:05.000   4280217.7628  -4034423.8231  -2458272.9641   5  12   4.2094   3.7813   4.1917  -3.3719   3.0787  -3.1281   0.00    0.0
2019/01/15 09:27:06.000   4280217.3091  -4034424.8970  -2458271.7357   5  11   4.6603   4.0031   4.2906  -3.7414   3.2684  -3.4084   0.00    0.0
2019/01/15 09:27:07.000   4280228.5327  -4034429.2729  -2458278.9369   5  11   4.6603   4.0028   4.2904  -3.7413   3.2681  -3.4080   0.00    0.0
2019/01/15 09:27:08.000   4280206.8655  -4034412.8268  -2458262.5531   5  11   4.6603   4.0026   4.2902  -3.7411   3.2679  -3.4077   0.00    0.0
2019/01/15 09:27:09.000   4280210.8366  -4034411.0571  -2458266.2198   5  12   4.2092   3.7802   4.1905  -3.3711   3.0772  -3.1262   0.00    0.0
2019/01/15 09:27:10.000   4280211.1637  -4034400.5514  -2458248.5580   5  11   4.3109   5.1058   5.7037  -3.8156   4.7696  -3.6569   0.00    0.0
2019/01/15 09:27:11.000   4280234.3996  -4034431.6212  -2458285.2663   5  11   4.2231   3.8005   4.2128  -3.3503   3.0480  -3.1492   0.00    0.0
2019/01/15 09:27:12.000   4280221.9453  -4034419.5740  -2458277.9635   5  11   4.6603   4.0017   4.2893  -3.7405   3.2667  -3.4062   0.00    0.0
2019/01/15 09:27:13.000   4280216.4832  -4034411.9608  -2458255.0996   5  12   4.2090   3.7791   4.1894  -3.3703   3.0757  -3.1242   0.00    0.0
2019/01/15 09:27:14.000   4280215.8493  -4034417.4514  -2458269.4544   5  12   4.2090   3.7788   4.1891  -3.3701   3.0754  -3.1238   0.00    0.0
2019/01/15 09:27:15.000   4280215.9571  -4034415.4721  -2458261.1399   5  11   4.2229   3.7995   4.2115  -3.3495   3.0466  -3.1472   0.00    0.0
2019/01/15 09:27:18.000   4280228.5317  -4034418.2485  -2458274.2083   5  12   4.2088   3.7777   4.1880  -3.3693   3.0739  -3.1218   0.00    0.0
2019/01/15 09:27:20.000   4280205.1676  -4034401.0565  -2458261.4935   5  12   4.2087   3.7772   4.1874  -3.3689   3.0731  -3.1209   0.00    0.0
2019/01/15 09:27:21.000   4280218.2490  -4034412.7192  -2458274.6378   5  11   4.5427   3.7794   4.3501  -3.4032   3.0989  -3.4284   0.00    0.0
2019/01/15 09:27:22.000   4280218.0337  -4034413.9497  -2458269.9589   5  11   4.6604   3.9993   4.2871  -3.7390   3.2637  -3.4027   0.00    0.0
2019/01/15 09:27:23.000   4280205.1342  -4034404.1213  -2458265.3629   5  12   4.2085   3.7764   4.1866  -3.3682   3.0720  -3.1194   0.00    0.0
2019/01/15 09:27:24.000   4280218.0320  -4034409.8596  -2458265.9195   5  11   4.5430   3.7786   4.3496  -3.4028   3.0979  -3.4275   0.00    0.0
2019/01/15 09:27:26.000   4280195.4154  -4034388.1636  -2458229.4162   5  11   4.2254   3.8187   4.5782  -3.3997   3.2391  -3.2287   0.00    0.0
2019/01/15 09:27:27.000   4280214.0949  -4034408.8878  -2458258.7450   5  12   4.2084   3.7753   4.1855  -3.3674   3.0705  -3.1175   0.00    0.0
2019/01/15 09:27:28.000   4280211.0886  -4034405.5372  -2458251.9226   5  11   4.2203   3.8286   4.2466  -3.3972   2.9944  -3.0801   0.00    0.0
2019/01/15 09:27:29.000   4280217.8045  -4034409.9579  -2458265.0075   5  11   4.2221   3.7960   4.2069  -3.3466   3.0415  -3.1400   0.00    0.0
2019/01/15 09:27:30.000   4280211.1523  -4034410.1479  -2458250.4226   5  11   4.2203   3.8282   4.2460  -3.3969   2.9936  -3.0790   0.00    0.0
2019/01/15 09:27:31.000   4280216.9496  -4034413.8562  -2458258.8862   5  11   4.2203   3.8280   4.2457  -3.3968   2.9931  -3.0784   0.00    0.0
2019/01/15 09:27:32.000   4280216.5557  -4034416.6567  -2458252.0573   5  11   4.2203   3.8278   4.2454  -3.3967   2.9927  -3.0779   0.00    0.0
2019/01/15 09:27:33.000   4280227.2175  -4034426.2631  -2458272.3183   5  11   4.2203   3.8275   4.2450  -3.3965   2.9923  -3.0773   0.00    0.0
2019/01/15 09:27:35.000   4280218.6521  -4034419.2030  -2458255.5073   5  11   4.2203   3.8271   4.2444  -3.3963   2.9915  -3.0762   0.00    0.0
2019/01/15 09:27:36.000   4280235.2245  -4034428.2996  -2458290.5481   5  11   4.2203   3.8269   4.2441  -3.3962   2.9911  -3.0756   0.00    0.0
2019/01/15 09:27:37.000   4280228.9276  -4034418.8747  -2458273.8175   5  11   4.2203   3.8267   4.2437  -3.3961   2.9907  -3.0751   0.00    0.0
2019/01/15 09:27:40.000   4280218.4775  -4034410.9834  -2458280.7317   5  12   4.2078   3.7718   4.1817  -3.3647   3.0656  -3.1112   0.00    0.0
2019/01/15 09:27:43.000   4280233.2950  -4034412.9240  -2458295.3892   5  10   4.2500   3.8221   4.6783  -3.3785   3.1933  -3.2905   0.00    0.0
2019/01/15 09:27:44.000   4280233.4518  -4034422.9850  -2458277.8409   5  11   4.2212   3.7922   4.2019  -3.3435   3.0361  -3.1323   0.00    0.0
2019/01/15 09:27:45.000   4280230.5467  -4034414.2556  -2458291.3053   5  10   4.2498   3.8215   4.6774  -3.3781   3.1924  -3.2893   0.00    0.0
2019/01/15 09:27:46.000   4280219.3781  -4034417.9243  -2458273.7637   5  11   4.2204   3.8249   4.2408  -3.3950   2.9871  -3.0700   0.00    0.0
2019/01/15 09:27:47.000   4280233.1819  -4034416.2256  -2458291.4114   5  12   4.2074   3.7699   4.1797  -3.3633   3.0630  -3.1078   0.00    0.0
2019/01/15 09:27:48.000   4280213.8849  -4034388.7312  -2458248.3356   5  10   4.3126   5.1729   5.7167  -3.7795   4.7808  -3.6367   0.00    0.0
2019/01/15 09:27:49.000   4280232.6978  -4034427.0833  -2458283.6874   5  11   4.2210   3.7910   4.2003  -3.3425   3.0343  -3.1297   0.00    0.0
2019/01/15 09:27:50.000   4280217.1701  -4034411.3051  -2458267.9571   5  11   4.2209   3.7907   4.1999  -3.3423   3.0340  -3.1292   0.00    0.0
2019/01/15 09:27:51.000   4280230.4187  -4034418.5115  -2458277.2830   5  10   4.2493   3.8199   4.6748  -3.3767   3.1898  -3.2858   0.00    0.0
2019/01/15 09:27:52.000   4280223.6495  -4034416.6495  -2458282.1232   5  11   4.2208   3.7902   4.1993  -3.3419   3.0332  -3.1281   0.00    0.0
2019/01/15 09:27:53.000   4280235.6452  -4034428.2432  -2458275.3485   5  11   4.2207   3.7900   4.1989  -3.3417   3.0329  -3.1276   0.00    0.0
2019/01/15 09:27:54.000   4280229.2431  -4034421.6149  -2458271.7965   5  11   4.2207   3.7897   4.1986  -3.3415   3.0325  -3.1271   0.00    0.0
2019/01/15 09:27:55.000   4280227.6907  -4034421.8334  -2458279.9723   5  11   4.2206   3.7895   4.1983  -3.3413   3.0321  -3.1266   0.00    0.0
2019/01/15 09:27:57.000   4280215.9629  -4034418.0106  -2458275.4987   5  11   4.2205   3.7890   4.1976  -3.3409   3.0314  -3.1255   0.00    0.0
2019/01/15 09:27:58.000   4280220.7869  -4034421.0771  -2458288.3366   5  10   4.3322   3.9065   5.4026  -3.4772   3.5250  -3.6182   0.00    0.0
2019/01/15 09:27:59.000   4280231.1909  -4034422.2825  -2458285.9193   5  10   4.7483   3.9909   4.3341  -3.7268   3.2469  -3.4808   0.00    0.0
2019/01/15 09:28:00.000   4280214.9163  -4034412.4466  -2458273.5660   5  10   4.7483   3.9907   4.3338  -3.7266   3.2466  -3.4804   0.00    0.0
2019/01/15 09:28:01.000   4280210.0847  -4034404.9254  -2458272.0698   5  11   4.2203   3.7880   4.1963  -3.3400   3.0300  -3.1235   0.00    0.0
2019/01/15 09:28:02.000   4280226.9354  -4034422.6862  -2458273.0974   5  11   4.2203   3.7877   4.1959  -3.3398   3.0296  -3.1229   0.00    0.0
2019/01/15 09:28:03.000   4280253.2384  -4034429.2303  -2458287.6452   5  10   5.8231   3.8713   4.2342  -3.7904   3.1038  -3.4699   0.00    0.0
2019/01/15 09:28:04.000   4280232.6328  -4034422.4257  -2458279.4419   5  11   4.2201   3.7872   4.1952  -3.3394   3.0289  -3.1219   0.00    0.0
2019/01/15 09:28:05.000   4280213.1229  -4034414.7763  -2458263.0833   5  12   4.2066   3.7651   4.1744  -3.3596   3.0562  -3.0990   0.00    0.0
2019/01/15 09:28:06.000   4280222.3675  -4034428.6819  -2458280.0079   5  11   4.3245   3.8653   5.3919  -3.4877   3.5108  -3.6089   0.00    0.0
2019/01/15 09:28:07.000   4280220.8371  -4034417.9272  -2458273.2424   5  11   4.3241   3.8648   5.3907  -3.4871   3.5096  -3.6075   0.00    0.0
2019/01/15 09:28:08.000   4280213.5384  -4034411.9862  -2458265.6975   5  12   4.2065   3.7643   4.1735  -3.3590   3.0550  -3.0975   0.00    0.0
2019/01/15 09:28:09.000   4280231.4288  -4034438.2729  -2458287.9198   5  11   4.3049   5.0955   5.7222  -3.7981   4.7725  -3.6298   0.00    0.0
2019/01/15 09:28:10.000   4280211.2649  -4034417.9266  -2458251.2390   5  11   4.2229   3.8060   4.5642  -3.3898   3.2207  -3.2059   0.00    0.0
2019/01/15 09:28:12.000   4280225.0500  -4034427.8930  -2458259.6172   5  11   4.2207   3.8198   4.2323  -3.3920   2.9765  -3.0554   0.00    0.0
2019/01/15 09:28:19.000   4280230.0522  -4034425.2655  -2458259.8394   5  11   4.6604   3.9858   4.2737  -3.7302   3.2465  -3.3819   0.00    0.0
2019/01/15 09:28:20.000   4280224.8654  -4034424.4777  -2458259.2087   5  12   4.2060   3.7612   4.1700  -3.3566   3.0505  -3.0916   0.00    0.0
2019/01/15 09:28:21.000   4280228.6002  -4034418.9733  -2458260.7231   5  11   4.2192   3.7831   4.1895  -3.3360   3.0227  -3.1130   0.00    0.0
2019/01/15 09:28:22.000   4280219.3941  -4034417.8596  -2458264.3978   5  11   4.2192   3.7828   4.1891  -3.3358   3.0223  -3.1125   0.00    0.0
2019/01/15 09:28:23.000   4280226.1955  -4034417.4663  -2458258.4804   5  12   4.2059   3.7604   4.1691  -3.3560   3.0493  -3.0901   0.00    0.0
2019/01/15 09:28:24.000   4280242.0415  -4034423.1564  -2458274.9876   5  11   5.7265   3.8551   4.1960  -3.8166   3.1148  -3.3766   0.00    0.0
2019/01/15 09:28:25.000   4280254.1010  -4034433.4764  -2458274.3842   5  11   5.7264   3.8547   4.1957  -3.8162   3.1143  -3.3758   0.00    0.0
2019/01/15 09:28:26.000   4280234.7911  -4034430.7843  -2458272.1819   5  12   4.2057   3.7596   4.1682  -3.3554   3.0482  -3.0886   0.00    0.0
2019/01/15 09:28:27.000   4280227.3125  -4034412.4443  -2458271.2678   5  11   4.2477   4.1196   4.1717  -3.5015   3.0966  -3.1053   0.00    0.0
2019/01/15 09:28:29.000   4280208.6293  -4034399.4915  -2458246.1017   5  11   4.5504   3.7621   4.3380  -3.3953   3.0780  -3.4094   0.00    0.0
2019/01/15 09:28:31.000   4280224.0596  -4034421.1612  -2458258.6177   5  11   4.5506   3.7616   4.3376  -3.3951   3.0774  -3.4088   0.00    0.0
2019/01/15 09:28:32.000   4280205.1160  -4034401.3885  -2458260.0157   5  12   4.2055   3.7580   4.1664  -3.3542   3.0459  -3.0857   0.00    0.0
2019/01/15 09:28:33.000   4280240.8012  -4034434.2381  -2458278.2449   5  11   4.6604   3.9825   4.2703  -3.7281   3.2422  -3.3766   0.00    0.0
2019/01/15 09:28:34.000   4280212.5734  -4034406.6479  -2458270.6112   5  11   4.4888   4.5201   4.1703  -3.8976   2.9641  -3.0350   0.00    0.0
2019/01/15 09:28:35.000   4280213.3898  -4034406.8735  -2458252.5166   5  11   4.3131   3.8499   5.3549  -3.4715   3.4780  -3.5688   0.00    0.0
2019/01/15 09:28:36.000   4280228.3790  -4034418.5219  -2458272.4044   5  12   4.2053   3.7570   4.1652  -3.3534   3.0444  -3.0837   0.00    0.0
2019/01/15 09:28:37.000   4280223.3590  -4034411.4092  -2458266.0907   5  11   4.2470   4.1157   4.1683  -3.4989   3.0906  -3.0995   0.00    0.0
2019/01/15 09:28:39.000   4280232.4287  -4034424.9866  -2458276.8214   5  12   4.2052   3.7562   4.1643  -3.3528   3.0432  -3.0822   0.00    0.0
2019/01/15 09:28:40.000   4280232.2140  -4034429.4160  -2458276.6072   5  11   4.2213   3.7974   4.5542  -3.3832   3.2080  -3.1901   0.00    0.0
2019/01/15 09:28:41.000   4280223.6359  -4034417.8104  -2458261.9764   5  11   4.5517   3.7591   4.3357  -3.3939   3.0743  -3.4059   0.00    0.0
2019/01/15 09:28:42.000   4280232.9906  -4034423.3260  -2458272.1497   5  11   4.2212   3.7968   4.5535  -3.3827   3.2071  -3.1890   0.00    0.0
2019/01/15 09:28:43.000   4280234.8714  -4034421.6094  -2458275.9938   5  12   4.2051   3.7551   4.1630  -3.3520   3.0417  -3.0802   0.00    0.0
2019/01/15 09:28:44.000   4280230.7672  -4034414.4890  -2458275.4478   5  11   4.3013   5.0891   5.7320  -3.7873   4.7734  -3.6127   0.00    0.0
2019/01/15 09:28:45.000   4280214.5917  -4034413.8808  -2458267.9001   5  11   4.2180   3.7772   4.1812  -3.3311   3.0140  -3.1005   0.00    0.0
2019/01/15 09:28:47.000   4280224.1081  -4034418.3893  -2458272.1197   5  12   4.2049   3.7541   4.1618  -3.3512   3.0402  -3.0782   0.00    0.0
2019/01/15 09:28:49.000   4280211.2021  -4034413.9637  -2458266.3024   5  11   4.9490   4.3277   4.3147  -4.1048   3.4198  -3.5279   0.00    0.0
2019/01/15 09:28:50.000   4280222.7818  -4034420.3652  -2458291.7784   5  11   4.2208   3.7945   4.5508  -3.3810   3.2037  -3.1848   0.00    0.0
2019/01/15 09:28:51.000   4280224.0734  -4034413.9921  -2458274.5941   5  12   4.2047   3.7530   4.1606  -3.3504   3.0387  -3.0762   0.00    0.0
2019/01/15 09:28:52.000   4280223.0762  -4034425.1422  -2458288.4935   5  11   4.3005   5.0876   5.7342  -3.7848   4.7735  -3.6087   0.00    0.0
2019/01/15 09:28:54.000   4280244.3065  -4034433.5615  -2458297.0946   5  12   4.2046   3.7523   4.1597  -3.3498   3.0375  -3.0747   0.00    0.0
2019/01/15 09:28:55.000   4280206.1506  -4034405.4912  -2458276.4833   5  12   4.2046   3.7520   4.1594  -3.3496   3.0371  -3.0742   0.00    0.0
2019/01/15 09:28:56.000   4280217.8175  -4034422.3950  -2458275.5157   5  12   4.2045   3.7517   4.1591  -3.3494   3.0367  -3.0737   0.00    0.0
2019/01/15 09:28:57.000   4280215.6002  -4034422.5291  -2458271.6220   5  12   4.2045   3.7515   4.1588  -3.3492   3.0364  -3.0732   0.00    0.0
2019/01/15 09:28:58.000   4280224.7567  -4034425.4928  -2458276.2236   5  12   4.2045   3.7512   4.1585  -3.3490   3.0360  -3.0727   0.00    0.0
2019/01/15 09:29:00.000   4280219.2612  -4034416.5296  -2458269.2459   5  12   4.2044   3.7507   4.1578  -3.3486   3.0352  -3.0717   0.00    0.0
2019/01/15 09:29:02.000   4280206.6892  -4034401.9528  -2458268.7290   5  12   4.2043   3.7502   4.1572  -3.3482   3.0345  -3.0707   0.00    0.0
2019/01/15 09:29:03.000   4280196.9232  -4034411.6558  -2458268.3547   5  11   5.7206   3.8413   4.1819  -3.8001   3.0961  -3.3462   0.00    0.0
2019/01/15 09:29:05.000   4280210.7406  -4034401.5504  -2458264.9013   5  11   4.5545   3.7532   4.3310  -3.3912   3.0668  -3.3989   0.00    0.0
2019/01/15 09:29:06.000   4280195.8296  -4034396.5605  -2458244.0386   5  11   4.4468   3.8460   4.4620  -3.5281   3.2544  -3.4307   0.00    0.0
2019/01/15 09:29:07.000   4280226.5286  -4034424.2066  -2458270.4608   5  11   4.5547   3.7527   4.3306  -3.3910   3.0662  -3.3984   0.00    0.0
2019/01/15 09:29:08.000   4280211.6755  -4034398.6735  -2458254.8274   5  11   4.5548   3.7524   4.3304  -3.3909   3.0659  -3.3981   0.00    0.0
2019/01/15 09:29:12.000   4280209.4275  -4034414.5027  -2458259.1480   5  11   4.2220   3.8082   4.2119  -3.3854   2.9520  -3.0211   0.00    0.0
2019/01/15 09:29:15.000   4280209.6661  -4034394.3167  -2458255.1598   5  11   4.5557   3.7507   4.3290  -3.3901   3.0637  -3.3960   0.00    0.0
2019/01/15 09:29:16.000   4280209.6876  -4034401.0512  -2458250.6684   5  11   4.5558   3.7505   4.3288  -3.3900   3.0634  -3.3957   0.00    0.0
2019/01/15 09:29:17.000   4280223.4539  -4034415.1871  -2458281.1084   5  11   4.2977   3.8285   5.3016  -3.4490   3.4313  -3.5112   0.00    0.0
2019/01/15 09:29:19.000   4280209.6780  -4034403.6486  -2458271.3840   5  11   4.2193   3.7863   4.5408  -3.3746   3.1913  -3.1693   0.00    0.0
2019/01/15 09:29:20.000   4280216.5006  -4034418.0248  -2458268.4133   5  11   4.2966   3.8270   5.2979  -3.4474   3.4279  -3.5071   0.00    0.0
2019/01/15 09:29:21.000   4280231.1767  -4034433.5778  -2458267.8869   5  11   4.2223   3.8065   4.2088  -3.3845   2.9483  -3.0159   0.00    0.0
2019/01/15 09:29:22.000   4280217.4616  -4034411.8595  -2458263.8430   5  11   4.2223   3.8064   4.2084  -3.3844   2.9478  -3.0154   0.00    0.0
2019/01/15 09:29:24.000   4280238.3063  -4034424.1248  -2458271.5122   5  11   4.6603   3.9706   4.2574  -3.7200   3.2264  -3.3571   0.00    0.0
2019/01/15 09:29:26.000   4280221.9219  -4034418.5935  -2458277.0451   5  11   4.2161   3.7673   4.1669  -3.3229   2.9990  -3.0787   0.00    0.0
2019/01/15 09:29:30.000   4280213.0233  -4034409.8643  -2458255.3718   5  11   4.2159   3.7664   4.1655  -3.3221   2.9975  -3.0766   0.00    0.0
2019/01/15 09:29:33.000   4280225.6307  -4034431.0474  -2458283.8195   5  11   4.2963   5.0796   5.7444  -3.7716   4.7736  -3.5874   0.00    0.0
2019/01/15 09:29:34.000   4280219.2411  -4034428.3248  -2458295.8641   5  11   4.2962   5.0794   5.7446  -3.7712   4.7736  -3.5868   0.00    0.0
2019/01/15 09:29:35.000   4280183.7756  -4034379.1788  -2458255.9005   5  11   4.4930   4.5120   4.1507  -3.8949   2.9466  -3.0075   0.00    0.0
2019/01/15 09:29:36.000   4280208.7560  -4034407.0857  -2458262.3146   5  11   4.6602   3.9678   4.2543  -3.7181   3.2226  -3.3524   0.00    0.0
2019/01/15 09:29:37.000   4280212.3746  -4034407.2393  -2458263.9117   5  11   4.6602   3.9676   4.2540  -3.7180   3.2223  -3.3520   0.00    0.0
2019/01/15 09:29:38.000   4280212.1424  -4034410.4072  -2458266.4882   5  11   4.6602   3.9674   4.2537  -3.7178   3.2220  -3.3516   0.00    0.0
2019/01/15 09:29:39.000   4280207.7508  -4034417.7839  -2458258.1536   5  11   4.2901   3.8176   5.2740  -3.4376   3.4071  -3.4813   0.00    0.0
2019/01/15 09:29:42.000   4280223.8618  -4034419.4463  -2458271.4334   5  12   4.2028   3.7399   4.1447  -3.3403   3.0191  -3.0505   0.00    0.0
2019/01/15 09:29:43.000   4280214.7522  -4034413.5574  -2458268.4101   5  12   4.2028   3.7396   4.1444  -3.3401   3.0187  -3.0500   0.00    0.0
2019/01/15 09:29:44.000   4280215.4431  -4034411.0849  -2458258.8841   5  12   4.2028   3.7394   4.1440  -3.3399   3.0183  -3.0495   0.00    0.0
2019/01/15 09:29:45.000   4280218.1720  -4034426.8621  -2458268.6244   5  11   4.2881   3.8147   5.2664  -3.4346   3.4005  -3.4732   0.00    0.0
2019/01/15 09:29:46.000   4280211.2908  -4034415.9903  -2458255.4048   5  11   4.2877   3.8142   5.2652  -3.4341   3.3994  -3.4718   0.00    0.0
2019/01/15 09:29:47.000   4280226.6091  -4034421.4390  -2458254.2459   5  11   4.2874   3.8137   5.2639  -3.4336   3.3983  -3.4705   0.00    0.0
2019/01/15 09:29:48.000   4280236.5513  -4034442.2725  -2458285.6284   5  11   4.2947   5.0765   5.7478  -3.7666   4.7734  -3.5793   0.00    0.0
2019/01/15 09:29:49.000   4280250.1268  -4034442.3871  -2458277.0567   5  11   4.5596   3.7425   4.3219  -3.3864   3.0531  -3.3858   0.00    0.0
2019/01/15 09:29:51.000   4280225.4622  -4034426.9329  -2458264.0434   5  11   4.2861   3.8118   5.2589  -3.4316   3.3940  -3.4651   0.00    0.0
2019/01/15 09:29:52.000   4280231.8209  -4034440.2259  -2458292.6986   5  11   4.2943   5.0757   5.7487  -3.7653   4.7733  -3.5771   0.00    0.0
2019/01/15 09:29:53.000   4280222.0641  -4034419.1759  -2458257.1307   5  12   4.2025   3.7371   4.1412  -3.3381   3.0148  -3.0449   0.00    0.0
2019/01/15 09:29:54.000   4280222.4296  -4034426.0547  -2458276.9068   5  11   4.2941   5.0753   5.7491  -3.7646   4.7733  -3.5760   0.00    0.0
2019/01/15 09:29:55.000   4280226.3136  -4034410.9892  -2458253.8108   5  12   4.2024   3.7366   4.1405  -3.3377   3.0141  -3.0439   0.00    0.0
2019/01/15 09:29:56.000   4280227.0985  -4034420.2310  -2458265.7872   5  11   4.2148   3.7602   4.1562  -3.3170   2.9880  -3.0627   0.00    0.0
2019/01/15 09:29:57.000   4280220.0417  -4034413.7528  -2458269.3308   5  11   4.5606   3.7406   4.3202  -3.3855   3.0506  -3.3834   0.00    0.0
2019/01/15 09:29:59.000   4280231.7975  -4034431.1362  -2458271.1418   5  12   4.2023   3.7356   4.1392  -3.3369   3.0125  -3.0419   0.00    0.0
2019/01/15 09:30:00.000   4280219.7386  -4034420.6206  -2458259.5699   5  12   4.2022   3.7353   4.1389  -3.3367   3.0121  -3.0414   0.00    0.0
2019/01/15 09:30:01.000   4280223.3661  -4034413.1197  -2458254.4876   5  12   4.2022   3.7351   4.1386  -3.3365   3.0118  -3.0408   0.00    0.0
2019/01/15 09:30:02.000   4280227.1561  -4034419.2572  -2458265.2663   5  11   4.2825   3.8065   5.2452  -3.4261   3.3821  -3.4502   0.00    0.0
2019/01/15 09:30:03.000   4280225.7726  -4034419.7026  -2458275.5418   5  12   4.2021   3.7346   4.1380  -3.3362   3.0110  -3.0398   0.00    0.0
2019/01/15 09:30:04.000   4280222.3089  -4034415.1501  -2458255.3723   5  12   4.2021   3.7343   4.1376  -3.3360   3.0106  -3.0393   0.00    0.0
2019/01/15 09:30:06.000   4280241.0755  -4034433.4718  -2458285.5338   5  11   4.2812   3.8046   5.2402  -3.4241   3.3777  -3.4448   0.00    0.0
2019/01/15 09:30:08.000   4280220.7054  -4034418.7912  -2458259.6202   5  11   4.2143   3.7574   4.1519  -3.3146   2.9836  -3.0562   0.00    0.0
2019/01/15 09:30:09.000   4280233.7156  -4034427.6657  -2458275.0243   5  11   4.2142   3.7572   4.1515  -3.3144   2.9832  -3.0557   0.00    0.0
2019/01/15 09:30:10.000   4280239.3390  -4034425.9407  -2458271.8646   5  11   4.2142   3.7569   4.1512  -3.3142   2.9828  -3.0551   0.00    0.0
2019/01/15 09:30:11.000   4280229.5640  -4034432.8306  -2458250.1478   5  10   5.1010   4.8926   4.2450  -4.4436   3.2277  -3.3498   0.00    0.0
2019/01/15 09:30:13.000   4280255.2522  -4034423.6591  -2458259.8011   5  10   7.0448   4.2469   4.3458  -4.6796   3.4270  -4.0091   0.00    0.0
2019/01/15 09:30:14.000   4280225.2318  -4034417.1088  -2458251.3351   5  11   4.6600   3.9590   4.2441  -3.7121   3.2105  -3.3374   0.00    0.0
2019/01/15 09:30:15.000   4280224.6104  -4034423.9726  -2458269.0993   5  11   4.6600   3.9588   4.2438  -3.7119   3.2102  -3.3370   0.00    0.0
2019/01/15 09:30:16.000   4280228.3141  -4034430.6355  -2458280.5987   5  10   4.6609   3.9877   4.3293  -3.7176   3.1450  -3.3249   0.00    0.0
2019/01/15 09:30:18.000   4280221.3008  -4034419.6654  -2458262.8915   5  12   4.2017   3.7308   4.1331  -3.3332   3.0052  -3.0321   0.00    0.0
2019/01/15 09:30:19.000   4280199.4452  -4034405.8483  -2458251.2077   5  11   4.6600   3.9579   4.2427  -3.7113   3.2090  -3.3354   0.00    0.0
2019/01/15 09:30:20.000   4280221.3015  -4034412.4778  -2458251.1196   5  11   4.2244   3.7959   4.1878  -3.3787   2.9239  -2.9816   0.00    0.0
2019/01/15 09:30:21.000   4280241.1775  -4034439.9030  -2458253.9723   5  11   4.4964   4.5059   4.1354  -3.8928   2.9334  -2.9864   0.00    0.0
2019/01/15 09:30:22.000   4280220.6945  -4034419.3021  -2458262.0125   5  12   4.2015   3.7298   4.1318  -3.3325   3.0036  -3.0301   0.00    0.0
2019/01/15 09:30:23.000   4280224.1616  -4034421.1622  -2458271.7216   5  11   4.2759   3.7966   5.2190  -3.4159   3.3594  -3.4220   0.00    0.0
2019/01/15 09:30:25.000   4280211.2931  -4034408.1302  -2458255.1563   5  12   4.2015   3.7290   4.1308  -3.3319   3.0025  -3.0285   0.00    0.0
2019/01/15 09:30:26.000   4280211.7202  -4034412.8784  -2458251.4254   5  12   4.2014   3.7288   4.1305  -3.3317   3.0021  -3.0280   0.00    0.0
2019/01/15 09:30:27.000   4280214.3645  -4034415.2989  -2458263.2617   5  12   4.2014   3.7285   4.1302  -3.3315   3.0017  -3.0275   0.00    0.0
2019/01/15 09:30:28.000   4280232.9958  -4034425.5304  -2458279.9164   5  11   4.2248   3.7945   4.1849  -3.3780   2.9206  -2.9769   0.00    0.0
2019/01/15 09:30:29.000   4280216.5639  -4034405.0767  -2458268.7822   5  12   4.2013   3.7280   4.1295  -3.3311   3.0009  -3.0265   0.00    0.0
2019/01/15 09:30:31.000   4280225.8758  -4034420.9717  -2458269.4119   5  12   4.2013   3.7275   4.1288  -3.3307   3.0001  -3.0254   0.00    0.0
2019/01/15 09:30:32.000   4280225.0013  -4034416.7997  -2458278.9628   5  11   4.2133   3.7518   4.1432  -3.3100   2.9748  -3.0432   0.00    0.0
2019/01/15 09:30:33.000   4280218.1361  -4034414.7961  -2458264.9166   5  12   4.2012   3.7270   4.1282  -3.3304   2.9994  -3.0244   0.00    0.0
2019/01/15 09:30:36.000   4280213.0329  -4034425.3933  -2458282.2990   5  11   4.2897   5.0665   5.7577  -3.7503   4.7719  -3.5525   0.00    0.0
2019/01/15 09:30:38.000   4280214.5807  -4034411.0643  -2458269.3493   5  11   4.2252   3.7927   4.1813  -3.3771   2.9165  -2.9710   0.00    0.0
2019/01/15 09:30:40.000   4280212.5105  -4034394.4859  -2458254.3878   5  12   4.2010   3.7253   4.1259  -3.3290   2.9966  -3.0208   0.00    0.0
2019/01/15 09:30:41.000   4280209.5079  -4034395.7285  -2458259.2869   5  11   4.2254   3.7922   4.1802  -3.3769   2.9153  -2.9693   0.00    0.0
2019/01/15 09:30:42.000   4280194.9869  -4034391.1498  -2458240.3715   5  11   4.2156   3.7634   4.5104  -3.3568   3.1552  -3.1239   0.00    0.0
2019/01/15 09:30:43.000   4280213.2741  -4034402.3924  -2458256.4481   5  11   4.6598   3.9523   4.2361  -3.7074   3.2012  -3.3256   0.00    0.0
2019/01/15 09:30:44.000   4280216.4089  -4034404.6794  -2458263.8804   5  12   4.2009   3.7243   4.1246  -3.3282   2.9951  -3.0187   0.00    0.0
2019/01/15 09:30:45.000   4280224.5679  -4034427.4680  -2458276.4070   5  11   4.9717   4.3128   4.3041  -4.1061   3.4127  -3.5191   0.00    0.0
2019/01/15 09:30:46.000   4280211.0434  -4034414.7998  -2458267.1446   5  12   4.2008   3.7238   4.1239  -3.3279   2.9943  -3.0177   0.00    0.0
2019/01/15 09:30:50.000   4280216.3402  -4034415.6220  -2458280.3353   5  12   4.2007   3.7228   4.1226  -3.3271   2.9928  -3.0156   0.00    0.0
2019/01/15 09:30:51.000   4280222.9476  -4034407.6056  -2458256.5453   5  11   4.2882   5.0632   5.7605  -3.7451   4.7712  -3.5438   0.00    0.0
2019/01/15 09:30:52.000   4280231.1978  -4034422.0755  -2458291.4861   5  11   4.2673   3.7834   5.1832  -3.4022   3.3285  -3.3834   0.00    0.0
2019/01/15 09:30:53.000   4280217.6627  -4034413.9400  -2458282.3007   5  12   4.2007   3.7221   4.1216  -3.3265   2.9916  -3.0141   0.00    0.0
2019/01/15 09:30:54.000   4280223.1293  -4034413.7100  -2458275.1377   5  12   4.2006   3.7218   4.1212  -3.3263   2.9912  -3.0135   0.00    0.0
2019/01/15 09:30:55.000   4280201.9284  -4034403.8684  -2458264.4167   5  12   4.2006   3.7216   4.1209  -3.3261   2.9908  -3.0130   0.00    0.0
2019/01/15 09:30:57.000   4280215.2568  -4034398.0159  -2458254.4883   5  11   4.2876   5.0619   5.7616  -3.7430   4.7708  -3.5402   0.00    0.0
2019/01/15 09:30:59.000   4280214.3654  -4034410.5182  -2458256.7164   5  11   4.2149   3.7588   4.5039  -3.3533   3.1478  -3.1145   0.00    0.0
2019/01/15 09:31:00.000   4280193.5678  -4034410.4593  -2458267.0880   5  11   5.7045   3.8017   4.1382  -3.7518   3.0402  -3.2540   0.00    0.0
2019/01/15 09:31:01.000   4280229.2196  -4034420.1694  -2458278.5401   5  12   4.2004   3.7201   4.1189  -3.3250   2.9885  -3.0099   0.00    0.0
2019/01/15 09:31:02.000   4280230.5447  -4034412.1810  -2458267.0848   5  11   4.2122   3.7450   4.1322  -3.3042   2.9637  -3.0269   0.00    0.0
2019/01/15 09:31:03.000   4280232.2544  -4034406.4249  -2458275.7387   5  11   4.6596   3.9477   4.2304  -3.7042   3.1947  -3.3174   0.00    0.0
2019/01/15 09:31:05.000   4280213.1225  -4034406.0930  -2458245.1846   5  12   4.2003   3.7191   4.1176  -3.3242   2.9869  -3.0078   0.00    0.0
2019/01/15 09:31:06.000   4280225.8575  -4034418.8949  -2458270.8761   5  12   4.2003   3.7189   4.1172  -3.3241   2.9865  -3.0073   0.00    0.0
2019/01/15 09:31:07.000   4280223.4963  -4034418.3021  -2458273.5004   5  11   4.2121   3.7438   4.1303  -3.3033   2.9619  -3.0241   0.00    0.0
2019/01/15 09:31:08.000   4280232.2336  -4034425.6824  -2458278.9219   5  11   4.2120   3.7436   4.1299  -3.3031   2.9615  -3.0236   0.00    0.0
2019/01/15 09:31:09.000   4280233.3785  -4034407.8215  -2458265.9312   5  11   4.2120   3.7434   4.1296  -3.3029   2.9611  -3.0230   0.00    0.0
2019/01/15 09:31:12.000   4280220.3134  -4034408.5778  -2458264.5867   5  11   4.5696   3.7230   4.3033  -3.3776   3.0268  -3.3600   0.00    0.0
2019/01/15 09:31:13.000   4280230.1470  -4034412.8432  -2458266.7391   5  11   4.2119   3.7425   4.1281  -3.3021   2.9597  -3.0209   0.00    0.0
2019/01/15 09:31:21.000   4280228.9512  -4034428.3823  -2458277.9036   5  11   4.2275   3.7854   4.1654  -3.3735   2.8987  -2.9456   0.00    0.0
2019/01/15 09:31:24.000   4280230.0274  -4034433.0378  -2458277.6797   5  11   4.2277   3.7849   4.1643  -3.3732   2.8974  -2.9438   0.00    0.0
2019/01/15 09:31:25.000   4280224.5534  -4034419.0988  -2458278.6365   5  11   4.2384   4.0526   4.1110  -3.4568   2.9898  -3.0011   0.00    0.0
2019/01/15 09:31:26.000   4280225.0626  -4034424.2771  -2458289.5161   5  11   4.2114   3.7395   4.1232  -3.2997   2.9549  -3.0137   0.00    0.0
2019/01/15 09:31:27.000   4280208.4407  -4034401.6989  -2458271.0495   5  11   4.2114   3.7393   4.1229  -3.2995   2.9545  -3.0132   0.00    0.0
2019/01/15 09:31:28.000   4280215.9997  -4034409.6812  -2458272.9737   5  11   4.2382   4.0515   4.1100  -3.4561   2.9880  -2.9993   0.00    0.0
2019/01/15 09:31:29.000   4280221.2162  -4034421.9573  -2458274.3697   5  12   4.1997   3.7133   4.1094  -3.3197   2.9776  -2.9953   0.00    0.0
2019/01/15 09:31:30.000   4280218.8605  -4034420.3013  -2458271.7327   5  11   4.2280   3.7839   4.1621  -3.3728   2.8950  -2.9403   0.00    0.0
2019/01/15 09:31:31.000   4280227.1617  -4034417.4253  -2458274.9233   5  11   4.2281   3.7838   4.1617  -3.3727   2.8945  -2.9397   0.00    0.0
2019/01/15 09:31:32.000   4280207.2393  -4034411.7562  -2458254.1787   5  11   4.2282   3.7836   4.1613  -3.3726   2.8941  -2.9391   0.00    0.0
2019/01/15 09:31:35.000   4280225.1464  -4034416.5736  -2458260.7798   5  11   4.2283   3.7831   4.1602  -3.3724   2.8929  -2.9373   0.00    0.0
2019/01/15 09:31:36.000   4280224.1921  -4034425.4375  -2458296.4249   5  11   4.2553   3.7640   5.1293  -3.3826   3.2824  -3.3254   0.00    0.0
2019/01/15 09:31:41.000   4280221.0639  -4034410.9249  -2458288.0765   5  11   4.2540   3.7619   5.1233  -3.3804   3.2772  -3.3189   0.00    0.0
2019/01/15 09:31:43.000   4280190.6253  -4034399.0459  -2458246.6865   5  11   4.4184   3.7932   4.4117  -3.4770   3.1800  -3.3390   0.00    0.0
2019/01/15 09:31:45.000   4280217.5227  -4034402.5632  -2458279.3909   5  11   4.6592   3.9381   4.2182  -3.6973   3.1809  -3.2999   0.00    0.0
2019/01/15 09:31:46.000   4280210.8602  -4034400.5124  -2458281.8650   5  11   4.2132   3.7462   4.4854  -3.3435   3.1271  -3.0881   0.00    0.0
2019/01/15 09:31:47.000   4280221.3056  -4034402.4601  -2458276.5611   5  11   4.2108   3.7349   4.1154  -3.2957   2.9471  -3.0021   0.00    0.0
2019/01/15 09:31:48.000   4280215.2473  -4034407.8426  -2458274.1759   5  11   4.6592   3.9375   4.2174  -3.6968   3.1800  -3.2987   0.00    0.0
2019/01/15 09:31:49.000   4280209.9147  -4034403.3258  -2458273.5439   5  11   4.6592   3.9372   4.2171  -3.6967   3.1796  -3.2982   0.00    0.0
2019/01/15 09:31:52.000   4280213.3901  -4034400.8887  -2458249.5458   5  11   4.2513   3.7572   5.1099  -3.3757   3.2658  -3.3045   0.00    0.0
2019/01/15 09:31:53.000   4280236.3225  -4034405.6207  -2458275.7689   5  11   5.6980   3.7845   4.1178  -3.7306   3.0150  -3.2119   0.00    0.0
2019/01/15 09:31:54.000   4280211.3228  -4034399.1698  -2458265.6456   5  11   4.2106   3.7333   4.1127  -3.2944   2.9446  -2.9983   0.00    0.0
2019/01/15 09:31:55.000   4280200.3633  -4034394.4760  -2458247.3648   5  11   4.9850   4.3039   4.2969  -4.1065   3.4078  -3.5127   0.00    0.0
2019/01/15 09:31:59.000   4280185.3244  -4034377.7669  -2458249.3092   5  11   4.5038   4.4931   4.1016  -3.8885   2.9050  -2.9408   0.00    0.0
2019/01/15 09:32:00.000   4280212.3036  -4034406.4425  -2458241.3846   5  11   4.2128   3.7425   4.4798  -3.3406   3.1209  -3.0801   0.00    0.0
2019/01/15 09:32:01.000   4280213.8886  -4034415.8457  -2458254.6869   5  12   4.1991   3.7055   4.0985  -3.3138   2.9650  -2.9784   0.00    0.0
2019/01/15 09:32:02.000   4280200.1965  -4034397.1653  -2458252.9386   5  11   4.5040   4.4927   4.1005  -3.8884   2.9042  -2.9394   0.00    0.0
2019/01/15 09:32:03.000   4280236.1030  -4034426.8474  -2458265.2909   5  11   4.6590   3.9340   4.2129  -3.6944   3.1750  -3.2923   0.00    0.0
2019/01/15 09:32:04.000   4280213.1947  -4034404.7965  -2458255.3663   5  11   4.5760   3.7112   4.2907  -3.3724   3.0102  -3.3432   0.00    0.0
2019/01/15 09:32:05.000   4280218.2027  -4034429.8507  -2458288.8684   5  11   4.2806   5.0464   5.7718  -3.7185   4.7658  -3.4987   0.00    0.0
2019/01/15 09:32:06.000   4280205.3461  -4034414.5486  -2458273.3327   5  11   4.2805   5.0461   5.7719  -3.7182   4.7657  -3.4981   0.00    0.0
2019/01/15 09:32:07.000   4280208.6256  -4034411.5242  -2458251.0125   5  11   4.2125   3.7407   4.4770  -3.3392   3.1178  -3.0762   0.00    0.0
2019/01/15 09:32:08.000   4280219.4390  -4034416.7650  -2458256.9113   5  11   4.6590   3.9329   4.2114  -3.6935   3.1733  -3.2902   0.00    0.0
2019/01/15 09:32:09.000   4280222.7683  -4034421.5204  -2458257.7385   5  11   4.6589   3.9327   4.2111  -3.6934   3.1730  -3.2897   0.00    0.0
2019/01/15 09:32:10.000   4280224.2218  -4034419.8651  -2458280.9739   5  11   4.5047   4.4917   4.0977  -3.8880   2.9018  -2.9357   0.00    0.0
2019/01/15 09:32:11.000   4280227.3119  -4034434.4856  -2458273.8646   5  12   4.1989   3.7032   4.0950  -3.3119   2.9611  -2.9731   0.00    0.0
2019/01/15 09:32:14.000   4280250.2673  -4034431.5575  -2458265.9437   5  11   5.6956   3.7779   4.1096  -3.7224   3.0051  -3.1951   0.00    0.0
2019/01/15 09:32:16.000   4280269.2760  -4034440.3595  -2458279.3550   5  11   5.6954   3.7772   4.1088  -3.7216   3.0041  -3.1935   0.00    0.0
2019/01/15 09:32:18.000   4280226.1730  -4034429.6065  -2458263.4933   5  12   4.1988   3.7015   4.0925  -3.3107   2.9584  -2.9694   0.00    0.0
2019/01/15 09:32:19.000   4280218.9707  -4034414.1667  -2458258.8445   5  12   4.1987   3.7013   4.0922  -3.3105   2.9580  -2.9689   0.00    0.0
2019/01/15 09:32:20.000   4280224.7838  -4034417.4732  -2458259.2445   5  11   4.2100   3.7276   4.1028  -3.2896   2.9350  -2.9838   0.00    0.0
2019/01/15 09:32:21.000   4280225.2873  -4034424.2784  -2458266.3156   5  12   4.1987   3.7008   4.0915  -3.3101   2.9572  -2.9678   0.00    0.0
2019/01/15 09:32:22.000   4280224.6360  -4034414.8357  -2458262.8695   5  11   4.2442   3.7449   5.0738  -3.3633   3.2352  -3.2656   0.00    0.0
2019/01/15 09:32:23.000   4280223.4222  -4034418.5146  -2458263.1647   5  11   4.2439   3.7445   5.0726  -3.3629   3.2342  -3.2643   0.00    0.0
2019/01/15 09:32:24.000   4280223.2405  -4034408.2953  -2458259.6204   5  11   4.2120   3.7363   4.4700  -3.3358   3.1102  -3.0665   0.00    0.0
2019/01/15 09:32:25.000   4280230.5384  -4034417.1841  -2458263.1123   5  11   4.2120   3.7360   4.4696  -3.3356   3.1097  -3.0659   0.00    0.0
2019/01/15 09:32:26.000   4280220.3349  -4034418.7929  -2458262.9847   5  12   4.1986   3.6996   4.0898  -3.3092   2.9552  -2.9652   0.00    0.0
2019/01/15 09:32:27.000   4280229.6732  -4034422.0236  -2458270.2030   5  12   4.1986   3.6994   4.0894  -3.3090   2.9548  -2.9646   0.00    0.0
2019/01/15 09:32:28.000   4280229.0676  -4034430.4105  -2458265.3774   5  12   4.1986   3.6991   4.0890  -3.3088   2.9544  -2.9641   0.00    0.0
2019/01/15 09:32:29.000   4280222.7680  -4034424.7512  -2458258.3727   5  11   4.2426   3.7420   5.0654  -3.3604   3.2281  -3.2566   0.00    0.0
2019/01/15 09:32:30.000   4280214.3589  -4034419.6517  -2458272.7754   5  10   4.2771   3.8188   5.0982  -3.4213   3.1567  -3.2058   0.00    0.0
2019/01/15 09:32:31.000   4280230.6694  -4034440.4638  -2458308.5137   5  10   4.5405   6.2740   9.4834  -4.4091   7.1270  -4.8548   0.00    0.0
2019/01/15 09:32:32.000   4280214.4148  -4034408.2153  -2458263.4664   5  11   4.2419   3.7408   5.0618  -3.3592   3.2250  -3.2527   0.00    0.0
2019/01/15 09:32:33.000   4280224.1043  -4034417.8777  -2458271.8700   5  11   4.2417   3.7404   5.0606  -3.3588   3.2240  -3.2514   0.00    0.0
2019/01/15 09:32:34.000   4280241.5368  -4034433.6153  -2458276.3603   5  10   5.0426   4.3476   5.2583  -4.1623   3.6828  -3.8040   0.00    0.0
2019/01/15 09:32:35.000   4280219.4001  -4034406.1945  -2458266.3751   5  11   4.2413   3.7396   5.0582  -3.3580   3.2220  -3.2489   0.00    0.0
2019/01/15 09:32:36.000   4280225.4251  -4034415.4350  -2458280.6286   5  11   4.2411   3.7392   5.0570  -3.3576   3.2210  -3.2476   0.00    0.0
2019/01/15 09:32:37.000   4280207.2618  -4034403.1031  -2458259.9550   5  10   4.2583   3.7813   5.4577  -3.3895   3.3956  -3.3660   0.00    0.0
2019/01/15 09:32:38.000   4280221.5948  -4034426.0498  -2458295.7781   5  10   4.2458   3.7781   5.0586  -3.3397   3.2361  -3.2385   0.00    0.0
2019/01/15 09:32:39.000   4280217.9603  -4034421.1698  -2458283.9220   5  10   4.2759   3.8159   5.0873  -3.4187   3.1473  -3.1936   0.00    0.0
2019/01/15 09:32:40.000   4280214.8012  -4034415.4411  -2458274.9665   5  10   4.6595   3.9325   5.0584  -3.6912   3.2639  -3.3158   0.00    0.0
2019/01/15 09:32:41.000   4280216.0531  -4034420.6189  -2458276.2479   5  10   4.6594   3.9322   5.0572  -3.6909   3.2630  -3.3147   0.00    0.0
2019/01/15 09:32:45.000   4280229.2106  -4034427.4780  -2458288.6280   5  10   4.2752   3.8140   5.0801  -3.4170   3.1411  -3.1855   0.00    0.0
2019/01/15 09:32:46.000   4280219.6230  -4034424.4896  -2458281.2671   5  11   4.2389   3.7353   5.0451  -3.3537   3.2109  -3.2348   0.00    0.0
2019/01/15 09:32:49.000   4280219.0705  -4034423.1251  -2458289.9792   5  10   4.6591   3.9299   5.0479  -3.6891   3.2559  -3.3059   0.00    0.0
2019/01/15 09:32:50.000   4280202.1299  -4034417.8382  -2458265.8555   5  11   4.2381   3.7337   5.0403  -3.3522   3.2069  -3.2296   0.00    0.0
2019/01/15 09:32:54.000   4280200.2477  -4034410.2988  -2458256.2592   5  12   4.1982   3.6931   4.0799  -3.3041   2.9442  -2.9502   0.00    0.0
2019/01/15 09:32:56.000   4280184.9367  -4034404.2925  -2458276.5800   5  11   5.6911   3.7648   4.0931  -3.7061   2.9853  -3.1616   0.00    0.0
2019/01/15 09:33:00.000   4280213.4650  -4034387.3413  -2458231.3244   5  11   4.2752   5.0330   5.7775  -3.6979   4.7599  -3.4630   0.00    0.0
2019/01/15 09:33:02.000   4280206.3944  -4034409.0178  -2458254.1734   5  11   4.2091   3.7185   4.0867  -3.2820   2.9195  -2.9604   0.00    0.0
2019/01/15 09:33:03.000   4280190.5678  -4034403.0177  -2458240.9491   5  11   5.6904   3.7627   4.0904  -3.7034   2.9820  -3.1560   0.00    0.0
2019/01/15 09:33:04.000   4280207.5215  -4034403.3735  -2458243.0353   5  11   4.2090   3.7181   4.0860  -3.2816   2.9187  -2.9593   0.00    0.0
2019/01/15 09:33:05.000   4280209.4988  -4034404.9377  -2458239.9501   5  12   4.1981   3.6905   4.0759  -3.3022   2.9399  -2.9443   0.00    0.0
2019/01/15 09:33:06.000   4280209.1903  -4034408.3602  -2458237.9081   5  12   4.1981   3.6903   4.0756  -3.3020   2.9395  -2.9438   0.00    0.0
2019/01/15 09:33:09.000   4280210.4688  -4034411.8099  -2458259.8089   5  12   4.1980   3.6896   4.0745  -3.3015   2.9383  -2.9422   0.00    0.0
2019/01/15 09:33:10.000   4280221.5932  -4034421.8029  -2458274.1583   5  12   4.1980   3.6893   4.0742  -3.3013   2.9379  -2.9416   0.00    0.0
2019/01/15 09:33:11.000   4280226.3686  -4034415.8566  -2458280.6875   5  11   4.6582   3.9187   4.1921  -3.6831   3.1522  -3.2629   0.00    0.0
2019/01/15 09:33:14.000   4280198.8112  -4034424.6169  -2458275.9150   5  11   5.6893   3.7593   4.0860  -3.6992   2.9768  -3.1472   0.00    0.0
2019/01/15 09:33:15.000   4280218.4203  -4034427.9815  -2458265.7598   5  11   4.5852   3.6957   4.2723  -3.3656   2.9874  -3.3196   0.00    0.0
2019/01/15 09:33:16.000   4280224.2790  -4034426.3417  -2458284.7139   5  11   4.5853   3.6955   4.2721  -3.3655   2.9871  -3.3192   0.00    0.0
2019/01/15 09:33:17.000   4280219.5977  -4034419.4792  -2458272.8054   5  12   4.1980   3.6877   4.0716  -3.3000   2.9352  -2.9379   0.00    0.0
2019/01/15 09:33:23.000   4280221.4070  -4034423.8970  -2458274.6345   5  11   4.5862   3.6940   4.2702  -3.3649   2.9848  -3.3168   0.00    0.0
2019/01/15 09:33:24.000   4280221.1335  -4034417.7948  -2458265.5216   5  11   4.2106   3.7209   4.4449  -3.3238   3.0834  -3.0320   0.00    0.0
2019/01/15 09:33:26.000   4280226.4000  -4034414.9980  -2458281.1588   5  11   4.5866   3.6934   4.2694  -3.3646   2.9838  -3.3158   0.00    0.0
2019/01/15 09:33:27.000   4280219.1715  -4034418.7564  -2458262.4868   5  11   4.5867   3.6932   4.2691  -3.3645   2.9835  -3.3155   0.00    0.0
2019/01/15 09:33:31.000   4280188.0966  -4034410.8559  -2458255.7149   5  11   5.6876   3.7542   4.0793  -3.6927   2.9689  -3.1335   0.00    0.0
2019/01/15 09:33:32.000   4280215.1399  -4034412.3088  -2458265.5732   5  11   4.6579   3.9140   4.1855  -3.6796   3.1450  -3.2536   0.00    0.0
2019/01/15 09:33:34.000   4280222.9976  -4034419.8574  -2458259.5374   5  11   4.2296   3.7169   4.9883  -3.3357   3.1633  -3.1738   0.00    0.0
2019/01/15 09:33:35.000   4280226.0351  -4034425.8130  -2458249.3305   5  11   4.2294   3.7166   4.9872  -3.3353   3.1623  -3.1725   0.00    0.0
2019/01/15 09:33:37.000   4280213.8398  -4034419.3186  -2458255.9874   5  12   4.1978   3.6832   4.0644  -3.2965   2.9273  -2.9271   0.00    0.0
2019/01/15 09:33:39.000   4280216.1144  -4034413.3652  -2458252.6327   5  11   4.2085   3.7107   4.0723  -3.2754   2.9058  -2.9396   0.00    0.0
2019/01/15 09:33:40.000   4280216.7341  -4034420.3568  -2458277.8916   5  11   4.2085   3.7105   4.0720  -3.2752   2.9055  -2.9390   0.00    0.0
2019/01/15 09:33:41.000   4280216.9862  -4034420.5498  -2458271.1077   5  11   4.2381   3.7639   4.1115  -3.3641   2.8406  -2.8614   0.00    0.0
2019/01/15 09:33:42.000   4280214.2526  -4034411.2215  -2458257.5000   5  11   4.2382   3.7637   4.1111  -3.3641   2.8401  -2.8608   0.00    0.0
2019/01/15 09:33:44.000   4280215.4213  -4034407.6154  -2458272.4532   5  11   4.2084   3.7097   4.0704  -3.2745   2.9040  -2.9367   0.00    0.0
2019/01/15 09:33:45.000   4280218.0459  -4034415.8834  -2458270.3490   5  11   4.2385   3.7633   4.1100  -3.3639   2.8389  -2.8590   0.00    0.0
2019/01/15 09:33:50.000   4280214.8150  -4034405.1177  -2458263.1321   5  11   4.2268   3.7111   4.9696  -3.3300   3.1477  -3.1537   0.00    0.0
2019/01/15 09:33:51.000   4280214.3831  -4034402.3059  -2458254.2033   5  12   4.1977   3.6800   4.0593  -3.2941   2.9218  -2.9195   0.00    0.0
2019/01/15 09:33:52.000   4280218.7535  -4034409.8966  -2458262.1765   5  11   4.2265   3.7103   4.9673  -3.3293   3.1458  -3.1512   0.00    0.0
2019/01/15 09:33:53.000   4280216.4304  -4034401.9046  -2458268.5504   5  11   4.2263   3.7100   4.9661  -3.3289   3.1448  -3.1499   0.00    0.0
2019/01/15 09:33:59.000   4280219.8285  -4034404.2064  -2458276.6905   5  12   4.1977   3.6782   4.0564  -3.2927   2.9186  -2.9152   0.00    0.0
2019/01/15 09:34:00.000   4280196.4689  -4034395.0213  -2458262.1262   5  11   4.2399   3.7612   4.1040  -3.3631   2.8327  -2.8499   0.00    0.0
2019/01/15 09:34:02.000   4280205.7534  -4034400.1895  -2458263.4552   5  11   4.2082   3.7060   4.0633  -3.2714   2.8974  -2.9266   0.00    0.0
2019/01/15 09:34:03.000   4280188.3812  -4034381.7873  -2458236.1089   5  12   4.1977   3.6773   4.0550  -3.2920   2.9171  -2.9130   0.00    0.0
2019/01/15 09:34:05.000   4280207.0508  -4034394.1785  -2458261.4285   5  11   4.2404   3.7605   4.1020  -3.3629   2.8306  -2.8468   0.00    0.0
2019/01/15 09:34:11.000   4280215.5461  -4034412.7072  -2458258.9801   5  11   4.2410   3.7597   4.0996  -3.3626   2.8281  -2.8432   0.00    0.0
2019/01/15 09:34:13.000   4280217.6701  -4034415.2588  -2458245.5167   5  11   4.2412   3.7594   4.0988  -3.3625   2.8273  -2.8419   0.00    0.0
2019/01/15 09:34:14.000   4280227.9649  -4034423.0256  -2458257.7756   5  11   4.2413   3.7593   4.0984  -3.3625   2.8269  -2.8413   0.00    0.0
2019/01/15 09:34:15.000   4280224.5643  -4034431.8101  -2458273.8714   5  11   4.2414   3.7592   4.0980  -3.3624   2.8264  -2.8407   0.00    0.0
2019/01/15 09:34:19.000   4280216.7652  -4034410.0916  -2458245.5104   5  11   4.2418   3.7586   4.0964  -3.3622   2.8248  -2.8383   0.00    0.0
2019/01/15 09:34:23.000   4280221.3360  -4034405.8149  -2458271.2076   5   9   4.6986   5.0653   4.1438  -4.2314   2.4730  -2.6757   0.00    0.0
2019/01/15 09:34:24.000   4280242.0159  -4034437.2777  -2458275.4105   5   8   6.5349   5.8724   4.6053  -5.6960   3.9966  -4.3051   0.00    0.0
2019/01/15 09:34:27.000   4280231.2160  -4034443.3037  -2458288.6817   5  11   4.2671   5.0103   5.7821  -3.6639   4.7471  -3.4025   0.00    0.0
2019/01/15 09:34:28.000   4280231.8764  -4034432.6712  -2458281.0842   5  11   4.2670   5.0101   5.7821  -3.6635   4.7469  -3.4018   0.00    0.0
2019/01/15 09:34:29.000   4280225.1924  -4034421.9079  -2458263.9048   5  11   4.2429   3.7573   4.0924  -3.3618   2.8206  -2.8322   0.00    0.0
2019/01/15 09:34:30.000   4280217.2943  -4034423.1553  -2458274.9738   5  11   4.2430   3.7571   4.0920  -3.3618   2.8202  -2.8316   0.00    0.0
2019/01/15 09:34:32.000   4280209.4359  -4034395.2184  -2458255.0393   5  11   4.2432   3.7569   4.0912  -3.3617   2.8194  -2.8303   0.00    0.0
2019/01/15 09:34:33.000   4280235.7235  -4034427.6151  -2458280.2325   5  11   4.2433   3.7567   4.0908  -3.3616   2.8190  -2.8297   0.00    0.0
2019/01/15 09:34:34.000   4280222.9534  -4034422.7056  -2458264.2490   5  11   4.6570   3.9003   4.1655  -3.6693   3.1238  -3.2257   0.00    0.0
2019/01/15 09:34:35.000   4280234.0349  -4034445.0629  -2458275.7471   5  10   4.7671   5.3058   5.9789  -4.1385   5.0186  -3.8435   0.00    0.0
2019/01/15 09:34:37.000   4280246.0537  -4034443.5270  -2458269.3489   5  10   4.7372   3.9013   4.1978  -3.6553   3.1132  -3.2946   0.00    0.0
2019/01/15 09:34:39.000   4280231.2934  -4034451.6795  -2458291.6250   5  10   4.7668   5.3051   5.9796  -4.1374   5.0185  -3.8416   0.00    0.0
2019/01/15 09:34:42.000   4280207.2972  -4034400.9421  -2458259.5688   5   8   5.2252   5.2335   4.3314  -4.5738   2.7915  -3.1686   0.00    0.0
2019/01/15 09:34:43.000   4280219.6672  -4034404.0240  -2458269.2975   5   7   6.6951   6.3364   4.6753  -5.9894   3.7529  -4.1724   0.00    0.0
2019/01/15 09:34:45.000   4280221.9480  -4034404.7130  -2458264.7220   5  11   4.2079   3.6972   4.0463  -3.2640   2.8816  -2.9021   0.00    0.0
2019/01/15 09:34:46.000   4280216.6892  -4034402.5879  -2458269.4009   5  12   4.1976   3.6678   4.0391  -3.2847   2.9001  -2.8896   0.00    0.0
2019/01/15 09:34:47.000   4280229.7927  -4034419.3086  -2458272.6114   5  12   4.1976   3.6675   4.0387  -3.2845   2.8997  -2.8890   0.00    0.0
2019/01/15 09:34:48.000   4280232.7789  -4034421.5756  -2458278.3539   5  11   4.5977   3.6764   4.2465  -3.3574   2.9573  -3.2874   0.00    0.0
2019/01/15 09:34:49.000   4280212.2058  -4034401.5976  -2458270.5085   5  11   4.2079   3.6964   4.0447  -3.2634   2.8801  -2.8998   0.00    0.0
2019/01/15 09:34:51.000   4280216.8760  -4034400.0096  -2458272.0763   5  12   4.1976   3.6667   4.0372  -3.2839   2.8981  -2.8869   0.00    0.0
2019/01/15 09:34:52.000   4280224.6814  -4034420.5211  -2458268.7776   5  11   4.2454   3.7543   4.0831  -3.3609   2.8111  -2.8181   0.00    0.0
2019/01/15 09:34:53.000   4280217.2239  -4034412.6468  -2458272.3818   5  12   4.1976   3.6662   4.0365  -3.2835   2.8974  -2.8858   0.00    0.0
2019/01/15 09:34:54.000   4280211.9012  -4034412.3363  -2458270.0370   5  12   4.1976   3.6660   4.0361  -3.2834   2.8970  -2.8852   0.00    0.0
