% program   : RTKPOST ver.2.4.2
% inp file  : D:\Google Drive\UERJ\_Projeto Final\Python\tcc-guilherme\20190115_Levantamento_8min_Original.19o
% inp file  : D:\Google Drive\UERJ\_Projeto Final\20190115_Marco 91500 IBGE\brdm0150.19p
% obs start : 2019/01/15 09:34:43.0 GPST (week2036 207283.0s)
% obs end   : 2019/01/15 09:52:37.0 GPST (week2036 208357.0s)
% pos mode  : single
% elev mask : 15.0 deg
% ionos opt : broadcast
% tropo opt : saastamoinen
% ephemeris : broadcast
% navi sys  : gps glonass
%
% (x/y/z-ecef=WGS84,Q=1:fix,2:float,3:sbas,4:dgps,5:single,6:ppp,ns=# of satellites)
%  GPST                      x-ecef(m)      y-ecef(m)      z-ecef(m)   Q  ns   sdx(m)   sdy(m)   sdz(m)  sdxy(m)  sdyz(m)  sdzx(m) age(s)  ratio
2019/01/15 09:34:43.000   4280219.6672  -4034404.0240  -2458269.2975   5   7   6.6951   6.3364   4.6753  -5.9894   3.7529  -4.1724   0.00    0.0
2019/01/15 09:34:45.000   4280221.9480  -4034404.7130  -2458264.7220   5  11   4.2079   3.6972   4.0463  -3.2640   2.8816  -2.9021   0.00    0.0
2019/01/15 09:34:46.000   4280216.6892  -4034402.5879  -2458269.4009   5  12   4.1976   3.6678   4.0391  -3.2847   2.9001  -2.8896   0.00    0.0
2019/01/15 09:34:47.000   4280229.7927  -4034419.3086  -2458272.6114   5  12   4.1976   3.6675   4.0387  -3.2845   2.8997  -2.8890   0.00    0.0
2019/01/15 09:34:48.000   4280232.7789  -4034421.5756  -2458278.3539   5  11   4.5977   3.6764   4.2465  -3.3574   2.9573  -3.2874   0.00    0.0
2019/01/15 09:34:49.000   4280212.2058  -4034401.5976  -2458270.5085   5  11   4.2079   3.6964   4.0447  -3.2634   2.8801  -2.8998   0.00    0.0
2019/01/15 09:34:51.000   4280216.8760  -4034400.0096  -2458272.0763   5  12   4.1976   3.6667   4.0372  -3.2839   2.8981  -2.8869   0.00    0.0
2019/01/15 09:34:52.000   4280224.6814  -4034420.5211  -2458268.7776   5  11   4.2454   3.7543   4.0831  -3.3609   2.8111  -2.8181   0.00    0.0
2019/01/15 09:34:53.000   4280217.2239  -4034412.6468  -2458272.3818   5  12   4.1976   3.6662   4.0365  -3.2835   2.8974  -2.8858   0.00    0.0
2019/01/15 09:34:54.000   4280211.9012  -4034412.3363  -2458270.0370   5  12   4.1976   3.6660   4.0361  -3.2834   2.8970  -2.8852   0.00    0.0
2019/01/15 09:34:55.000   4280211.2239  -4034409.2901  -2458272.6771   5  12   4.1977   3.6658   4.0357  -3.2832   2.8966  -2.8847   0.00    0.0
2019/01/15 09:34:56.000   4280228.9875  -4034430.9583  -2458270.0629   5  11   4.5185   4.4707   4.0365  -3.8806   2.8540  -2.8565   0.00    0.0
2019/01/15 09:34:57.000   4280214.6320  -4034412.5111  -2458283.8512   5  11   4.2169   3.6878   4.8924  -3.3077   3.0837  -3.0706   0.00    0.0
2019/01/15 09:34:59.000   4280223.0530  -4034424.4934  -2458284.3329   5  11   4.3864   3.7320   4.3400  -3.4163   3.0835  -3.2164   0.00    0.0
2019/01/15 09:35:01.000   4280218.0196  -4034428.3226  -2458260.3757   5  11   4.5190   4.4701   4.0346  -3.8803   2.8525  -2.8541   0.00    0.0
2019/01/15 09:35:02.000   4280201.9683  -4034398.4131  -2458239.7582   5  11   4.2640   5.0007   5.7824  -3.6498   4.7408  -3.3769   0.00    0.0
2019/01/15 09:35:05.000   4280221.5870  -4034414.6349  -2458291.6981   5  11   4.2159   3.6851   4.8832  -3.3052   3.0762  -3.0608   0.00    0.0
2019/01/15 09:35:06.000   4280217.3960  -4034419.0013  -2458268.7313   5  12   4.1977   3.6634   4.0316  -3.2814   2.8922  -2.8786   0.00    0.0
2019/01/15 09:35:07.000   4280223.8635  -4034425.2727  -2458270.5631   5  12   4.1977   3.6632   4.0312  -3.2812   2.8918  -2.8781   0.00    0.0
2019/01/15 09:35:08.000   4280235.5621  -4034433.7418  -2458273.9650   5  11   5.0199   4.2795   4.2735  -4.1057   3.3914  -3.4911   0.00    0.0
2019/01/15 09:35:09.000   4280203.8605  -4034410.0714  -2458249.6681   5  12   4.1977   3.6628   4.0305  -3.2809   2.8911  -2.8770   0.00    0.0
2019/01/15 09:35:11.000   4280218.6170  -4034425.8170  -2458257.5197   5  11   4.3846   3.7284   4.3354  -3.4128   3.0775  -3.2087   0.00    0.0
2019/01/15 09:35:12.000   4280229.4707  -4034434.8400  -2458274.9722   5  11   4.2631   4.9979   5.7823  -3.6457   4.7388  -3.3694   0.00    0.0
2019/01/15 09:35:14.000   4280203.2355  -4034394.7059  -2458235.5755   5  11   4.2149   3.6822   4.8730  -3.3025   3.0678  -3.0499   0.00    0.0
2019/01/15 09:35:16.000   4280220.6450  -4034427.1659  -2458253.7744   5  11   4.2340   3.9767   4.0299  -3.4080   2.8535  -2.8607   0.00    0.0
2019/01/15 09:35:17.000   4280222.2241  -4034415.0820  -2458246.0328   5  11   4.6018   3.6706   4.2381  -3.3550   2.9479  -3.2771   0.00    0.0
2019/01/15 09:35:18.000   4280213.9063  -4034405.6939  -2458249.7332   5  11   4.2484   3.7509   4.0725  -3.3599   2.8004  -2.8021   0.00    0.0
2019/01/15 09:35:20.000   4280213.6103  -4034405.2202  -2458249.5005   5  11   4.2142   3.6803   4.8662  -3.3006   3.0622  -3.0426   0.00    0.0
2019/01/15 09:35:21.000   4280229.4451  -4034424.9320  -2458269.3623   5  12   4.1978   3.6602   4.0260  -3.2789   2.8863  -2.8704   0.00    0.0
2019/01/15 09:35:24.000   4280218.9975  -4034414.6568  -2458273.1597   5  11   4.2492   3.7502   4.0700  -3.3598   2.7979  -2.7984   0.00    0.0
2019/01/15 09:35:25.000   4280219.5352  -4034416.8077  -2458278.8078   5  11   4.2493   3.7501   4.0696  -3.3597   2.7975  -2.7978   0.00    0.0
2019/01/15 09:35:26.000   4280234.6772  -4034425.3112  -2458271.6355   5  12   4.1978   3.6591   4.0241  -3.2781   2.8843  -2.8676   0.00    0.0
2019/01/15 09:35:27.000   4280238.0413  -4034428.5253  -2458279.3263   5  11   4.2079   3.6889   4.0296  -3.2570   2.8662  -2.8781   0.00    0.0
2019/01/15 09:35:28.000   4280226.5620  -4034420.5223  -2458268.6229   5  11   4.2079   3.6887   4.0292  -3.2569   2.8658  -2.8775   0.00    0.0
2019/01/15 09:35:29.000   4280228.2245  -4034429.7183  -2458279.0425   5  11   4.2091   3.6904   4.3897  -3.3003   3.0272  -2.9587   0.00    0.0
2019/01/15 09:35:30.000   4280236.3827  -4034432.3650  -2458274.4673   5  11   4.5216   4.4665   4.0235  -3.8790   2.8442  -2.8401   0.00    0.0
2019/01/15 09:35:31.000   4280219.4636  -4034409.0564  -2458282.2119   5  11   4.2130   3.6768   4.8538  -3.2974   3.0520  -3.0292   0.00    0.0
2019/01/15 09:35:32.000   4280214.5701  -4034409.8384  -2458278.8623   5  11   4.2501   3.7492   4.0668  -3.3595   2.7946  -2.7935   0.00    0.0
2019/01/15 09:35:34.000   4280233.4352  -4034430.3243  -2458294.3496   5  11   4.2504   3.7490   4.0659  -3.3594   2.7937  -2.7923   0.00    0.0
2019/01/15 09:35:36.000   4280208.1145  -4034418.8209  -2458279.4075   5  11   4.2612   4.9911   5.7818  -3.6359   4.7340  -3.3512   0.00    0.0
2019/01/15 09:35:37.000   4280220.8900  -4034398.7704  -2458261.0356   5  11   4.6047   3.6667   4.2321  -3.3534   2.9414  -3.2700   0.00    0.0
2019/01/15 09:35:39.000   4280220.2910  -4034407.6268  -2458258.7631   5  12   4.1979   3.6563   4.0192  -3.2760   2.8792  -2.8605   0.00    0.0
2019/01/15 09:35:43.000   4280229.1621  -4034440.7034  -2458292.1561   5  11   4.2606   4.9891   5.7815  -3.6330   4.7325  -3.3459   0.00    0.0
2019/01/15 09:35:44.000   4280243.7221  -4034448.6672  -2458302.9042   5  11   4.2605   4.9888   5.7815  -3.6326   4.7323  -3.3451   0.00    0.0
2019/01/15 09:35:46.000   4280213.3527  -4034404.6955  -2458263.0176   5  12   4.1980   3.6549   4.0165  -3.2749   2.8765  -2.8566   0.00    0.0
2019/01/15 09:35:47.000   4280229.1080  -4034431.8024  -2458290.3879   5  11   4.2603   4.9879   5.7814  -3.6313   4.7317  -3.3428   0.00    0.0
2019/01/15 09:35:48.000   4280216.7832  -4034411.7093  -2458271.4256   5  12   4.1980   3.6544   4.0157  -3.2745   2.8757  -2.8555   0.00    0.0
2019/01/15 09:35:56.000   4280242.1675  -4034441.4663  -2458282.7899   5  11   4.6558   3.8824   4.1379  -3.6555   3.0952  -3.1878   0.00    0.0
2019/01/15 09:35:57.000   4280223.6533  -4034416.0027  -2458266.4114   5  11   4.2081   3.6831   4.0175  -3.2521   2.8552  -2.8609   0.00    0.0
2019/01/15 09:35:58.000   4280209.0741  -4034405.3749  -2458260.1354   5  11   4.2081   3.6829   4.0171  -3.2520   2.8549  -2.8603   0.00    0.0
2019/01/15 09:35:59.000   4280212.0417  -4034419.0549  -2458257.1743   5  11   4.3776   3.7144   4.3165  -3.3987   3.0535  -3.1774   0.00    0.0
2019/01/15 09:36:00.000   4280229.3154  -4034421.3702  -2458265.5639   5  11   4.2537   3.7459   4.0552  -3.3588   2.7830  -2.7762   0.00    0.0
2019/01/15 09:36:03.000   4280217.3998  -4034407.8734  -2458258.4004   5  11   4.2081   3.6820   4.0151  -3.2512   2.8530  -2.8574   0.00    0.0
2019/01/15 09:36:04.000   4280210.0629  -4034403.3154  -2458251.2064   5  11   4.2081   3.6818   4.0147  -3.2510   2.8527  -2.8568   0.00    0.0
2019/01/15 09:36:10.000   4280201.8380  -4034397.9200  -2458256.7881   5  11   4.2091   3.6809   4.3708  -3.2930   3.0088  -2.9344   0.00    0.0
2019/01/15 09:36:11.000   4280213.1669  -4034405.7392  -2458272.2046   5  11   4.2082   3.6805   4.0119  -3.2499   2.8501  -2.8528   0.00    0.0
2019/01/15 09:36:14.000   4280208.1939  -4034399.5225  -2458259.8101   5  11   4.6555   3.8786   4.1317  -3.6524   3.0889  -3.1793   0.00    0.0
2019/01/15 09:36:15.000   4280216.9724  -4034409.2701  -2458257.1499   5  11   4.2089   3.6632   4.8046  -3.2850   3.0119  -2.9764   0.00    0.0
2019/01/15 09:36:21.000   4280217.4548  -4034410.0002  -2458255.2015   5  11   4.5263   4.4602   4.0038  -3.8768   2.8297  -2.8153   0.00    0.0
2019/01/15 09:36:26.000   4280205.9955  -4034386.3147  -2458256.5365   5  12   4.1986   3.6465   4.0012  -3.2685   2.8607  -2.8345   0.00    0.0
2019/01/15 09:36:28.000   4280223.3231  -4034402.9474  -2458261.7057   5  11   4.2084   3.6772   4.0050  -3.2472   2.8439  -2.8430   0.00    0.0
2019/01/15 09:36:29.000   4280201.3549  -4034393.6388  -2458255.2636   5  11   4.6553   3.8754   4.1265  -3.6499   3.0836  -3.1722   0.00    0.0
2019/01/15 09:36:30.000   4280195.2985  -4034412.1874  -2458272.9596   5  11   5.6735   3.7032   4.0069  -3.6275   2.8863  -2.9896   0.00    0.0
2019/01/15 09:36:32.000   4280228.6118  -4034413.4528  -2458281.1135   5  11   4.2581   3.7422   4.0420  -3.3581   2.7699  -2.7565   0.00    0.0
2019/01/15 09:36:33.000   4280208.3879  -4034423.4941  -2458279.4363   5  12   4.1987   3.6451   3.9985  -3.2674   2.8580  -2.8306   0.00    0.0
2019/01/15 09:36:34.000   4280205.0596  -4034410.1738  -2458271.5926   5  12   4.1987   3.6449   3.9981  -3.2673   2.8576  -2.8300   0.00    0.0
2019/01/15 09:36:35.000   4280222.1222  -4034413.3192  -2458272.7184   5  11   4.2585   3.7419   4.0407  -3.3581   2.7686  -2.7546   0.00    0.0
2019/01/15 09:36:36.000   4280204.9072  -4034406.8576  -2458269.0827   5  11   4.5277   4.4584   3.9980  -3.8761   2.8254  -2.8081   0.00    0.0
2019/01/15 09:36:37.000   4280221.6476  -4034424.0124  -2458272.4791   5  11   4.2085   3.6756   4.0013  -3.2458   2.8407  -2.8378   0.00    0.0
2019/01/15 09:36:38.000   4280226.6004  -4034423.6909  -2458272.4614   5  12   4.1988   3.6440   3.9966  -3.2667   2.8560  -2.8278   0.00    0.0
2019/01/15 09:36:39.000   4280217.3818  -4034423.2323  -2458275.2271   5  11   4.2591   3.7414   4.0391  -3.3580   2.7670  -2.7521   0.00    0.0
2019/01/15 09:36:40.000   4280225.6331  -4034425.5934  -2458270.6141   5  11   4.2592   3.7413   4.0386  -3.3580   2.7666  -2.7515   0.00    0.0
2019/01/15 09:36:42.000   4280207.6636  -4034414.1605  -2458259.3470   5  11   4.6551   3.8726   4.1220  -3.6477   3.0790  -3.1661   0.00    0.0
2019/01/15 09:36:43.000   4280227.8262  -4034421.5782  -2458264.2268   5  12   4.1989   3.6430   3.9947  -3.2659   2.8540  -2.8250   0.00    0.0
2019/01/15 09:36:44.000   4280213.3463  -4034418.8548  -2458267.4672   5  11   4.2094   3.6732   4.3550  -3.2871   2.9935  -2.9141   0.00    0.0
2019/01/15 09:36:45.000   4280224.4088  -4034427.9437  -2458279.8952   5  11   4.2086   3.6741   3.9981  -3.2445   2.8378  -2.8332   0.00    0.0
2019/01/15 09:36:46.000   4280240.0466  -4034428.5137  -2458280.9923   5  11   4.2086   3.6739   3.9977  -3.2444   2.8374  -2.8326   0.00    0.0
2019/01/15 09:36:47.000   4280233.6633  -4034422.9598  -2458258.6877   5  11   4.2602   3.7405   4.0357  -3.3579   2.7637  -2.7472   0.00    0.0
2019/01/15 09:36:51.000   4280212.0580  -4034398.4455  -2458276.4451   5  11   4.5291   4.4566   3.9921  -3.8754   2.8212  -2.8008   0.00    0.0
2019/01/15 09:36:53.000   4280205.3022  -4034400.2896  -2458267.8523   5  11   4.5293   4.4563   3.9913  -3.8753   2.8206  -2.7998   0.00    0.0
2019/01/15 09:36:56.000   4280205.7402  -4034397.3133  -2458271.6284   5  11   4.5296   4.4560   3.9901  -3.8752   2.8197  -2.7983   0.00    0.0
2019/01/15 09:37:00.000   4280236.0157  -4034425.4969  -2458256.5525   5  11   4.2621   3.7391   4.0303  -3.3577   2.7584  -2.7391   0.00    0.0
2019/01/15 09:37:01.000   4280212.2109  -4034404.2790  -2458260.5556   5  11   4.5301   4.4553   3.9882  -3.8750   2.8183  -2.7959   0.00    0.0
2019/01/15 09:37:05.000   4280230.2381  -4034425.3745  -2458262.8880   5  11   4.2629   3.7386   4.0282  -3.3577   2.7563  -2.7360   0.00    0.0
2019/01/15 09:37:07.000   4280212.1195  -4034417.7278  -2458272.4899   5  11   4.2090   3.6700   3.9891  -3.2411   2.8298  -2.8204   0.00    0.0
2019/01/15 09:37:15.000   4280231.3934  -4034433.5436  -2458281.9017   5  11   4.2644   3.7375   4.0240  -3.3576   2.7522  -2.7298   0.00    0.0
2019/01/15 09:37:16.000   4280222.1612  -4034424.1913  -2458278.1030   5  12   4.1996   3.6363   3.9818  -3.2609   2.8411  -2.8066   0.00    0.0
2019/01/15 09:37:17.000   4280225.6999  -4034423.9139  -2458270.3889   5  11   4.2647   3.7373   4.0232  -3.3576   2.7514  -2.7286   0.00    0.0
2019/01/15 09:37:18.000   4280221.5532  -4034422.2628  -2458277.4805   5  12   4.1996   3.6359   3.9811  -3.2606   2.8403  -2.8055   0.00    0.0
2019/01/15 09:37:19.000   4280221.0917  -4034410.5126  -2458271.4769   5  12   4.1997   3.6358   3.9807  -3.2604   2.8399  -2.8050   0.00    0.0
2019/01/15 09:37:20.000   4280222.7602  -4034416.8557  -2458267.2010   5  11   4.2093   3.6676   3.9838  -3.2391   2.8251  -2.8129   0.00    0.0
2019/01/15 09:37:22.000   4280226.3956  -4034422.0257  -2458269.3353   5  11   4.6544   3.8641   4.1079  -3.6409   3.0648  -3.1469   0.00    0.0
2019/01/15 09:37:24.000   4280225.8163  -4034434.5851  -2458269.7110   5  12   4.1998   3.6348   3.9787  -3.2597   2.8379  -2.8022   0.00    0.0
2019/01/15 09:37:26.000   4280228.4067  -4034428.6079  -2458271.2574   5  11   4.2048   3.6432   4.7270  -3.2673   2.9491  -2.8928   0.00    0.0
2019/01/15 09:37:28.000   4280230.3586  -4034433.0554  -2458286.2259   5  11   4.6213   3.6459   4.1978  -3.3452   2.9054  -3.2294   0.00    0.0
2019/01/15 09:37:29.000   4280237.1883  -4034424.1243  -2458282.6794   5  12   4.1999   3.6338   3.9768  -3.2589   2.8360  -2.7994   0.00    0.0
2019/01/15 09:37:30.000   4280213.5408  -4034415.6922  -2458274.0354   5  11   4.6543   3.8624   4.1050  -3.6396   3.0620  -3.1430   0.00    0.0
2019/01/15 09:37:31.000   4280228.5515  -4034423.7035  -2458271.8780   5  11   4.2095   3.6657   3.9794  -3.2374   2.8211  -2.8065   0.00    0.0
2019/01/15 09:37:32.000   4280232.0541  -4034427.2208  -2458273.8393   5  11   4.2095   3.6655   3.9789  -3.2373   2.8208  -2.8059   0.00    0.0
2019/01/15 09:37:33.000   4280229.1136  -4034429.8461  -2458269.0758   5  12   4.2000   3.6330   3.9752  -3.2583   2.8344  -2.7971   0.00    0.0
2019/01/15 09:37:34.000   4280235.7815  -4034427.6862  -2458272.5140   5  11   5.0446   4.2611   4.2530  -4.1035   3.3766  -3.4711   0.00    0.0
2019/01/15 09:37:35.000   4280227.9911  -4034416.5457  -2458269.6653   5  12   4.2001   3.6326   3.9744  -3.2580   2.8336  -2.7960   0.00    0.0
2019/01/15 09:37:36.000   4280230.3865  -4034419.6983  -2458270.5198   5  12   4.2001   3.6324   3.9740  -3.2579   2.8332  -2.7955   0.00    0.0
2019/01/15 09:37:37.000   4280225.0740  -4034424.9701  -2458269.1684   5  12   4.2001   3.6322   3.9736  -3.2577   2.8328  -2.7949   0.00    0.0
2019/01/15 09:37:38.000   4280217.9261  -4034426.2223  -2458267.2093   5  11   4.6542   3.8607   4.1022  -3.6382   3.0592  -3.1391   0.00    0.0
2019/01/15 09:37:40.000   4280217.7566  -4034408.9011  -2458253.9768   5  11   4.6542   3.8603   4.1015  -3.6379   3.0584  -3.1382   0.00    0.0
2019/01/15 09:37:41.000   4280229.8785  -4034417.9414  -2458272.7000   5  12   4.2002   3.6314   3.9721  -3.2571   2.8313  -2.7927   0.00    0.0
2019/01/15 09:37:42.000   4280225.0312  -4034416.4841  -2458265.9996   5  12   4.2003   3.6312   3.9717  -3.2570   2.8309  -2.7921   0.00    0.0
2019/01/15 09:37:43.000   4280215.1124  -4034413.9076  -2458248.6206   5  11   4.2102   3.6601   4.3269  -3.2771   2.9669  -2.8788   0.00    0.0
2019/01/15 09:37:44.000   4280228.9421  -4034414.9287  -2458258.6660   5  12   4.2003   3.6308   3.9709  -3.2567   2.8301  -2.7910   0.00    0.0
2019/01/15 09:37:45.000   4280227.1087  -4034417.4621  -2458266.0052   5  12   4.2004   3.6306   3.9705  -3.2565   2.8297  -2.7904   0.00    0.0
2019/01/15 09:37:46.000   4280219.4224  -4034413.7461  -2458268.2036   5  11   4.2042   3.6379   4.7055  -3.2628   2.9319  -2.8697   0.00    0.0
2019/01/15 09:37:47.000   4280218.6838  -4034416.4310  -2458266.3161   5  12   4.2004   3.6302   3.9697  -3.2563   2.8289  -2.7893   0.00    0.0
2019/01/15 09:37:49.000   4280213.0728  -4034399.5151  -2458251.1002   5  11   4.2100   3.6624   3.9720  -3.2348   2.8146  -2.7961   0.00    0.0
2019/01/15 09:37:50.000   4280224.5717  -4034421.4256  -2458252.8721   5  11   4.2515   4.9507   5.7713  -3.5792   4.7015  -3.2437   0.00    0.0
2019/01/15 09:37:51.000   4280214.5770  -4034414.6156  -2458265.8322   5  11   4.2514   4.9504   5.7711  -3.5787   4.7012  -3.2428   0.00    0.0
2019/01/15 09:37:52.000   4280227.0924  -4034418.0795  -2458258.0004   5  12   4.2006   3.6292   3.9678  -3.2555   2.8270  -2.7865   0.00    0.0
2019/01/15 09:37:53.000   4280217.2633  -4034424.5471  -2458280.8627   5  11   4.2513   4.9497   5.7709  -3.5779   4.7006  -3.2412   0.00    0.0
2019/01/15 09:37:54.000   4280214.9988  -4034394.3367  -2458257.5797   5  11   4.5352   4.4489   3.9673  -3.8726   2.8034  -2.7701   0.00    0.0
2019/01/15 09:37:58.000   4280218.2275  -4034419.8135  -2458275.3811   5  11   4.2102   3.6608   3.9683  -3.2334   2.8114  -2.7908   0.00    0.0
2019/01/15 09:38:01.000   4280214.3784  -4034420.0948  -2458280.3904   5  11   4.2103   3.6603   3.9671  -3.2330   2.8103  -2.7891   0.00    0.0
2019/01/15 09:38:02.000   4280230.7675  -4034430.0661  -2458279.6227   5  11   4.6538   3.8557   4.0935  -3.6341   3.0506  -3.1274   0.00    0.0
2019/01/15 09:38:05.000   4280217.7314  -4034414.5240  -2458270.9815   5  11   4.2104   3.6596   3.9654  -3.2324   2.8089  -2.7868   0.00    0.0
2019/01/15 09:38:06.000   4280216.7237  -4034419.8943  -2458256.1959   5  11   4.2104   3.6594   3.9650  -3.2322   2.8085  -2.7862   0.00    0.0
2019/01/15 09:38:07.000   4280217.3453  -4034418.5746  -2458271.6971   5  11   4.2104   3.6593   3.9646  -3.2321   2.8082  -2.7856   0.00    0.0
2019/01/15 09:38:08.000   4280220.3055  -4034417.0963  -2458269.8750   5  11   4.2105   3.6591   3.9642  -3.2319   2.8078  -2.7850   0.00    0.0
2019/01/15 09:38:14.000   4280220.3196  -4034423.4196  -2458271.6694   5  11   4.2108   3.6534   4.3120  -3.2721   2.9530  -2.8602   0.00    0.0
2019/01/15 09:38:16.000   4280242.2602  -4034433.4008  -2458279.5592   5  11   4.6536   3.8528   4.0885  -3.6318   3.0456  -3.1206   0.00    0.0
2019/01/15 09:38:17.000   4280222.8361  -4034420.6406  -2458269.7213   5  12   4.2014   3.6244   3.9579  -3.2519   2.8172  -2.7725   0.00    0.0
2019/01/15 09:38:18.000   4280223.4124  -4034422.0306  -2458254.2378   5  11   4.5376   4.4460   3.9577  -3.8715   2.7967  -2.7583   0.00    0.0
2019/01/15 09:38:20.000   4280227.6617  -4034422.8461  -2458264.1309   5  12   4.2015   3.6238   3.9567  -3.2515   2.8160  -2.7708   0.00    0.0
2019/01/15 09:38:22.000   4280234.2811  -4034419.6558  -2458273.3552   5  12   4.2015   3.6234   3.9559  -3.2512   2.8152  -2.7697   0.00    0.0
2019/01/15 09:38:23.000   4280217.8720  -4034413.6742  -2458268.7391   5  11   4.2109   3.6565   3.9581  -3.2298   2.8024  -2.7763   0.00    0.0
2019/01/15 09:38:26.000   4280206.4821  -4034413.5023  -2458265.7458   5  11   4.2760   3.7306   3.9940  -3.3576   2.7234  -2.6857   0.00    0.0
2019/01/15 09:38:27.000   4280214.9242  -4034414.1864  -2458268.9912   5  11   4.2761   3.7305   3.9935  -3.3576   2.7230  -2.6851   0.00    0.0
2019/01/15 09:38:28.000   4280225.4968  -4034424.1389  -2458263.1015   5  12   4.2017   3.6223   3.9535  -3.2503   2.8129  -2.7663   0.00    0.0
2019/01/15 09:38:29.000   4280219.3068  -4034429.4218  -2458263.1443   5  11   4.2765   3.7303   3.9927  -3.3576   2.7221  -2.6839   0.00    0.0
2019/01/15 09:38:30.000   4280229.9760  -4034427.4975  -2458267.8347   5  11   4.2112   3.6553   3.9552  -3.2287   2.7999  -2.7722   0.00    0.0
2019/01/15 09:38:31.000   4280212.9919  -4034413.0265  -2458267.6682   5  11   4.2112   3.6551   3.9548  -3.2286   2.7996  -2.7716   0.00    0.0
2019/01/15 09:38:32.000   4280231.0782  -4034417.8827  -2458269.7317   5  11   4.6316   3.6347   4.1770  -3.3411   2.8847  -3.2055   0.00    0.0
2019/01/15 09:38:33.000   4280207.6994  -4034413.1608  -2458257.8753   5  12   4.2019   3.6213   3.9516  -3.2496   2.8109  -2.7635   0.00    0.0
2019/01/15 09:38:35.000   4280221.4148  -4034437.1421  -2458280.8800   5  11   4.2489   4.9362   5.7649  -3.5596   4.6884  -3.2053   0.00    0.0
2019/01/15 09:38:36.000   4280225.7857  -4034421.4665  -2458267.6851   5  12   4.2020   3.6208   3.9504  -3.2492   2.8098  -2.7618   0.00    0.0
2019/01/15 09:38:37.000   4280213.4522  -4034417.7583  -2458268.9695   5  11   4.2779   3.7296   3.9893  -3.3577   2.7189  -2.6789   0.00    0.0
2019/01/15 09:38:39.000   4280211.6971  -4034414.9957  -2458279.1523   5  12   4.2021   3.6202   3.9492  -3.2488   2.8086  -2.7601   0.00    0.0
2019/01/15 09:38:40.000   4280206.0254  -4034407.8081  -2458265.8260   5  11   4.2036   3.6246   4.6482  -3.2517   2.8863  -2.8081   0.00    0.0
2019/01/15 09:38:42.000   4280209.8112  -4034403.8831  -2458272.8762   5  11   4.2788   3.7291   3.9872  -3.3578   2.7169  -2.6758   0.00    0.0
2019/01/15 09:38:43.000   4280216.3419  -4034409.8183  -2458275.4356   5  12   4.2023   3.6194   3.9476  -3.2482   2.8070  -2.7579   0.00    0.0
2019/01/15 09:38:44.000   4280209.0286  -4034403.2967  -2458264.8302   5  11   4.6532   3.8470   4.0783  -3.6270   3.0356  -3.1068   0.00    0.0
2019/01/15 09:38:46.000   4280231.2907  -4034423.5873  -2458279.1072   5  12   4.2024   3.6189   3.9464  -3.2478   2.8059  -2.7562   0.00    0.0
2019/01/15 09:38:47.000   4280223.0045  -4034428.0226  -2458275.1153   5  11   4.2797   3.7287   3.9850  -3.3578   2.7149  -2.6727   0.00    0.0
2019/01/15 09:38:48.000   4280219.4114  -4034417.5696  -2458264.2128   5  11   4.2798   3.7286   3.9846  -3.3578   2.7145  -2.6720   0.00    0.0
2019/01/15 09:38:49.000   4280231.5455  -4034424.4994  -2458276.9284   5  12   4.2025   3.6183   3.9452  -3.2474   2.8047  -2.7545   0.00    0.0
2019/01/15 09:38:50.000   4280232.0552  -4034427.9660  -2458276.5324   5  11   4.2037   3.6222   4.6377  -3.2498   2.8780  -2.7968   0.00    0.0
2019/01/15 09:38:51.000   4280213.5963  -4034411.8897  -2458262.9591   5  11   4.2804   3.7283   3.9833  -3.3579   2.7133  -2.6702   0.00    0.0
2019/01/15 09:38:52.000   4280214.0279  -4034418.5090  -2458272.4649   5  11   4.2806   3.7283   3.9829  -3.3579   2.7129  -2.6696   0.00    0.0
2019/01/15 09:38:53.000   4280217.5529  -4034415.2477  -2458276.6692   5  11   4.2808   3.7282   3.9825  -3.3579   2.7125  -2.6689   0.00    0.0
2019/01/15 09:38:54.000   4280218.7996  -4034417.2446  -2458279.6957   5  11   4.2809   3.7281   3.9820  -3.3579   2.7121  -2.6683   0.00    0.0
2019/01/15 09:38:55.000   4280231.9656  -4034443.1137  -2458301.4966   5  11   4.2479   4.9297   5.7616  -3.5508   4.6823  -3.1879   0.00    0.0
2019/01/15 09:38:56.000   4280217.1963  -4034422.3306  -2458263.8811   5  11   4.2813   3.7279   3.9812  -3.3579   2.7112  -2.6671   0.00    0.0
2019/01/15 09:38:57.000   4280212.6844  -4034409.3442  -2458273.3405   5  11   4.2815   3.7278   3.9808  -3.3580   2.7108  -2.6664   0.00    0.0
2019/01/15 09:38:58.000   4280215.6282  -4034417.9023  -2458274.3148   5  12   4.2029   3.6166   3.9416  -3.2461   2.8012  -2.7494   0.00    0.0
2019/01/15 09:38:59.000   4280221.7627  -4034430.5210  -2458290.0183   5  11   4.2477   4.9284   5.7609  -3.5490   4.6811  -3.1844   0.00    0.0
2019/01/15 09:39:00.000   4280229.9007  -4034424.5116  -2458262.7922   5  11   4.2121   3.6438   4.2895  -3.2649   2.9324  -2.8325   0.00    0.0
2019/01/15 09:39:01.000   4280230.0567  -4034430.7428  -2458263.6085   5  11   4.2392   3.9146   3.9503  -3.3710   2.7244  -2.7195   0.00    0.0
2019/01/15 09:39:02.000   4280218.5860  -4034416.3187  -2458266.2668   5  12   4.2030   3.6159   3.9400  -3.2456   2.7996  -2.7472   0.00    0.0
2019/01/15 09:39:03.000   4280219.9065  -4034411.9350  -2458255.4605   5  11   4.2122   3.6431   4.2881  -3.2644   2.9311  -2.8307   0.00    0.0
2019/01/15 09:39:04.000   4280235.2157  -4034428.7718  -2458277.0790   5  11   4.6369   3.6293   4.1664  -3.3392   2.8744  -3.1934   0.00    0.0
2019/01/15 09:39:09.000   4280226.2258  -4034422.0842  -2458272.2610   5  12   4.2033   3.6146   3.9372  -3.2446   2.7969  -2.7432   0.00    0.0
2019/01/15 09:39:10.000   4280244.3140  -4034436.0235  -2458273.0847   5  11   4.2396   3.9124   3.9471  -3.3697   2.7193  -2.7138   0.00    0.0
2019/01/15 09:39:11.000   4280212.4722  -4034402.0997  -2458247.8196   5  11   4.6381   3.6281   4.1640  -3.3388   2.8721  -3.1907   0.00    0.0
2019/01/15 09:39:12.000   4280234.8664  -4034420.9932  -2458272.6796   5  12   4.2035   3.6140   3.9360  -3.2442   2.7957  -2.7415   0.00    0.0
2019/01/15 09:39:13.000   4280220.7404  -4034402.4143  -2458255.5010   5  12   4.2035   3.6138   3.9356  -3.2441   2.7954  -2.7410   0.00    0.0
2019/01/15 09:39:14.000   4280241.7322  -4034416.1220  -2458267.3747   5  11   4.6528   3.8408   4.0673  -3.6220   3.0248  -3.0919   0.00    0.0
2019/01/15 09:39:15.000   4280207.7147  -4034400.7903  -2458244.0306   5  11   4.6387   3.6274   4.1627  -3.3386   2.8708  -3.1892   0.00    0.0
2019/01/15 09:39:16.000   4280219.5100  -4034407.0269  -2458255.4410   5  11   4.2128   3.6475   3.9362  -3.2222   2.7836  -2.7453   0.00    0.0
2019/01/15 09:39:18.000   4280203.2142  -4034386.9875  -2458234.5145   5  11   4.2468   4.9221   5.7575  -3.5407   4.6751  -3.1676   0.00    0.0
2019/01/15 09:39:20.000   4280200.5179  -4034395.6945  -2458255.9768   5  11   4.6527   3.8396   4.0651  -3.6209   3.0226  -3.0889   0.00    0.0
2019/01/15 09:39:21.000   4280207.8463  -4034418.6400  -2458269.6953   5  12   4.2038   3.6124   3.9325  -3.2430   2.7922  -2.7364   0.00    0.0
2019/01/15 09:39:22.000   4280215.9831  -4034413.7553  -2458269.7738   5  11   4.2131   3.6465   3.9338  -3.2214   2.7814  -2.7418   0.00    0.0
2019/01/15 09:39:23.000   4280210.2575  -4034412.1651  -2458272.0118   5  11   4.2131   3.6463   3.9334  -3.2213   2.7811  -2.7412   0.00    0.0
2019/01/15 09:39:24.000   4280206.6545  -4034406.0092  -2458260.6382   5  11   4.2132   3.6461   3.9330  -3.2211   2.7807  -2.7406   0.00    0.0
2019/01/15 09:39:25.000   4280218.6047  -4034418.4435  -2458278.2884   5  11   4.2132   3.6460   3.9325  -3.2210   2.7804  -2.7400   0.00    0.0
2019/01/15 09:39:27.000   4280207.1978  -4034396.1559  -2458255.1218   5  11   4.2464   4.9191   5.7557  -3.5367   4.6722  -3.1596   0.00    0.0
2019/01/15 09:39:30.000   4280227.2473  -4034410.5194  -2458282.4137   5  12   4.2042   3.6107   3.9288  -3.2418   2.7888  -2.7314   0.00    0.0
2019/01/15 09:39:35.000   4280215.5373  -4034390.6159  -2458258.1437   5  11   4.2460   4.9164   5.7542  -3.5331   4.6695  -3.1524   0.00    0.0
2019/01/15 09:39:36.000   4280211.3249  -4034417.0338  -2458277.0287   5  11   4.5457   4.4368   3.9265  -3.8680   2.7751  -2.7202   0.00    0.0
2019/01/15 09:39:39.000   4280204.5355  -4034380.5288  -2458259.9279   5  11   4.2459   4.9150   5.7534  -3.5314   4.6682  -3.1488   0.00    0.0
2019/01/15 09:39:41.000   4280192.1592  -4034401.8209  -2458258.3423   5  11   5.6652   3.6550   3.9278  -3.5638   2.8013  -2.8360   0.00    0.0
2019/01/15 09:39:42.000   4280206.4229  -4034411.8746  -2458263.5712   5  11   4.3501   3.6540   4.2240  -3.3376   2.9409  -3.0276   0.00    0.0
2019/01/15 09:39:43.000   4280213.3976  -4034410.4071  -2458272.2990   5  12   4.2048   3.6084   3.9236  -3.2401   2.7837  -2.7240   0.00    0.0
2019/01/15 09:39:45.000   4280204.3461  -4034382.0418  -2458247.1525   5  11   4.2456   4.9130   5.7521  -3.5287   4.6662  -3.1434   0.00    0.0
2019/01/15 09:39:46.000   4280214.8709  -4034411.9239  -2458291.0693   5  11   4.2051   3.6098   4.5799  -3.2402   2.8325  -2.7344   0.00    0.0
2019/01/15 09:39:47.000   4280229.9042  -4034413.8872  -2458286.2006   5  10   4.2913   3.8021   3.9676  -3.3524   2.6540  -2.6381   0.00    0.0
2019/01/15 09:39:48.000   4280218.5182  -4034402.9660  -2458267.8349   5  10   4.2915   3.8020   3.9671  -3.3525   2.6537  -2.6374   0.00    0.0
2019/01/15 09:39:49.000   4280221.7017  -4034413.8409  -2458271.2890   5  10   4.8014   3.7561   4.1627  -3.5136   2.8055  -3.1163   0.00    0.0
2019/01/15 09:39:51.000   4280179.9983  -4034393.0196  -2458261.9598   5  11   5.6650   3.6527   3.9236  -3.5607   2.7970  -2.8279   0.00    0.0
2019/01/15 09:40:00.000   4280197.0908  -4034387.2501  -2458247.7652   5  10   4.2936   3.7246   4.5937  -3.3597   2.7367  -2.6373   0.00    0.0
2019/01/15 09:40:02.000   4280207.4174  -4034413.6289  -2458273.1928   5  11   4.2450   4.9072   5.7485  -3.5211   4.6605  -3.1280   0.00    0.0
2019/01/15 09:40:06.000   4280206.1557  -4034405.8215  -2458260.9937   5  11   4.2947   3.7223   3.9512  -3.3595   2.6832  -2.6235   0.00    0.0
2019/01/15 09:40:08.000   4280206.8713  -4034394.9435  -2458251.0263   5  11   4.2448   4.9052   5.7472  -3.5185   4.6584  -3.1225   0.00    0.0
2019/01/15 09:40:10.000   4280202.9456  -4034407.9351  -2458264.0453   5  11   4.2955   3.7220   3.9494  -3.3596   2.6816  -2.6210   0.00    0.0
2019/01/15 09:40:14.000   4280213.8048  -4034406.5202  -2458263.8458   5  11   4.2964   3.7217   3.9477  -3.3598   2.6800  -2.6185   0.00    0.0
2019/01/15 09:40:17.000   4280212.6001  -4034403.4508  -2458253.2718   5  11   4.2970   3.7215   3.9464  -3.3598   2.6788  -2.6166   0.00    0.0
2019/01/15 09:40:18.000   4280207.5713  -4034404.1634  -2458266.5074   5  12   4.2066   3.6021   3.9096  -3.2355   2.7702  -2.7042   0.00    0.0
2019/01/15 09:40:19.000   4280220.2013  -4034413.1823  -2458294.1439   5  11   4.2151   3.6279   4.2504  -3.2532   2.8973  -2.7848   0.00    0.0
2019/01/15 09:40:21.000   4280213.4328  -4034414.2814  -2458265.1718   5  11   4.2978   3.7212   3.9447  -3.3600   2.6772  -2.6141   0.00    0.0
2019/01/15 09:40:22.000   4280213.8018  -4034411.5079  -2458267.0751   5  11   4.2980   3.7211   3.9443  -3.3600   2.6768  -2.6135   0.00    0.0
2019/01/15 09:40:23.000   4280217.2076  -4034412.2956  -2458277.1668   5  12   4.2069   3.6012   3.9075  -3.2349   2.7683  -2.7014   0.00    0.0
2019/01/15 09:40:25.000   4280211.2724  -4034401.2934  -2458272.1874   5  11   4.2160   3.6362   3.9078  -3.2129   2.7593  -2.7049   0.00    0.0
2019/01/15 09:40:27.000   4280217.9571  -4034415.4452  -2458267.6387   5  11   4.2990   3.7208   3.9421  -3.3602   2.6748  -2.6104   0.00    0.0
2019/01/15 09:40:28.000   4280222.2592  -4034425.8621  -2458268.8341   5  11   4.2992   3.7207   3.9417  -3.3602   2.6744  -2.6097   0.00    0.0
2019/01/15 09:40:30.000   4280222.6863  -4034414.9529  -2458268.7861   5  11   4.2997   3.7206   3.9408  -3.3603   2.6736  -2.6085   0.00    0.0
2019/01/15 09:40:32.000   4280227.3297  -4034424.1956  -2458270.0834   5  11   4.3001   3.7204   3.9399  -3.3604   2.6729  -2.6073   0.00    0.0
2019/01/15 09:40:33.000   4280220.3351  -4034418.0061  -2458258.3155   5  11   4.3003   3.7203   3.9395  -3.3604   2.6725  -2.6066   0.00    0.0
2019/01/15 09:40:36.000   4280213.0673  -4034411.2758  -2458262.2412   5  12   4.2076   3.5989   3.9023  -3.2332   2.7633  -2.6940   0.00    0.0
2019/01/15 09:40:37.000   4280210.4062  -4034406.1542  -2458266.4605   5  11   4.6530   3.6143   4.1346  -3.3344   2.8445  -3.1577   0.00    0.0
2019/01/15 09:40:38.000   4280207.1505  -4034412.5754  -2458263.8825   5  11   4.6532   3.6142   4.1342  -3.3343   2.8442  -3.1573   0.00    0.0
2019/01/15 09:40:39.000   4280217.3477  -4034421.9730  -2458268.2446   5  11   4.3016   3.7199   3.9369  -3.3606   2.6701  -2.6029   0.00    0.0
2019/01/15 09:40:40.000   4280205.1992  -4034406.4577  -2458257.9980   5  11   4.3018   3.7199   3.9365  -3.3606   2.6697  -2.6023   0.00    0.0
2019/01/15 09:40:41.000   4280195.0621  -4034400.5353  -2458270.5387   5  11   4.2169   3.6337   3.9012  -3.2108   2.7537  -2.6955   0.00    0.0
2019/01/15 09:40:42.000   4280218.7270  -4034418.6053  -2458275.1879   5  12   4.2079   3.5979   3.8999  -3.2324   2.7609  -2.6906   0.00    0.0
2019/01/15 09:40:43.000   4280207.4041  -4034402.1369  -2458269.4907   5  11   4.2082   3.5983   4.5224  -3.2319   2.7877  -2.6723   0.00    0.0
2019/01/15 09:40:44.000   4280217.7275  -4034419.2796  -2458285.3820   5  11   4.2082   3.5981   4.5214  -3.2318   2.7869  -2.6712   0.00    0.0
2019/01/15 09:40:46.000   4280204.9208  -4034405.7714  -2458268.2575   5  11   4.2172   3.6329   3.8991  -3.2102   2.7519  -2.6925   0.00    0.0
2019/01/15 09:40:47.000   4280219.7296  -4034410.9192  -2458267.2013   5  12   4.2082   3.5970   3.8978  -3.2318   2.7590  -2.6878   0.00    0.0
2019/01/15 09:40:48.000   4280217.2705  -4034387.9640  -2458238.6095   5  11   4.2435   4.8913   5.7378  -3.5006   4.6442  -3.0856   0.00    0.0
2019/01/15 09:40:49.000   4280216.6959  -4034405.3213  -2458262.9730   5  11   4.6515   3.8216   4.0317  -3.6059   2.9905  -3.0440   0.00    0.0
2019/01/15 09:40:51.000   4280211.2383  -4034414.5282  -2458272.7751   5  11   4.3041   3.7191   3.9317  -3.3611   2.6653  -2.5954   0.00    0.0
2019/01/15 09:40:53.000   4280211.1866  -4034420.7020  -2458266.1209   5  11   4.5540   4.4277   3.8954  -3.8645   2.7541  -2.6826   0.00    0.0
2019/01/15 09:40:54.000   4280195.3131  -4034417.8925  -2458276.2792   5  11   5.6638   3.6383   3.8973  -3.5410   2.7699  -2.7775   0.00    0.0
2019/01/15 09:40:55.000   4280231.7848  -4034426.5370  -2458272.3777   5  12   4.2087   3.5957   3.8946  -3.2308   2.7560  -2.6833   0.00    0.0
2019/01/15 09:40:56.000   4280228.5328  -4034425.2564  -2458276.0262   5  12   4.2087   3.5955   3.8942  -3.2307   2.7556  -2.6827   0.00    0.0
2019/01/15 09:40:57.000   4280193.4965  -4034408.2554  -2458265.0621   5  11   5.6638   3.6376   3.8961  -3.5401   2.7686  -2.7751   0.00    0.0
2019/01/15 09:40:58.000   4280207.9029  -4034399.8100  -2458258.3193   5  11   4.2178   3.6311   3.8941  -3.2087   2.7477  -2.6855   0.00    0.0
2019/01/15 09:40:59.000   4280225.1619  -4034408.4877  -2458267.4541   5  11   4.2179   3.6309   3.8937  -3.2085   2.7474  -2.6849   0.00    0.0
2019/01/15 09:41:00.000   4280214.7153  -4034409.5638  -2458261.2121   5  12   4.2090   3.5948   3.8926  -3.2302   2.7540  -2.6804   0.00    0.0
2019/01/15 09:41:01.000   4280211.4083  -4034404.3299  -2458250.3787   5  12   4.2090   3.5946   3.8922  -3.2301   2.7537  -2.6799   0.00    0.0
2019/01/15 09:41:02.000   4280212.7200  -4034409.9573  -2458272.9916   5  12   4.2091   3.5945   3.8918  -3.2300   2.7533  -2.6793   0.00    0.0
2019/01/15 09:41:04.000   4280211.6981  -4034409.5367  -2458282.9278   5  11   4.3069   3.7183   3.9261  -3.3616   2.6602  -2.5873   0.00    0.0
2019/01/15 09:41:06.000   4280197.8012  -4034393.9183  -2458269.4201   5  11   5.0781   4.2346   4.2196  -4.0978   3.3516  -3.4366   0.00    0.0
2019/01/15 09:41:07.000   4280207.9655  -4034409.9407  -2458277.9601   5  11   4.2175   3.6186   4.2262  -3.2465   2.8761  -2.7558   0.00    0.0
2019/01/15 09:41:08.000   4280199.6398  -4034394.6272  -2458266.8646   5  11   4.5557   4.4260   3.8893  -3.8638   2.7500  -2.6752   0.00    0.0
2019/01/15 09:41:11.000   4280238.3791  -4034423.5448  -2458269.1325   5  12   4.2096   3.5929   3.8881  -3.2289   2.7498  -2.6742   0.00    0.0
2019/01/15 09:41:12.000   4280219.6036  -4034409.8498  -2458250.2127   5  12   4.2097   3.5928   3.8877  -3.2287   2.7494  -2.6736   0.00    0.0
2019/01/15 09:41:13.000   4280221.9261  -4034420.9225  -2458258.0769   5  11   4.2187   3.6288   3.8879  -3.2068   2.7425  -2.6767   0.00    0.0
2019/01/15 09:41:14.000   4280221.8837  -4034418.1344  -2458260.7117   5  11   4.6511   3.8166   4.0222  -3.6017   2.9814  -3.0312   0.00    0.0
2019/01/15 09:41:15.000   4280233.3868  -4034423.9328  -2458275.7228   5  11   4.6511   3.8164   4.0219  -3.6015   2.9810  -3.0307   0.00    0.0
2019/01/15 09:41:16.000   4280223.0514  -4034419.7314  -2458265.8383   5  12   4.2099   3.5921   3.8861  -3.2283   2.7479  -2.6714   0.00    0.0
2019/01/15 09:41:17.000   4280223.8736  -4034420.8893  -2458273.3773   5  12   4.2100   3.5919   3.8857  -3.2281   2.7475  -2.6708   0.00    0.0
2019/01/15 09:41:18.000   4280229.4420  -4034430.1114  -2458277.9706   5  12   4.2101   3.5917   3.8853  -3.2280   2.7471  -2.6702   0.00    0.0
2019/01/15 09:41:19.000   4280219.0046  -4034427.8425  -2458269.3087   5  12   4.2101   3.5916   3.8849  -3.2279   2.7468  -2.6697   0.00    0.0
2019/01/15 09:41:20.000   4280220.1783  -4034426.1221  -2458274.8520   5  12   4.2102   3.5914   3.8845  -3.2278   2.7464  -2.6691   0.00    0.0
2019/01/15 09:41:21.000   4280221.1566  -4034422.6070  -2458270.5627   5  11   4.2192   3.6276   3.8846  -3.2058   2.7398  -2.6720   0.00    0.0
2019/01/15 09:41:25.000   4280220.6672  -4034420.5509  -2458273.6369   5  11   4.2195   3.6269   3.8830  -3.2053   2.7384  -2.6696   0.00    0.0
2019/01/15 09:41:26.000   4280234.2609  -4034422.7047  -2458283.7108   5  11   4.2195   3.6268   3.8826  -3.2051   2.7380  -2.6690   0.00    0.0
2019/01/15 09:41:27.000   4280220.8677  -4034420.4902  -2458276.2704   5  12   4.2106   3.5902   3.8816  -3.2269   2.7437  -2.6651   0.00    0.0
2019/01/15 09:41:28.000   4280230.1777  -4034419.9016  -2458278.2538   5  11   4.6510   3.8139   4.0169  -3.5993   2.9763  -3.0240   0.00    0.0
2019/01/15 09:41:29.000   4280222.9144  -4034414.7188  -2458260.9704   5  11   4.3125   3.7167   3.9153  -3.3627   2.6504  -2.5717   0.00    0.0
2019/01/15 09:41:31.000   4280233.0578  -4034432.1536  -2458277.0113   5  12   4.2109   3.5896   3.8800  -3.2265   2.7422  -2.6628   0.00    0.0
2019/01/15 09:41:32.000   4280227.0072  -4034419.0655  -2458273.4679   5  12   4.2110   3.5894   3.8796  -3.2263   2.7418  -2.6623   0.00    0.0
2019/01/15 09:41:38.000   4280221.0418  -4034417.8033  -2458277.2137   5  12   4.2113   3.5884   3.8771  -3.2256   2.7395  -2.6589   0.00    0.0
2019/01/15 09:41:39.000   4280223.8305  -4034420.5837  -2458261.4531   5  11   4.2128   3.5882   4.4671  -3.2253   2.7451  -2.6126   0.00    0.0
2019/01/15 09:41:40.000   4280212.0004  -4034410.7664  -2458266.6269   5  12   4.2115   3.5881   3.8763  -3.2254   2.7387  -2.6577   0.00    0.0
2019/01/15 09:41:41.000   4280227.9841  -4034418.6843  -2458271.1469   5  12   4.2115   3.5879   3.8759  -3.2253   2.7384  -2.6572   0.00    0.0
2019/01/15 09:41:42.000   4280211.8539  -4034410.7178  -2458263.9467   5  11   4.6508   3.8111   4.0116  -3.5970   2.9713  -3.0168   0.00    0.0
2019/01/15 09:41:43.000   4280218.1141  -4034413.6313  -2458265.2809   5  12   4.2117   3.5876   3.8751  -3.2250   2.7376  -2.6560   0.00    0.0
2019/01/15 09:41:44.000   4280225.6834  -4034415.4551  -2458255.9723   5  11   4.2133   3.5874   4.4623  -3.2247   2.7414  -2.6074   0.00    0.0
2019/01/15 09:41:45.000   4280210.1277  -4034410.6852  -2458261.0846   5  11   4.2134   3.5872   4.4613  -3.2246   2.7407  -2.6063   0.00    0.0
2019/01/15 09:41:46.000   4280208.8632  -4034409.2272  -2458272.9082   5  11   4.3164   3.7157   3.9079  -3.3636   2.6437  -2.5612   0.00    0.0
2019/01/15 09:41:48.000   4280216.8323  -4034414.6473  -2458259.3630   5  11   4.2198   3.6110   4.2055  -3.2410   2.8581  -2.7311   0.00    0.0
2019/01/15 09:41:49.000   4280227.2206  -4034420.3090  -2458277.7397   5  11   5.0845   4.2292   4.2124  -4.0963   3.3461  -3.4288   0.00    0.0
2019/01/15 09:41:50.000   4280224.8617  -4034419.7309  -2458267.2011   5  12   4.2121   3.5864   3.8722  -3.2242   2.7349  -2.6521   0.00    0.0
2019/01/15 09:41:51.000   4280212.8495  -4034406.6233  -2458250.4486   5  12   4.2122   3.5862   3.8718  -3.2241   2.7346  -2.6515   0.00    0.0
2019/01/15 09:41:53.000   4280222.6130  -4034424.4864  -2458252.9805   5  11   4.2142   3.5859   4.4535  -3.2238   2.7347  -2.5979   0.00    0.0
2019/01/15 09:41:54.000   4280219.5026  -4034416.4431  -2458264.0173   5  12   4.2124   3.5857   3.8706  -3.2237   2.7334  -2.6498   0.00    0.0
2019/01/15 09:41:55.000   4280231.5118  -4034419.0109  -2458269.0457   5  11   4.2214   3.6225   3.8706  -3.2016   2.7280  -2.6520   0.00    0.0
2019/01/15 09:41:58.000   4280226.9072  -4034415.2932  -2458260.2441   5  11   4.2216   3.6220   3.8693  -3.2012   2.7270  -2.6502   0.00    0.0
2019/01/15 09:41:59.000   4280225.2094  -4034420.8805  -2458280.0928   5  11   4.2217   3.6219   3.8689  -3.2011   2.7267  -2.6496   0.00    0.0
2019/01/15 09:42:00.000   4280238.5988  -4034421.6245  -2458271.5027   5  12   4.2128   3.5848   3.8682  -3.2231   2.7311  -2.6464   0.00    0.0
2019/01/15 09:42:01.000   4280208.1442  -4034406.1238  -2458259.4413   5  12   4.2129   3.5846   3.8678  -3.2229   2.7308  -2.6458   0.00    0.0
2019/01/15 09:42:02.000   4280213.7207  -4034411.3645  -2458264.2976   5  11   4.2219   3.6214   3.8677  -3.2008   2.7256  -2.6478   0.00    0.0
2019/01/15 09:42:05.000   4280210.3218  -4034410.6932  -2458259.8403   5  12   4.2132   3.5839   3.8661  -3.2225   2.7292  -2.6435   0.00    0.0
2019/01/15 09:42:06.000   4280207.6701  -4034401.2940  -2458261.5301   5  11   4.5622   4.4192   3.8657  -3.8611   2.7345  -2.6469   0.00    0.0
2019/01/15 09:42:07.000   4280217.8998  -4034412.7212  -2458267.4398   5  11   4.6696   3.6009   4.1027  -3.3306   2.8160  -3.1227   0.00    0.0
2019/01/15 09:42:08.000   4280197.7120  -4034407.5383  -2458269.9828   5  11   5.6634   3.6222   3.8664  -3.5188   2.7386  -2.7184   0.00    0.0
2019/01/15 09:42:09.000   4280213.4929  -4034419.9231  -2458264.3101   5  12   4.2135   3.5833   3.8645  -3.2220   2.7277  -2.6413   0.00    0.0
2019/01/15 09:42:10.000   4280233.4525  -4034433.9470  -2458272.5512   5  11   4.2160   3.5831   4.4371  -3.2222   2.7222  -2.5801   0.00    0.0
2019/01/15 09:42:12.000   4280208.0479  -4034421.5017  -2458269.7916   5  11   4.2162   3.5828   4.4352  -3.2220   2.7207  -2.5781   0.00    0.0
2019/01/15 09:42:13.000   4280228.5352  -4034421.6636  -2458278.4887   5  11   4.6505   3.8051   3.9997  -3.5917   2.9600  -3.0008   0.00    0.0
2019/01/15 09:42:14.000   4280213.8913  -4034395.9310  -2458253.5152   5  11   4.2421   4.8606   5.7141  -3.4619   4.6112  -3.0036   0.00    0.0
2019/01/15 09:42:15.000   4280217.9789  -4034409.5544  -2458261.6314   5  11   4.2421   4.8603   5.7138  -3.4615   4.6108  -3.0026   0.00    0.0
2019/01/15 09:42:16.000   4280208.8568  -4034409.6590  -2458259.9967   5  11   4.2229   3.6194   3.8619  -3.1991   2.7208  -2.6396   0.00    0.0
2019/01/15 09:42:17.000   4280226.9562  -4034421.3458  -2458269.3017   5  11   4.6715   3.5995   4.0991  -3.3302   2.8128  -3.1187   0.00    0.0
2019/01/15 09:42:19.000   4280219.4142  -4034414.6448  -2458263.6786   5  11   4.2170   3.5817   4.4285  -3.2214   2.7156  -2.5708   0.00    0.0
2019/01/15 09:42:21.000   4280224.9893  -4034428.3801  -2458267.5130   5  11   4.2232   3.6187   3.8598  -3.1985   2.7191  -2.6366   0.00    0.0
2019/01/15 09:42:22.000   4280219.3744  -4034416.2412  -2458263.5890   5  11   4.3249   3.7138   3.8923  -3.3656   2.6297  -2.5388   0.00    0.0
2019/01/15 09:42:26.000   4280226.3497  -4034423.8510  -2458276.4880   5  11   5.0900   4.2246   4.2061  -4.0948   3.3413  -3.4219   0.00    0.0
2019/01/15 09:42:27.000   4280232.3997  -4034423.3665  -2458264.8146   5  11   4.3261   3.7135   3.8901  -3.3659   2.6278  -2.5357   0.00    0.0
2019/01/15 09:42:28.000   4280214.6263  -4034410.0118  -2458261.8545   5  11   4.2237   3.6177   3.8569  -3.1977   2.7167  -2.6325   0.00    0.0
2019/01/15 09:42:29.000   4280223.5992  -4034420.7603  -2458262.2246   5  11   4.2238   3.6175   3.8565  -3.1976   2.7164  -2.6319   0.00    0.0
2019/01/15 09:42:30.000   4280228.5934  -4034421.0168  -2458260.5909   5  11   4.2225   3.6034   4.1841  -3.2356   2.8398  -2.7057   0.00    0.0
2019/01/15 09:42:31.000   4280222.5086  -4034418.0443  -2458267.4466   5  12   4.2151   3.5798   3.8555  -3.2195   2.7194  -2.6288   0.00    0.0
2019/01/15 09:42:32.000   4280231.2608  -4034429.6716  -2458289.2459   5  12   4.2151   3.5796   3.8551  -3.2194   2.7190  -2.6282   0.00    0.0
2019/01/15 09:42:35.000   4280214.7366  -4034410.3326  -2458256.7600   5  11   4.6750   3.5970   4.0926  -3.3296   2.8071  -3.1117   0.00    0.0
2019/01/15 09:42:36.000   4280211.1870  -4034409.8595  -2458259.4815   5  12   4.2154   3.5790   3.8535  -3.2190   2.7175  -2.6259   0.00    0.0
2019/01/15 09:42:37.000   4280218.4175  -4034415.5835  -2458277.9672   5  12   4.2155   3.5788   3.8531  -3.2189   2.7171  -2.6253   0.00    0.0
2019/01/15 09:42:38.000   4280218.5343  -4034419.0502  -2458272.1297   5  12   4.2156   3.5786   3.8527  -3.2188   2.7167  -2.6248   0.00    0.0
2019/01/15 09:42:40.000   4280212.6594  -4034417.5528  -2458273.7467   5  11   4.6760   3.5963   4.0908  -3.3295   2.8056  -3.1097   0.00    0.0
2019/01/15 09:42:42.000   4280218.4285  -4034420.5993  -2458276.9952   5  11   4.6502   3.7995   3.9885  -3.5869   2.9495  -2.9857   0.00    0.0
2019/01/15 09:42:43.000   4280214.4500  -4034425.0755  -2458277.6398   5  12   4.2160   3.5778   3.8506  -3.2182   2.7148  -2.6219   0.00    0.0
2019/01/15 09:42:46.000   4280228.1019  -4034422.4813  -2458276.1712   5  12   4.2162   3.5774   3.8494  -3.2179   2.7137  -2.6202   0.00    0.0
2019/01/15 09:42:47.000   4280221.7649  -4034419.3080  -2458273.0345   5  11   4.2252   3.6150   3.8491  -3.1955   2.7103  -2.6213   0.00    0.0
2019/01/15 09:42:48.000   4280226.1644  -4034421.2312  -2458279.3866   5  11   4.2252   3.6148   3.8487  -3.1954   2.7099  -2.6207   0.00    0.0
2019/01/15 09:42:49.000   4280226.8837  -4034419.0455  -2458277.6357   5  11   4.2238   3.6001   4.1743  -3.2333   2.8316  -2.6943   0.00    0.0
2019/01/15 09:42:50.000   4280225.9399  -4034412.6132  -2458268.4223   5  11   4.2421   4.8474   5.7028  -3.4457   4.5965  -2.9682   0.00    0.0
2019/01/15 09:42:51.000   4280224.6842  -4034419.6119  -2458278.3065   5  11   4.2255   3.6144   3.8475  -3.1950   2.7089  -2.6190   0.00    0.0
2019/01/15 09:42:52.000   4280223.3226  -4034416.1039  -2458269.7144   5  12   4.2167   3.5764   3.8469  -3.2172   2.7115  -2.6168   0.00    0.0
2019/01/15 09:42:53.000   4280235.1650  -4034427.4488  -2458272.4957   5  11   4.2256   3.6141   3.8466  -3.1948   2.7082  -2.6178   0.00    0.0
2019/01/15 09:42:54.000   4280231.3665  -4034418.1782  -2458266.4115   5  11   4.2257   3.6140   3.8462  -3.1947   2.7079  -2.6172   0.00    0.0
2019/01/15 09:42:55.000   4280223.4975  -4034405.5399  -2458249.1557   5  11   4.2421   4.8456   5.7012  -3.4434   4.5944  -2.9633   0.00    0.0
2019/01/15 09:42:56.000   4280223.5271  -4034410.9009  -2458265.0553   5  11   4.6792   3.5941   4.0849  -3.3290   2.8005  -3.1034   0.00    0.0
2019/01/15 09:42:57.000   4280217.1942  -4034416.1299  -2458256.7031   5  11   4.3335   3.7121   3.8771  -3.3678   2.6162  -2.5170   0.00    0.0
2019/01/15 09:42:58.000   4280220.2177  -4034414.5814  -2458258.8592   5  11   4.2244   3.5985   4.1697  -3.2322   2.8277  -2.6889   0.00    0.0
2019/01/15 09:42:59.000   4280222.3755  -4034406.1321  -2458264.0577   5  12   4.2172   3.5753   3.8441  -3.2165   2.7088  -2.6128   0.00    0.0
2019/01/15 09:43:00.000   4280223.5639  -4034415.8805  -2458274.2261   5  12   4.2173   3.5752   3.8437  -3.2163   2.7084  -2.6123   0.00    0.0
2019/01/15 09:43:01.000   4280185.6413  -4034402.5030  -2458264.3992   5  11   5.6636   3.6113   3.8443  -3.5034   2.7166  -2.6763   0.00    0.0
2019/01/15 09:43:02.000   4280171.7669  -4034392.3640  -2458256.8399   5  11   5.6636   3.6111   3.8439  -3.5031   2.7162  -2.6756   0.00    0.0
2019/01/15 09:43:03.000   4280225.9278  -4034409.9695  -2458267.8445   5  11   4.6805   3.5931   4.0824  -3.3287   2.7984  -3.1007   0.00    0.0
2019/01/15 09:43:04.000   4280230.2573  -4034412.2820  -2458280.6972   5  11   4.6807   3.5930   4.0820  -3.3287   2.7980  -3.1003   0.00    0.0
2019/01/15 09:43:05.000   4280215.6686  -4034416.1847  -2458267.2058   5  12   4.2177   3.5744   3.8416  -3.2158   2.7066  -2.6094   0.00    0.0
2019/01/15 09:43:06.000   4280233.3984  -4034425.4674  -2458271.4726   5  12   4.2178   3.5742   3.8412  -3.2157   2.7062  -2.6089   0.00    0.0
2019/01/15 09:43:08.000   4280220.4169  -4034429.0107  -2458285.5045   5  11   4.2421   4.8408   5.6968  -3.4376   4.5889  -2.9503   0.00    0.0
2019/01/15 09:43:09.000   4280228.1230  -4034420.5853  -2458272.4108   5  11   4.2269   3.6119   3.8400  -3.1930   2.7028  -2.6084   0.00    0.0
2019/01/15 09:43:10.000   4280222.1263  -4034413.8492  -2458264.2638   5  12   4.2181   3.5736   3.8396  -3.2153   2.7047  -2.6066   0.00    0.0
2019/01/15 09:43:11.000   4280207.2657  -4034404.7198  -2458262.3068   5  11   4.6499   3.7939   3.9772  -3.5820   2.9389  -2.9706   0.00    0.0
2019/01/15 09:43:12.000   4280223.9718  -4034418.7507  -2458273.7067   5  12   4.2183   3.5733   3.8387  -3.2151   2.7039  -2.6055   0.00    0.0
2019/01/15 09:43:13.000   4280231.1604  -4034425.0850  -2458258.1551   5  11   4.5700   4.4115   3.8384  -3.8580   2.7168  -2.6142   0.00    0.0
2019/01/15 09:43:14.000   4280218.6818  -4034415.8905  -2458263.1292   5  11   4.5701   4.4114   3.8380  -3.8580   2.7166  -2.6138   0.00    0.0
2019/01/15 09:43:15.000   4280230.9771  -4034426.1086  -2458268.1199   5  11   4.2242   3.5735   4.3755  -3.2171   2.6755  -2.5133   0.00    0.0
2019/01/15 09:43:16.000   4280231.2369  -4034420.6480  -2458280.1329   5  11   4.6831   3.5914   4.0776  -3.3284   2.7943  -3.0955   0.00    0.0
2019/01/15 09:43:17.000   4280207.9329  -4034405.7806  -2458252.5030   5  11   4.2276   3.6108   3.8367  -3.1921   2.7001  -2.6037   0.00    0.0
2019/01/15 09:43:21.000   4280211.9559  -4034408.8203  -2458258.9933   5  12   4.2190   3.5719   3.8351  -3.2141   2.7006  -2.6003   0.00    0.0
2019/01/15 09:43:22.000   4280219.5458  -4034413.0647  -2458264.3868   5  12   4.2191   3.5718   3.8346  -3.2140   2.7002  -2.5998   0.00    0.0
2019/01/15 09:43:23.000   4280215.6594  -4034409.1874  -2458267.1733   5  11   4.2263   3.5942   4.1569  -3.2292   2.8170  -2.6738   0.00    0.0
2019/01/15 09:43:24.000   4280191.2729  -4034375.6400  -2458233.0479   5  11   4.2423   4.8348   5.6914  -3.4304   4.5820  -2.9343   0.00    0.0
2019/01/15 09:43:25.000   4280206.1711  -4034405.3809  -2458261.4964   5  12   4.2193   3.5713   3.8334  -3.2137   2.6991  -2.5981   0.00    0.0
2019/01/15 09:43:27.000   4280219.9647  -4034411.1985  -2458283.2082   5  11   4.2260   3.5719   4.3643  -3.2164   2.6671  -2.5012   0.00    0.0
2019/01/15 09:43:28.000   4280203.3658  -4034399.2891  -2458256.9110   5  12   4.2196   3.5709   3.8322  -3.2134   2.6979  -2.5964   0.00    0.0
2019/01/15 09:43:29.000   4280201.6408  -4034390.5173  -2458261.9593   5  11   4.3417   3.7107   3.8632  -3.3700   2.6040  -2.4971   0.00    0.0
2019/01/15 09:43:30.000   4280220.3616  -4034406.2776  -2458264.1574   5  11   4.6860   3.5895   4.0725  -3.3280   2.7899  -3.0900   0.00    0.0
2019/01/15 09:43:31.000   4280217.5846  -4034415.5241  -2458254.2285   5  12   4.2198   3.5704   3.8310  -3.2131   2.6968  -2.5947   0.00    0.0
2019/01/15 09:43:32.000   4280233.0624  -4034416.9361  -2458259.7673   5  12   4.2199   3.5703   3.8305  -3.2130   2.6964  -2.5941   0.00    0.0
2019/01/15 09:43:33.000   4280222.7595  -4034405.3805  -2458254.4328   5  12   4.2200   3.5701   3.8301  -3.2128   2.6961  -2.5935   0.00    0.0
2019/01/15 09:43:34.000   4280199.8971  -4034397.8792  -2458266.7287   5  11   5.6640   3.6047   3.8306  -3.4940   2.7030  -2.6502   0.00    0.0
2019/01/15 09:43:35.000   4280207.3208  -4034401.5454  -2458268.7667   5  11   4.2291   3.6083   3.8293  -3.1901   2.6941  -2.5930   0.00    0.0
2019/01/15 09:43:37.000   4280203.7310  -4034378.4352  -2458231.5665   5  11   4.2425   4.8300   5.6868  -3.4245   4.5764  -2.9212   0.00    0.0
2019/01/15 09:43:38.000   4280215.2163  -4034395.6369  -2458260.6229   5  12   4.2204   3.5694   3.8281  -3.2123   2.6942  -2.5907   0.00    0.0
2019/01/15 09:43:39.000   4280212.6737  -4034402.4840  -2458259.3182   5  12   4.2205   3.5692   3.8277  -3.2122   2.6938  -2.5901   0.00    0.0
2019/01/15 09:43:40.000   4280209.1768  -4034410.1428  -2458269.1118   5  12   4.2206   3.5690   3.8273  -3.2121   2.6935  -2.5895   0.00    0.0
2019/01/15 09:43:41.000   4280217.3500  -4034405.2816  -2458264.4137   5  12   4.2207   3.5689   3.8269  -3.2120   2.6931  -2.5890   0.00    0.0
2019/01/15 09:43:42.000   4280219.3106  -4034416.2437  -2458256.0850   5  11   4.3451   3.7102   3.8575  -3.3710   2.5990  -2.4891   0.00    0.0
2019/01/15 09:43:43.000   4280212.6790  -4034411.6478  -2458266.2019   5  11   4.2297   3.6073   3.8261  -3.1893   2.6914  -2.5883   0.00    0.0
2019/01/15 09:43:44.000   4280219.8908  -4034379.3375  -2458235.4908   5  11   4.2426   4.8273   5.6844  -3.4214   4.5733  -2.9142   0.00    0.0
2019/01/15 09:43:45.000   4280210.3954  -4034396.5757  -2458262.4908   5  11   4.2287   3.5696   4.3476  -3.2154   2.6546  -2.4831   0.00    0.0
2019/01/15 09:43:46.000   4280215.9891  -4034400.3799  -2458256.9395   5  12   4.2211   3.5681   3.8248  -3.2115   2.6912  -2.5861   0.00    0.0
2019/01/15 09:43:47.000   4280207.2715  -4034401.5425  -2458251.1125   5  11   4.3464   3.7100   3.8553  -3.3714   2.5971  -2.4860   0.00    0.0
2019/01/15 09:43:48.000   4280223.0909  -4034405.8572  -2458265.5325   5  12   4.2213   3.5678   3.8240  -3.2113   2.6905  -2.5850   0.00    0.0
2019/01/15 09:43:49.000   4280229.7966  -4034423.8349  -2458267.1602   5  12   4.2214   3.5677   3.8236  -3.2112   2.6901  -2.5844   0.00    0.0
2019/01/15 09:43:51.000   4280218.7188  -4034411.3722  -2458256.5851   5  12   4.2215   3.5674   3.8228  -3.2110   2.6894  -2.5833   0.00    0.0
2019/01/15 09:43:52.000   4280217.8515  -4034405.6376  -2458257.8220   5  11   4.6905   3.5867   4.0644  -3.3274   2.7831  -3.0813   0.00    0.0
2019/01/15 09:43:53.000   4280209.5477  -4034402.0742  -2458261.8131   5  11   4.3480   3.7098   3.8527  -3.3719   2.5948  -2.4823   0.00    0.0
2019/01/15 09:43:54.000   4280210.3386  -4034398.2953  -2458253.5815   5  12   4.2218   3.5670   3.8215  -3.2107   2.6882  -2.5816   0.00    0.0
2019/01/15 09:43:55.000   4280210.3122  -4034404.0265  -2458261.9046   5  12   4.2219   3.5668   3.8211  -3.2106   2.6879  -2.5810   0.00    0.0
2019/01/15 09:43:56.000   4280205.4340  -4034397.4116  -2458259.1785   5  12   4.2220   3.5667   3.8207  -3.2105   2.6875  -2.5804   0.00    0.0
2019/01/15 09:43:58.000   4280216.1078  -4034417.0552  -2458264.4659   5  12   4.2222   3.5664   3.8199  -3.2103   2.6867  -2.5793   0.00    0.0
2019/01/15 09:43:59.000   4280206.8730  -4034410.7865  -2458273.4030   5  11   4.6496   3.7849   3.9585  -3.5740   2.9215  -2.9453   0.00    0.0
2019/01/15 09:44:03.000   4280209.0124  -4034413.5252  -2458270.1939   5  11   4.6495   3.7841   3.9570  -3.5734   2.9200  -2.9432   0.00    0.0
2019/01/15 09:44:05.000   4280207.3414  -4034418.4652  -2458259.0205   5  10   4.7207   3.7891   3.9664  -3.5499   2.9094  -2.9814   0.00    0.0
2019/01/15 09:44:06.000   4280207.9261  -4034414.7499  -2458254.4008   5   9   4.9377   4.5130   4.0631  -3.8913   2.7402  -3.0469   0.00    0.0
2019/01/15 09:44:07.000   4280216.4944  -4034419.9731  -2458265.3083   5  10   4.5765   4.5107   3.8164  -3.8576   2.7041  -2.5880   0.00    0.0
2019/01/15 09:44:09.000   4280209.5238  -4034409.7388  -2458275.8345   5  10   4.6554   4.5043   4.3671  -3.9579   2.3035  -2.2094   0.00    0.0
2019/01/15 09:44:10.000   4280213.0631  -4034413.5610  -2458280.6033   5  10   4.6558   4.5044   4.3661  -3.9581   2.3030  -2.2085   0.00    0.0
2019/01/15 09:44:13.000   4280201.0092  -4034405.2670  -2458256.9988   5  11   4.5772   4.4047   3.8140  -3.8552   2.7013  -2.5851   0.00    0.0
2019/01/15 09:44:16.000   4280218.7567  -4034410.0134  -2458286.9160   5  11   4.2327   3.6029   3.8125  -3.1858   2.6804  -2.5689   0.00    0.0
2019/01/15 09:44:18.000   4280211.5454  -4034407.3843  -2458276.6471   5  11   4.2340   3.5656   4.3174  -3.2139   2.6321  -2.4502   0.00    0.0
2019/01/15 09:44:19.000   4280223.4803  -4034417.0011  -2458291.9444   5  11   4.2308   3.5849   4.1280  -3.2229   2.7930  -2.6403   0.00    0.0
2019/01/15 09:44:20.000   4280232.2747  -4034428.8401  -2458265.3017   5  11   4.5781   4.4039   3.8111  -3.8549   2.6995  -2.5817   0.00    0.0
2019/01/15 09:44:22.000   4280208.7322  -4034405.9784  -2458274.4807   5  11   4.2311   3.5845   4.1265  -3.2225   2.7918  -2.6385   0.00    0.0
2019/01/15 09:44:24.000   4280228.9374  -4034418.1492  -2458283.1582   5  12   4.2245   3.5625   3.8092  -3.2077   2.6771  -2.5645   0.00    0.0
2019/01/15 09:44:25.000   4280233.4435  -4034426.5591  -2458277.4167   5  11   4.5787   4.4034   3.8091  -3.8546   2.6982  -2.5793   0.00    0.0
2019/01/15 09:44:26.000   4280228.1935  -4034417.5946  -2458272.0607   5  11   4.6975   3.5824   4.0517  -3.3267   2.7726  -3.0678   0.00    0.0
2019/01/15 09:44:28.000   4280224.6886  -4034432.0333  -2458278.1086   5  11   4.6494   3.7794   3.9472  -3.5692   2.9109  -2.9299   0.00    0.0
2019/01/15 09:44:30.000   4280196.5944  -4034380.5670  -2458236.1773   5  11   4.2436   4.8099   5.6673  -3.4007   4.5527  -2.8671   0.00    0.0
2019/01/15 09:44:31.000   4280212.7198  -4034404.8209  -2458257.6211   5  11   4.3584   3.7086   3.8362  -3.3750   2.5805  -2.4588   0.00    0.0
2019/01/15 09:44:34.000   4280209.2011  -4034395.4841  -2458236.5793   5  11   4.2437   4.8084   5.6658  -3.3989   4.5509  -2.8630   0.00    0.0
2019/01/15 09:44:35.000   4280211.6868  -4034398.1736  -2458253.1750   5  11   4.2437   4.8080   5.6654  -3.3985   4.5504  -2.8620   0.00    0.0
2019/01/15 09:44:36.000   4280225.8922  -4034434.3176  -2458271.9906   5  11   4.2655   3.8423   3.8340  -3.3350   2.5407  -2.5029   0.00    0.0
2019/01/15 09:44:37.000   4280208.4963  -4034410.0904  -2458254.7902   5  11   4.6493   3.7778   3.9436  -3.5677   2.9077  -2.9251   0.00    0.0
2019/01/15 09:44:38.000   4280216.8265  -4034412.1650  -2458258.0873   5  11   4.6493   3.7776   3.9432  -3.5676   2.9073  -2.9246   0.00    0.0
2019/01/15 09:44:39.000   4280216.9324  -4034408.8541  -2458262.0183   5  11   4.7003   3.5808   4.0469  -3.3264   2.7686  -3.0627   0.00    0.0
2019/01/15 09:44:40.000   4280220.8622  -4034422.6204  -2458272.8043   5  12   4.2260   3.5602   3.8027  -3.2062   2.6712  -2.5554   0.00    0.0
2019/01/15 09:44:41.000   4280213.7418  -4034413.6176  -2458262.6000   5  12   4.2261   3.5601   3.8022  -3.2061   2.6708  -2.5549   0.00    0.0
2019/01/15 09:44:42.000   4280220.9475  -4034415.1754  -2458254.3014   5  11   4.2382   3.5629   4.2956  -3.2131   2.6160  -2.4266   0.00    0.0
2019/01/15 09:44:46.000   4280224.4165  -4034405.1554  -2458261.5018   5  11   4.5813   4.4010   3.8005  -3.8536   2.6928  -2.5691   0.00    0.0
2019/01/15 09:44:49.000   4280232.0465  -4034421.5656  -2458267.1158   5  12   4.2269   3.5589   3.7990  -3.2053   2.6679  -2.5503   0.00    0.0
2019/01/15 09:44:51.000   4280226.4926  -4034419.3819  -2458259.6756   5  12   4.2271   3.5587   3.7981  -3.2051   2.6671  -2.5492   0.00    0.0
2019/01/15 09:44:52.000   4280232.4709  -4034431.6008  -2458259.9365   5  11   4.2400   3.5618   4.2866  -3.2129   2.6093  -2.4168   0.00    0.0
