% program   : RTKPOST ver.2.4.2
% inp file  : D:\Google Drive\UERJ\_Projeto Final\20190115_Marco 91500 IBGE\20190115_LevantamentoCompleto.19o
% inp file  : D:\Google Drive\UERJ\_Projeto Final\20190115_Marco 91500 IBGE\brdm0150.19p
% obs start : 2019/01/15 09:25:22.0 GPST (week2036 206722.0s)
% obs end   : 2019/01/15 10:25:42.0 GPST (week2036 210342.0s)
% pos mode  : single
% elev mask : 15.0 deg
% ionos opt : off
% tropo opt : off
% ephemeris : broadcast
% navi sys  : gps glonass
%
% (x/y/z-ecef=WGS84,Q=1:fix,2:float,3:sbas,4:dgps,5:single,6:ppp,ns=# of satellites)
%  GPST                      x-ecef(m)      y-ecef(m)      z-ecef(m)   Q  ns   sdx(m)   sdy(m)   sdz(m)  sdxy(m)  sdyz(m)  sdzx(m) age(s)  ratio
2019/01/15 09:25:23.000   4280221.7436  -4034435.5794  -2458291.2741   5  10   7.9560   8.9685   5.0114  -7.2207   2.6953  -3.7265   0.00    0.0
2019/01/15 09:25:24.000   4280238.0403  -4034445.1526  -2458276.3247   5   9   7.9806   9.0933   5.9492  -7.2852   1.5693  -3.4522   0.00    0.0
2019/01/15 09:25:25.000   4280230.3635  -4034437.1814  -2458266.1246   5  10   7.9578   8.9691   5.0117  -7.2226   2.6973  -3.7270   0.00    0.0
2019/01/15 09:25:26.000   4280217.8927  -4034415.4752  -2458272.9378   5  10   7.9588   8.9694   5.0119  -7.2235   2.6983  -3.7272   0.00    0.0
2019/01/15 09:25:27.000   4280209.5636  -4034420.1798  -2458283.3024   5   9   8.4722   9.9269   6.8336  -8.0333   5.2002  -5.2320   0.00    0.0
2019/01/15 09:25:29.000   4280218.3808  -4034417.1220  -2458283.7823   5   9   8.4731   9.9268   6.8329  -8.0341   5.2000  -5.2309   0.00    0.0
2019/01/15 09:25:30.000   4280242.4477  -4034442.3728  -2458300.5438   5   9   8.4735   9.9268   6.8326  -8.0344   5.1999  -5.2304   0.00    0.0
2019/01/15 09:25:31.000   4280215.0849  -4034417.6934  -2458241.1144   5   9   8.4740   9.9267   6.8323  -8.0348   5.1998  -5.2298   0.00    0.0
2019/01/15 09:25:32.000   4280203.0138  -4034406.9925  -2458271.0054   5   9   8.4745   9.9267   6.8320  -8.0352   5.1997  -5.2293   0.00    0.0
2019/01/15 09:25:33.000   4280219.5931  -4034427.9863  -2458283.3485   5   9   8.4749   9.9266   6.8316  -8.0356   5.1996  -5.2287   0.00    0.0
2019/01/15 09:25:34.000   4280211.0474  -4034411.3894  -2458275.8521   5   9   8.4754   9.9266   6.8313  -8.0359   5.1995  -5.2282   0.00    0.0
2019/01/15 09:25:35.000   4280220.4715  -4034424.2736  -2458281.0953   5   9   8.4758   9.9265   6.8310  -8.0363   5.1994  -5.2276   0.00    0.0
2019/01/15 09:25:36.000   4280235.9106  -4034433.2159  -2458266.3213   5   9   8.4763   9.9265   6.8306  -8.0367   5.1993  -5.2271   0.00    0.0
2019/01/15 09:25:37.000   4280230.9520  -4034431.5256  -2458298.9386   5   9   8.4767   9.9264   6.8303  -8.0370   5.1992  -5.2265   0.00    0.0
2019/01/15 09:25:38.000   4280243.9594  -4034430.1198  -2458281.8315   5  10   7.6083   7.5291   6.8294  -6.3573   5.2543  -5.2577   0.00    0.0
2019/01/15 09:25:39.000   4280242.9282  -4034430.7874  -2458279.1566   5  10   7.6082   7.5285   6.8290  -6.3571   5.2539  -5.2570   0.00    0.0
2019/01/15 09:25:40.000   4280231.3533  -4034429.9128  -2458279.8718   5  10   7.6082   7.5280   6.8287  -6.3569   5.2535  -5.2563   0.00    0.0
2019/01/15 09:25:41.000   4280242.5550  -4034441.1605  -2458292.1287   5  10   7.6082   7.5274   6.8284  -6.3566   5.2531  -5.2556   0.00    0.0
2019/01/15 09:25:42.000   4280226.2730  -4034424.9460  -2458269.0347   5  10   7.6082   7.5269   6.8281  -6.3564   5.2527  -5.2549   0.00    0.0
2019/01/15 09:25:43.000   4280218.9931  -4034420.0220  -2458278.0886   5  10   7.6081   7.5264   6.8277  -6.3561   5.2523  -5.2541   0.00    0.0
2019/01/15 09:25:44.000   4280243.8961  -4034441.5608  -2458291.3029   5  10   7.6081   7.5258   6.8274  -6.3559   5.2519  -5.2534   0.00    0.0
2019/01/15 09:25:45.000   4280238.7431  -4034434.4448  -2458267.5898   5  10   7.6081   7.5253   6.8271  -6.3556   5.2515  -5.2527   0.00    0.0
2019/01/15 09:25:46.000   4280247.1192  -4034440.1177  -2458299.0147   5  10   7.6080   7.5248   6.8267  -6.3554   5.2510  -5.2519   0.00    0.0
2019/01/15 09:25:47.000   4280226.3479  -4034426.8008  -2458276.0938   5  10   7.6080   7.5242   6.8264  -6.3551   5.2506  -5.2512   0.00    0.0
2019/01/15 09:25:48.000   4280222.6012  -4034424.8946  -2458282.0033   5  10   7.6080   7.5237   6.8261  -6.3549   5.2502  -5.2505   0.00    0.0
2019/01/15 09:25:49.000   4280233.8339  -4034428.5614  -2458282.6840   5  10   7.6079   7.5232   6.8258  -6.3546   5.2498  -5.2498   0.00    0.0
2019/01/15 09:25:50.000   4280218.2606  -4034414.0629  -2458262.0869   5  12   7.5348   7.0892   6.6943  -6.2477   5.5594  -5.3188   0.00    0.0
2019/01/15 09:25:52.000   4280242.1751  -4034431.1896  -2458282.8258   5  12   7.5344   7.0877   6.6939  -6.2466   5.5584  -5.3176   0.00    0.0
2019/01/15 09:25:53.000   4280207.3214  -4034399.3392  -2458268.9575   5  12   7.5343   7.0869   6.6937  -6.2461   5.5579  -5.3171   0.00    0.0
2019/01/15 09:25:54.000   4280232.9091  -4034425.5783  -2458282.6562   5  12   7.5341   7.0861   6.6935  -6.2455   5.5574  -5.3165   0.00    0.0
2019/01/15 09:25:55.000   4280215.7420  -4034408.7377  -2458271.8290   5  12   7.5339   7.0854   6.6934  -6.2450   5.5569  -5.3159   0.00    0.0
2019/01/15 09:25:56.000   4280224.1450  -4034414.3995  -2458261.4897   5  12   7.5337   7.0846   6.6932  -6.2445   5.5564  -5.3154   0.00    0.0
2019/01/15 09:25:57.000   4280225.2589  -4034413.5558  -2458278.0739   5  12   7.5335   7.0838   6.6930  -6.2439   5.5559  -5.3148   0.00    0.0
2019/01/15 09:25:59.000   4280219.4557  -4034410.5967  -2458258.7314   5  12   7.5331   7.0823   6.6926  -6.2428   5.5549  -5.3136   0.00    0.0
2019/01/15 09:26:01.000   4280227.9467  -4034413.6898  -2458256.5310   5  12   7.5327   7.0808   6.6923  -6.2417   5.5539  -5.3125   0.00    0.0
2019/01/15 09:26:02.000   4280217.0754  -4034412.6838  -2458262.1673   5  12   7.5325   7.0800   6.6921  -6.2412   5.5534  -5.3119   0.00    0.0
2019/01/15 09:26:03.000   4280225.9437  -4034414.9045  -2458268.5104   5  12   7.5323   7.0792   6.6919  -6.2406   5.5528  -5.3113   0.00    0.0
2019/01/15 09:26:04.000   4280228.2161  -4034419.7717  -2458261.9875   5  12   7.5321   7.0784   6.6917  -6.2401   5.5523  -5.3108   0.00    0.0
2019/01/15 09:26:05.000   4280234.6946  -4034422.5773  -2458269.2264   5  12   7.5319   7.0777   6.6915  -6.2395   5.5518  -5.3102   0.00    0.0
2019/01/15 09:26:06.000   4280223.6611  -4034421.2996  -2458255.4952   5  12   7.5317   7.0769   6.6913  -6.2390   5.5513  -5.3096   0.00    0.0
2019/01/15 09:26:08.000   4280210.8482  -4034404.3222  -2458255.3487   5  12   7.5313   7.0754   6.6910  -6.2379   5.5503  -5.3085   0.00    0.0
2019/01/15 09:26:09.000   4280205.9408  -4034410.8555  -2458255.9731   5  12   7.5312   7.0746   6.6908  -6.2373   5.5498  -5.3079   0.00    0.0
2019/01/15 09:26:10.000   4280220.7801  -4034424.4118  -2458277.4496   5  12   7.5309   7.0738   6.6906  -6.2368   5.5493  -5.3073   0.00    0.0
2019/01/15 09:26:11.000   4280213.2284  -4034411.3307  -2458254.3954   5  12   7.5308   7.0731   6.6904  -6.2362   5.5488  -5.3067   0.00    0.0
2019/01/15 09:26:12.000   4280226.7733  -4034425.8233  -2458264.5974   5  12   7.5306   7.0723   6.6902  -6.2357   5.5483  -5.3062   0.00    0.0
2019/01/15 09:26:14.000   4280209.5422  -4034414.8457  -2458244.1938   5  12   7.5302   7.0708   6.6898  -6.2346   5.5473  -5.3050   0.00    0.0
2019/01/15 09:26:15.000   4280229.1160  -4034422.3893  -2458263.1381   5  12   7.5300   7.0700   6.6896  -6.2340   5.5467  -5.3044   0.00    0.0
2019/01/15 09:26:16.000   4280230.3734  -4034428.4637  -2458270.7855   5  12   7.5298   7.0692   6.6894  -6.2335   5.5462  -5.3038   0.00    0.0
2019/01/15 09:26:17.000   4280228.9793  -4034423.2070  -2458269.8347   5  12   7.5296   7.0684   6.6892  -6.2329   5.5457  -5.3033   0.00    0.0
2019/01/15 09:26:18.000   4280224.4348  -4034421.4510  -2458270.0359   5  12   7.5294   7.0677   6.6890  -6.2324   5.5452  -5.3027   0.00    0.0
2019/01/15 09:26:19.000   4280213.0758  -4034419.5431  -2458267.1872   5  12   7.5292   7.0669   6.6888  -6.2318   5.5447  -5.3021   0.00    0.0
2019/01/15 09:26:20.000   4280231.8314  -4034421.2044  -2458268.1480   5  12   7.5290   7.0661   6.6886  -6.2313   5.5442  -5.3015   0.00    0.0
2019/01/15 09:26:21.000   4280216.6264  -4034417.7279  -2458267.9902   5  12   7.5288   7.0654   6.6885  -6.2307   5.5437  -5.3009   0.00    0.0
2019/01/15 09:26:22.000   4280214.8241  -4034419.2532  -2458281.8056   5  12   7.5286   7.0646   6.6883  -6.2302   5.5431  -5.3003   0.00    0.0
2019/01/15 09:26:24.000   4280224.8659  -4034423.6544  -2458264.4372   5  12   7.5282   7.0630   6.6879  -6.2291   5.5421  -5.2992   0.00    0.0
2019/01/15 09:26:25.000   4280223.6759  -4034426.7221  -2458272.9819   5  12   7.5280   7.0623   6.6877  -6.2285   5.5416  -5.2986   0.00    0.0
2019/01/15 09:26:26.000   4280236.9887  -4034427.8094  -2458283.3783   5  12   7.5278   7.0615   6.6875  -6.2279   5.5411  -5.2980   0.00    0.0
2019/01/15 09:26:27.000   4280216.4618  -4034414.8877  -2458265.8028   5  12   7.5276   7.0607   6.6873  -6.2274   5.5406  -5.2974   0.00    0.0
2019/01/15 09:26:28.000   4280217.3461  -4034422.4927  -2458268.9474   5  12   7.5274   7.0600   6.6871  -6.2268   5.5401  -5.2968   0.00    0.0
2019/01/15 09:26:29.000   4280224.8203  -4034428.4278  -2458265.7826   5  12   7.5272   7.0592   6.6869  -6.2263   5.5395  -5.2962   0.00    0.0
2019/01/15 09:26:30.000   4280229.8971  -4034432.6119  -2458287.6901   5  12   7.5270   7.0584   6.6867  -6.2257   5.5390  -5.2956   0.00    0.0
2019/01/15 09:26:31.000   4280205.0143  -4034404.2189  -2458251.9892   5  12   7.5268   7.0577   6.6865  -6.2252   5.5385  -5.2951   0.00    0.0
2019/01/15 09:26:32.000   4280235.9637  -4034432.3387  -2458273.0781   5  12   7.5266   7.0569   6.6863  -6.2246   5.5380  -5.2945   0.00    0.0
2019/01/15 09:26:33.000   4280222.3498  -4034428.0455  -2458300.4457   5  12   7.5264   7.0561   6.6861  -6.2241   5.5375  -5.2939   0.00    0.0
2019/01/15 09:26:34.000   4280226.4371  -4034420.8019  -2458268.2082   5  12   7.5262   7.0553   6.6859  -6.2235   5.5369  -5.2933   0.00    0.0
2019/01/15 09:26:35.000   4280239.4602  -4034437.1789  -2458298.0737   5  12   7.5259   7.0546   6.6857  -6.2229   5.5364  -5.2927   0.00    0.0
2019/01/15 09:26:36.000   4280229.5773  -4034427.3747  -2458268.2482   5  12   7.5258   7.0538   6.6855  -6.2224   5.5359  -5.2921   0.00    0.0
2019/01/15 09:26:37.000   4280230.6313  -4034434.2611  -2458279.4032   5  12   7.5255   7.0530   6.6853  -6.2218   5.5354  -5.2915   0.00    0.0
2019/01/15 09:26:38.000   4280228.7442  -4034439.4587  -2458284.7089   5  12   7.5253   7.0522   6.6850  -6.2213   5.5349  -5.2909   0.00    0.0
2019/01/15 09:26:39.000   4280240.1952  -4034445.0064  -2458300.9051   5  12   7.5251   7.0515   6.6848  -6.2207   5.5343  -5.2903   0.00    0.0
2019/01/15 09:26:40.000   4280240.8983  -4034436.3794  -2458293.9530   5  12   7.5249   7.0507   6.6846  -6.2202   5.5338  -5.2897   0.00    0.0
2019/01/15 09:26:41.000   4280214.4735  -4034416.5505  -2458261.4327   5  12   7.5247   7.0499   6.6844  -6.2196   5.5333  -5.2892   0.00    0.0
2019/01/15 09:26:42.000   4280243.6474  -4034439.9333  -2458279.9129   5  12   7.5245   7.0491   6.6842  -6.2190   5.5328  -5.2885   0.00    0.0
2019/01/15 09:26:45.000   4280209.8187  -4034413.9788  -2458267.3615   5  12   7.5239   7.0468   6.6836  -6.2174   5.5312  -5.2868   0.00    0.0
2019/01/15 09:26:46.000   4280241.5735  -4034432.9706  -2458290.7269   5  12   7.5237   7.0461   6.6834  -6.2168   5.5307  -5.2862   0.00    0.0
2019/01/15 09:26:47.000   4280236.5683  -4034435.2878  -2458283.7195   5  12   7.5235   7.0453   6.6832  -6.2163   5.5302  -5.2856   0.00    0.0
2019/01/15 09:26:48.000   4280222.2359  -4034417.3375  -2458271.0406   5  12   7.5233   7.0445   6.6830  -6.2157   5.5296  -5.2850   0.00    0.0
2019/01/15 09:26:50.000   4280246.2402  -4034437.9422  -2458291.5360   5  12   7.5229   7.0430   6.6826  -6.2146   5.5286  -5.2838   0.00    0.0
2019/01/15 09:26:52.000   4280236.3735  -4034430.1578  -2458273.8841   5  12   7.5225   7.0414   6.6821  -6.2135   5.5275  -5.2826   0.00    0.0
2019/01/15 09:26:53.000   4280226.0624  -4034417.6531  -2458274.4158   5  12   7.5223   7.0407   6.6819  -6.2129   5.5270  -5.2820   0.00    0.0
2019/01/15 09:26:54.000   4280241.0037  -4034436.9086  -2458288.7460   5  12   7.5221   7.0399   6.6817  -6.2123   5.5265  -5.2814   0.00    0.0
2019/01/15 09:26:57.000   4280225.1315  -4034425.4128  -2458273.2644   5  12   7.5214   7.0376   6.6811  -6.2107   5.5249  -5.2796   0.00    0.0
2019/01/15 09:26:58.000   4280233.9291  -4034430.6242  -2458270.6304   5  11   8.9078   7.7910   6.9793  -7.3842   6.1050  -6.1241   0.00    0.0
2019/01/15 09:27:01.000   4280237.6647  -4034429.6207  -2458276.6197   5  12   7.5206   7.0345   6.6802  -6.2084   5.5228  -5.2772   0.00    0.0
2019/01/15 09:27:02.000   4280219.9785  -4034425.0961  -2458267.0043   5  12   7.5204   7.0337   6.6800  -6.2079   5.5223  -5.2766   0.00    0.0
2019/01/15 09:27:03.000   4280202.5167  -4034414.5875  -2458257.8616   5  12   7.5202   7.0329   6.6798  -6.2073   5.5218  -5.2760   0.00    0.0
2019/01/15 09:27:04.000   4280215.3031  -4034418.8313  -2458255.1808   5  12   7.5200   7.0322   6.6796  -6.2067   5.5212  -5.2754   0.00    0.0
2019/01/15 09:27:05.000   4280222.2476  -4034429.3924  -2458274.3626   5  12   7.5198   7.0314   6.6794  -6.2062   5.5207  -5.2747   0.00    0.0
2019/01/15 09:27:06.000   4280206.1520  -4034419.7052  -2458269.1737   5  12   7.5196   7.0306   6.6791  -6.2056   5.5202  -5.2741   0.00    0.0
2019/01/15 09:27:07.000   4280242.1437  -4034441.1067  -2458284.9621   5  12   7.5194   7.0298   6.6789  -6.2050   5.5196  -5.2735   0.00    0.0
2019/01/15 09:27:08.000   4280227.0450  -4034429.2875  -2458272.3757   5  12   7.5192   7.0291   6.6787  -6.2045   5.5191  -5.2729   0.00    0.0
2019/01/15 09:27:09.000   4280213.3821  -4034414.6905  -2458268.1651   5  12   7.5190   7.0283   6.6785  -6.2039   5.5186  -5.2723   0.00    0.0
2019/01/15 09:27:10.000   4280218.0615  -4034416.1287  -2458264.8297   5  12   7.5187   7.0275   6.6783  -6.2034   5.5180  -5.2717   0.00    0.0
2019/01/15 09:27:11.000   4280241.3150  -4034444.8388  -2458289.7512   5  12   7.5185   7.0267   6.6780  -6.2028   5.5175  -5.2711   0.00    0.0
2019/01/15 09:27:12.000   4280240.8785  -4034435.7100  -2458288.5501   5  12   7.5183   7.0260   6.6778  -6.2022   5.5170  -5.2705   0.00    0.0
2019/01/15 09:27:13.000   4280225.0479  -4034420.4463  -2458258.5930   5  12   7.5181   7.0252   6.6776  -6.2017   5.5164  -5.2699   0.00    0.0
2019/01/15 09:27:14.000   4280219.4946  -4034422.4265  -2458271.7745   5  12   7.5179   7.0244   6.6774  -6.2011   5.5159  -5.2693   0.00    0.0
2019/01/15 09:27:15.000   4280222.5182  -4034425.0872  -2458260.8257   5  12   7.5177   7.0236   6.6772  -6.2005   5.5154  -5.2687   0.00    0.0
2019/01/15 09:27:17.000   4280203.9019  -4034402.9699  -2458264.2791   5  12   7.5173   7.0221   6.6767  -6.1994   5.5143  -5.2674   0.00    0.0
2019/01/15 09:27:18.000   4280234.6296  -4034424.0495  -2458277.0114   5  12   7.5170   7.0213   6.6765  -6.1988   5.5138  -5.2668   0.00    0.0
2019/01/15 09:27:20.000   4280209.9294  -4034408.1884  -2458264.3656   5  12   7.5166   7.0198   6.6760  -6.1977   5.5127  -5.2656   0.00    0.0
2019/01/15 09:27:21.000   4280218.4742  -4034418.9743  -2458272.4928   5  12   7.5164   7.0190   6.6758  -6.1971   5.5121  -5.2650   0.00    0.0
2019/01/15 09:27:22.000   4280209.4884  -4034410.8438  -2458265.3298   5  12   7.5162   7.0182   6.6756  -6.1966   5.5116  -5.2644   0.00    0.0
2019/01/15 09:27:23.000   4280212.0308  -4034412.5259  -2458266.8950   5  12   7.5160   7.0175   6.6754  -6.1960   5.5111  -5.2638   0.00    0.0
2019/01/15 09:27:24.000   4280215.3113  -4034420.4463  -2458266.6701   5  12   7.5158   7.0167   6.6751  -6.1954   5.5105  -5.2631   0.00    0.0
2019/01/15 09:27:25.000   4280210.3050  -4034408.7369  -2458246.6121   5  12   7.5156   7.0159   6.6749  -6.1949   5.5100  -5.2625   0.00    0.0
2019/01/15 09:27:26.000   4280200.0731  -4034399.0146  -2458242.8223   5  12   7.5154   7.0151   6.6747  -6.1943   5.5095  -5.2619   0.00    0.0
2019/01/15 09:27:27.000   4280221.9997  -4034415.3075  -2458261.1280   5  12   7.5151   7.0144   6.6744  -6.1937   5.5089  -5.2613   0.00    0.0
2019/01/15 09:27:28.000   4280215.5301  -4034406.3420  -2458258.1076   5  12   7.5149   7.0136   6.6742  -6.1932   5.5084  -5.2607   0.00    0.0
2019/01/15 09:27:30.000   4280212.0092  -4034407.8812  -2458255.6246   5  12   7.5145   7.0120   6.6738  -6.1920   5.5073  -5.2594   0.00    0.0
2019/01/15 09:27:32.000   4280219.3196  -4034418.7103  -2458259.8024   5  12   7.5141   7.0105   6.6733  -6.1909   5.5062  -5.2582   0.00    0.0
2019/01/15 09:27:36.000   4280238.0428  -4034429.4542  -2458299.4247   5  12   7.5132   7.0074   6.6723  -6.1886   5.5040  -5.2557   0.00    0.0
2019/01/15 09:27:37.000   4280235.9169  -4034421.0339  -2458281.9578   5  12   7.5130   7.0066   6.6721  -6.1881   5.5035  -5.2551   0.00    0.0
2019/01/15 09:27:40.000   4280219.9560  -4034413.6743  -2458282.7703   5  12   7.5123   7.0043   6.6714  -6.1864   5.5019  -5.2532   0.00    0.0
2019/01/15 09:27:43.000   4280237.1289  -4034414.0703  -2458287.1658   5  11   7.5361   7.0803   6.6859  -6.1329   5.4570  -5.2773   0.00    0.0
2019/01/15 09:27:44.000   4280240.5106  -4034429.7464  -2458282.4791   5  11   7.5359   7.0795   6.6856  -6.1323   5.4565  -5.2766   0.00    0.0
2019/01/15 09:27:45.000   4280234.5658  -4034416.9685  -2458283.8020   5  11   7.5357   7.0788   6.6854  -6.1317   5.4561  -5.2760   0.00    0.0
2019/01/15 09:27:46.000   4280221.7897  -4034418.8563  -2458278.2945   5  12   7.5110   6.9996   6.6700  -6.1829   5.4986  -5.2495   0.00    0.0
2019/01/15 09:27:47.000   4280239.3573  -4034422.4321  -2458294.2219   5  12   7.5108   6.9988   6.6698  -6.1823   5.4981  -5.2488   0.00    0.0
2019/01/15 09:27:48.000   4280220.9141  -4034404.9468  -2458263.6525   5  11   7.5351   7.0765   6.6845  -6.1300   5.4546  -5.2740   0.00    0.0
2019/01/15 09:27:49.000   4280234.8127  -4034429.6065  -2458286.2833   5  11   7.5348   7.0758   6.6842  -6.1294   5.4541  -5.2733   0.00    0.0
2019/01/15 09:27:50.000   4280223.5055  -4034415.8518  -2458271.5499   5  11   7.5346   7.0750   6.6839  -6.1288   5.4536  -5.2727   0.00    0.0
2019/01/15 09:27:51.000   4280235.9109  -4034421.7880  -2458272.6038   5  11   7.5344   7.0742   6.6837  -6.1282   5.4531  -5.2720   0.00    0.0
2019/01/15 09:27:52.000   4280226.9970  -4034419.2752  -2458285.3166   5  11   7.5342   7.0735   6.6834  -6.1277   5.4526  -5.2713   0.00    0.0
2019/01/15 09:27:53.000   4280238.5552  -4034430.4497  -2458276.8053   5  11   7.5340   7.0727   6.6831  -6.1271   5.4521  -5.2707   0.00    0.0
2019/01/15 09:27:54.000   4280240.3809  -4034432.2009  -2458277.0459   5  11   7.5338   7.0720   6.6828  -6.1265   5.4517  -5.2700   0.00    0.0
2019/01/15 09:27:55.000   4280234.2749  -4034429.1965  -2458283.2255   5  11   7.5336   7.0712   6.6825  -6.1259   5.4512  -5.2693   0.00    0.0
2019/01/15 09:27:57.000   4280219.7887  -4034424.7264  -2458278.9040   5  11   7.5331   7.0697   6.6819  -6.1247   5.4502  -5.2680   0.00    0.0
2019/01/15 09:27:58.000   4280219.7472  -4034421.3005  -2458272.8573   5  11   7.5329   7.0689   6.6816  -6.1242   5.4497  -5.2674   0.00    0.0
2019/01/15 09:27:59.000   4280222.5483  -4034419.5248  -2458280.7939   5  11   7.5327   7.0682   6.6814  -6.1236   5.4492  -5.2667   0.00    0.0
2019/01/15 09:28:00.000   4280207.3670  -4034410.7399  -2458267.9337   5  11   7.5325   7.0674   6.6811  -6.1230   5.4487  -5.2660   0.00    0.0
2019/01/15 09:28:01.000   4280214.0428  -4034409.5542  -2458272.7986   5  11   7.5323   7.0667   6.6808  -6.1224   5.4482  -5.2654   0.00    0.0
2019/01/15 09:28:02.000   4280233.1901  -4034430.4341  -2458276.1631   5  11   7.5320   7.0659   6.6805  -6.1218   5.4477  -5.2647   0.00    0.0
2019/01/15 09:28:03.000   4280250.0315  -4034436.5805  -2458290.1539   5  11   7.5318   7.0651   6.6802  -6.1212   5.4472  -5.2640   0.00    0.0
2019/01/15 09:28:04.000   4280239.2903  -4034427.1150  -2458281.1824   5  11   7.5316   7.0644   6.6799  -6.1206   5.4467  -5.2633   0.00    0.0
2019/01/15 09:28:05.000   4280217.2385  -4034421.0734  -2458266.4028   5  12   7.5069   6.9849   6.6654  -6.1720   5.4882  -5.2375   0.00    0.0
2019/01/15 09:28:06.000   4280219.4881  -4034425.4183  -2458258.5307   5  12   7.5067   6.9841   6.6651  -6.1715   5.4876  -5.2368   0.00    0.0
2019/01/15 09:28:07.000   4280221.9722  -4034418.7686  -2458260.0861   5  12   7.5064   6.9833   6.6649  -6.1709   5.4871  -5.2362   0.00    0.0
2019/01/15 09:28:08.000   4280222.3036  -4034420.0430  -2458271.9544   5  12   7.5062   6.9825   6.6646  -6.1703   5.4865  -5.2355   0.00    0.0
2019/01/15 09:28:09.000   4280235.9536  -4034429.6852  -2458274.1248   5  12   7.5060   6.9817   6.6644  -6.1697   5.4860  -5.2349   0.00    0.0
2019/01/15 09:28:10.000   4280216.8885  -4034427.2029  -2458261.3245   5  12   7.5058   6.9810   6.6641  -6.1692   5.4854  -5.2343   0.00    0.0
2019/01/15 09:28:11.000   4280220.2951  -4034419.9221  -2458259.4534   5  12   7.5055   6.9802   6.6639  -6.1686   5.4849  -5.2336   0.00    0.0
2019/01/15 09:28:12.000   4280227.8884  -4034430.4756  -2458264.6196   5  12   7.5053   6.9794   6.6636  -6.1680   5.4843  -5.2330   0.00    0.0
2019/01/15 09:28:15.000   4280248.8424  -4034443.4256  -2458284.2637   5  12   7.5046   6.9771   6.6629  -6.1663   5.4826  -5.2311   0.00    0.0
2019/01/15 09:28:16.000   4280233.8546  -4034423.3255  -2458262.8581   5  12   7.5044   6.9763   6.6626  -6.1657   5.4821  -5.2304   0.00    0.0
2019/01/15 09:28:17.000   4280245.5391  -4034415.8015  -2458273.2513   5  12   7.5042   6.9755   6.6624  -6.1651   5.4815  -5.2298   0.00    0.0
2019/01/15 09:28:19.000   4280219.4716  -4034422.3855  -2458255.8990   5  12   7.5038   6.9740   6.6619  -6.1640   5.4804  -5.2285   0.00    0.0
2019/01/15 09:28:20.000   4280231.8499  -4034432.2507  -2458265.7021   5  12   7.5035   6.9732   6.6616  -6.1634   5.4799  -5.2279   0.00    0.0
2019/01/15 09:28:21.000   4280233.5086  -4034427.9411  -2458264.3289   5  12   7.5033   6.9724   6.6613  -6.1628   5.4793  -5.2272   0.00    0.0
2019/01/15 09:28:22.000   4280218.9008  -4034423.4035  -2458263.4863   5  12   7.5031   6.9716   6.6611  -6.1622   5.4787  -5.2266   0.00    0.0
2019/01/15 09:28:23.000   4280231.0344  -4034424.1960  -2458260.5948   5  12   7.5029   6.9709   6.6608  -6.1616   5.4782  -5.2259   0.00    0.0
2019/01/15 09:28:24.000   4280239.8841  -4034431.0384  -2458281.7441   5  12   7.5026   6.9701   6.6606  -6.1611   5.4776  -5.2253   0.00    0.0
2019/01/15 09:28:25.000   4280249.1459  -4034435.9000  -2458276.1965   5  12   7.5024   6.9693   6.6603  -6.1605   5.4771  -5.2246   0.00    0.0
2019/01/15 09:28:26.000   4280244.2830  -4034437.4035  -2458277.1433   5  12   7.5022   6.9685   6.6601  -6.1599   5.4765  -5.2240   0.00    0.0
2019/01/15 09:28:27.000   4280240.1894  -4034431.0225  -2458279.9808   5  12   7.5019   6.9677   6.6598  -6.1593   5.4759  -5.2233   0.00    0.0
2019/01/15 09:28:29.000   4280225.3695  -4034406.2912  -2458254.6834   5  12   7.5015   6.9662   6.6593  -6.1582   5.4748  -5.2221   0.00    0.0
2019/01/15 09:28:30.000   4280236.9275  -4034429.6653  -2458269.0595   5  12   7.5013   6.9654   6.6590  -6.1576   5.4743  -5.2214   0.00    0.0
2019/01/15 09:28:31.000   4280242.5071  -4034430.3941  -2458269.8722   5  12   7.5010   6.9646   6.6588  -6.1570   5.4737  -5.2207   0.00    0.0
2019/01/15 09:28:32.000   4280212.8031  -4034408.5409  -2458266.5009   5  12   7.5008   6.9639   6.6585  -6.1564   5.4731  -5.2201   0.00    0.0
2019/01/15 09:28:33.000   4280227.1745  -4034428.0468  -2458275.8571   5  12   7.5006   6.9631   6.6582  -6.1558   5.4726  -5.2194   0.00    0.0
2019/01/15 09:28:34.000   4280226.9087  -4034422.4004  -2458277.2479   5  12   7.5004   6.9623   6.6580  -6.1553   5.4720  -5.2188   0.00    0.0
2019/01/15 09:28:35.000   4280225.2168  -4034417.1501  -2458276.8062   5  12   7.5001   6.9615   6.6577  -6.1547   5.4714  -5.2182   0.00    0.0
2019/01/15 09:28:36.000   4280232.1973  -4034423.8097  -2458276.9487   5  12   7.4999   6.9607   6.6575  -6.1541   5.4709  -5.2175   0.00    0.0
2019/01/15 09:28:37.000   4280231.8785  -4034423.1578  -2458272.1788   5  12   7.4997   6.9600   6.6572  -6.1535   5.4703  -5.2168   0.00    0.0
2019/01/15 09:28:38.000   4280227.3051  -4034420.0601  -2458277.9048   5  12   7.4995   6.9592   6.6569  -6.1529   5.4698  -5.2162   0.00    0.0
2019/01/15 09:28:39.000   4280240.7136  -4034430.5398  -2458280.8640   5  12   7.4992   6.9584   6.6567  -6.1523   5.4692  -5.2155   0.00    0.0
2019/01/15 09:28:40.000   4280238.1413  -4034434.0689  -2458271.9442   5  12   7.4990   6.9576   6.6564  -6.1518   5.4686  -5.2149   0.00    0.0
2019/01/15 09:28:41.000   4280224.3955  -4034425.1815  -2458260.4801   5  12   7.4988   6.9568   6.6561  -6.1512   5.4681  -5.2142   0.00    0.0
2019/01/15 09:28:42.000   4280239.7964  -4034429.3599  -2458267.9312   5  12   7.4985   6.9561   6.6559  -6.1506   5.4675  -5.2136   0.00    0.0
2019/01/15 09:28:43.000   4280244.1226  -4034427.9567  -2458281.0561   5  12   7.4983   6.9553   6.6556  -6.1500   5.4669  -5.2129   0.00    0.0
2019/01/15 09:28:44.000   4280239.8294  -4034433.0021  -2458292.1732   5  12   7.4981   6.9545   6.6553  -6.1494   5.4664  -5.2123   0.00    0.0
2019/01/15 09:28:45.000   4280219.4808  -4034414.7047  -2458271.9084   5  12   7.4979   6.9537   6.6551  -6.1489   5.4658  -5.2116   0.00    0.0
2019/01/15 09:28:46.000   4280224.0764  -4034407.6104  -2458273.7778   5  12   7.4976   6.9529   6.6548  -6.1483   5.4652  -5.2110   0.00    0.0
2019/01/15 09:28:47.000   4280230.5556  -4034423.5842  -2458275.7628   5  12   7.4974   6.9522   6.6545  -6.1477   5.4647  -5.2103   0.00    0.0
2019/01/15 09:28:48.000   4280226.1650  -4034429.6342  -2458265.5160   5  12   7.4972   6.9514   6.6543  -6.1471   5.4641  -5.2096   0.00    0.0
2019/01/15 09:28:49.000   4280224.4649  -4034429.0285  -2458274.5567   5  12   7.4969   6.9506   6.6540  -6.1465   5.4635  -5.2090   0.00    0.0
2019/01/15 09:28:50.000   4280227.8175  -4034423.1801  -2458287.6388   5  12   7.4967   6.9498   6.6537  -6.1459   5.4630  -5.2083   0.00    0.0
2019/01/15 09:28:51.000   4280233.0546  -4034422.8974  -2458279.1621   5  12   7.4965   6.9490   6.6535  -6.1453   5.4624  -5.2077   0.00    0.0
2019/01/15 09:28:52.000   4280230.7741  -4034421.1145  -2458279.7729   5  12   7.4963   6.9483   6.6532  -6.1448   5.4618  -5.2070   0.00    0.0
2019/01/15 09:28:53.000   4280248.3184  -4034439.5137  -2458296.6039   5  12   7.4960   6.9475   6.6529  -6.1442   5.4612  -5.2063   0.00    0.0
2019/01/15 09:28:54.000   4280251.1806  -4034440.2746  -2458300.2520   5  12   7.4958   6.9467   6.6526  -6.1436   5.4607  -5.2057   0.00    0.0
2019/01/15 09:28:55.000   4280207.2311  -4034407.9027  -2458278.2927   5  12   7.4956   6.9459   6.6524  -6.1430   5.4601  -5.2050   0.00    0.0
2019/01/15 09:28:56.000   4280220.9462  -4034426.0939  -2458275.9070   5  12   7.4953   6.9451   6.6521  -6.1424   5.4595  -5.2044   0.00    0.0
2019/01/15 09:28:57.000   4280222.6454  -4034430.3805  -2458274.8988   5  12   7.4951   6.9444   6.6518  -6.1418   5.4590  -5.2037   0.00    0.0
2019/01/15 09:28:58.000   4280230.9306  -4034431.4737  -2458278.0088   5  12   7.4949   6.9436   6.6515  -6.1413   5.4584  -5.2030   0.00    0.0
2019/01/15 09:29:00.000   4280227.1115  -4034423.4915  -2458270.3674   5  12   7.4944   6.9420   6.6510  -6.1401   5.4573  -5.2017   0.00    0.0
2019/01/15 09:29:01.000   4280223.7706  -4034409.8991  -2458275.0210   5  12   7.4942   6.9412   6.6507  -6.1395   5.4567  -5.2011   0.00    0.0
2019/01/15 09:29:02.000   4280212.5474  -4034409.1885  -2458274.8770   5  12   7.4939   6.9405   6.6505  -6.1389   5.4561  -5.2004   0.00    0.0
2019/01/15 09:29:03.000   4280216.4569  -4034419.8778  -2458273.4472   5  12   7.4937   6.9397   6.6502  -6.1383   5.4555  -5.1997   0.00    0.0
2019/01/15 09:29:04.000   4280198.7629  -4034418.0101  -2458276.7722   5  12   7.4935   6.9389   6.6499  -6.1377   5.4550  -5.1991   0.00    0.0
2019/01/15 09:29:05.000   4280201.9964  -4034408.4913  -2458260.7840   5  12   7.4933   6.9381   6.6496  -6.1372   5.4544  -5.1984   0.00    0.0
2019/01/15 09:29:06.000   4280204.6996  -4034406.4803  -2458250.3684   5  12   7.4930   6.9374   6.6494  -6.1366   5.4538  -5.1978   0.00    0.0
2019/01/15 09:29:07.000   4280219.9859  -4034429.9534  -2458267.3314   5  12   7.4928   6.9366   6.6491  -6.1360   5.4532  -5.1971   0.00    0.0
2019/01/15 09:29:08.000   4280207.0972  -4034405.5800  -2458252.3727   5  12   7.4926   6.9358   6.6488  -6.1354   5.4527  -5.1964   0.00    0.0
2019/01/15 09:29:12.000   4280209.0575  -4034414.2258  -2458263.4671   5  12   7.4916   6.9327   6.6477  -6.1330   5.4504  -5.1937   0.00    0.0
2019/01/15 09:29:14.000   4280224.2902  -4034414.0315  -2458266.4006   5  12   7.4911   6.9311   6.6471  -6.1319   5.4492  -5.1924   0.00    0.0
2019/01/15 09:29:15.000   4280226.5300  -4034399.7674  -2458262.1862   5  12   7.4909   6.9303   6.6468  -6.1313   5.4486  -5.1917   0.00    0.0
2019/01/15 09:29:16.000   4280227.8242  -4034407.0028  -2458259.6938   5  12   7.4907   6.9295   6.6465  -6.1307   5.4481  -5.1911   0.00    0.0
2019/01/15 09:29:17.000   4280225.5565  -4034415.6956  -2458269.3516   5  12   7.4904   6.9288   6.6463  -6.1301   5.4475  -5.1904   0.00    0.0
2019/01/15 09:29:19.000   4280211.9147  -4034403.3811  -2458258.3379   5  12   7.4900   6.9272   6.6457  -6.1289   5.4463  -5.1891   0.00    0.0
2019/01/15 09:29:20.000   4280218.4438  -4034421.2924  -2458260.6539   5  12   7.4897   6.9264   6.6454  -6.1283   5.4457  -5.1884   0.00    0.0
2019/01/15 09:29:22.000   4280219.6812  -4034411.5386  -2458267.8660   5  12   7.4893   6.9249   6.6448  -6.1271   5.4446  -5.1870   0.00    0.0
2019/01/15 09:29:24.000   4280231.9552  -4034421.0038  -2458268.6042   5  12   7.4888   6.9233   6.6443  -6.1260   5.4434  -5.1857   0.00    0.0
2019/01/15 09:29:30.000   4280216.1633  -4034417.4824  -2458257.6959   5  12   7.4874   6.9186   6.6426  -6.1224   5.4399  -5.1816   0.00    0.0
2019/01/15 09:29:31.000   4280217.0541  -4034415.7507  -2458263.0814   5  12   7.4871   6.9178   6.6423  -6.1218   5.4394  -5.1810   0.00    0.0
2019/01/15 09:29:32.000   4280217.2379  -4034415.6689  -2458262.1048   5  12   7.4869   6.9170   6.6420  -6.1212   5.4388  -5.1803   0.00    0.0
2019/01/15 09:29:33.000   4280227.4050  -4034422.7634  -2458272.2310   5  12   7.4867   6.9163   6.6417  -6.1206   5.4382  -5.1796   0.00    0.0
2019/01/15 09:29:34.000   4280219.3751  -4034414.2273  -2458280.4928   5  12   7.4864   6.9155   6.6414  -6.1200   5.4376  -5.1789   0.00    0.0
2019/01/15 09:29:35.000   4280198.7143  -4034400.3775  -2458261.2683   5  12   7.4862   6.9147   6.6411  -6.1195   5.4370  -5.1783   0.00    0.0
2019/01/15 09:29:36.000   4280201.6408  -4034405.2534  -2458262.9067   5  12   7.4860   6.9139   6.6408  -6.1189   5.4364  -5.1776   0.00    0.0
2019/01/15 09:29:37.000   4280200.5004  -4034400.6696  -2458257.4988   5  12   7.4857   6.9131   6.6405  -6.1183   5.4359  -5.1769   0.00    0.0
2019/01/15 09:29:38.000   4280204.2153  -4034409.9173  -2458265.0229   5  12   7.4855   6.9124   6.6402  -6.1177   5.4353  -5.1762   0.00    0.0
2019/01/15 09:29:39.000   4280217.7033  -4034427.5780  -2458277.5188   5  12   7.4852   6.9116   6.6399  -6.1171   5.4347  -5.1755   0.00    0.0
2019/01/15 09:29:40.000   4280226.7019  -4034431.7726  -2458286.7379   5  12   7.4850   6.9108   6.6396  -6.1165   5.4341  -5.1748   0.00    0.0
2019/01/15 09:29:41.000   4280214.8387  -4034420.0264  -2458260.2725   5  12   7.4848   6.9100   6.6393  -6.1159   5.4335  -5.1742   0.00    0.0
2019/01/15 09:29:42.000   4280230.3263  -4034424.5839  -2458273.0431   5  12   7.4845   6.9092   6.6390  -6.1153   5.4329  -5.1735   0.00    0.0
2019/01/15 09:29:43.000   4280223.0326  -4034420.9039  -2458272.7860   5  12   7.4843   6.9084   6.6387  -6.1147   5.4323  -5.1728   0.00    0.0
2019/01/15 09:29:44.000   4280222.9540  -4034419.0111  -2458262.2076   5  12   7.4840   6.9077   6.6385  -6.1141   5.4318  -5.1721   0.00    0.0
2019/01/15 09:29:45.000   4280229.9974  -4034439.7078  -2458285.2428   5  12   7.4838   6.9069   6.6382  -6.1135   5.4312  -5.1714   0.00    0.0
2019/01/15 09:29:46.000   4280219.2534  -4034425.7164  -2458272.9142   5  12   7.4836   6.9061   6.6379  -6.1129   5.4306  -5.1707   0.00    0.0
2019/01/15 09:29:47.000   4280235.4486  -4034432.6807  -2458273.2941   5  12   7.4833   6.9053   6.6376  -6.1123   5.4300  -5.1700   0.00    0.0
2019/01/15 09:29:48.000   4280240.4663  -4034435.1036  -2458273.2845   5  12   7.4831   6.9045   6.6373  -6.1117   5.4294  -5.1694   0.00    0.0
2019/01/15 09:29:49.000   4280244.6285  -4034447.5877  -2458274.9175   5  12   7.4828   6.9037   6.6370  -6.1111   5.4288  -5.1687   0.00    0.0
2019/01/15 09:29:50.000   4280216.0490  -4034430.0480  -2458265.3543   5  12   7.4826   6.9030   6.6367  -6.1105   5.4282  -5.1680   0.00    0.0
2019/01/15 09:29:51.000   4280232.2161  -4034436.3041  -2458285.5790   5  12   7.4823   6.9022   6.6364  -6.1099   5.4276  -5.1673   0.00    0.0
2019/01/15 09:29:52.000   4280238.0801  -4034429.1918  -2458275.9458   5  12   7.4821   6.9014   6.6361  -6.1093   5.4270  -5.1666   0.00    0.0
2019/01/15 09:29:53.000   4280227.4814  -4034425.9515  -2458261.3122   5  12   7.4819   6.9006   6.6358  -6.1088   5.4265  -5.1659   0.00    0.0
2019/01/15 09:29:54.000   4280223.1952  -4034419.7616  -2458266.6592   5  12   7.4816   6.8998   6.6355  -6.1082   5.4259  -5.1653   0.00    0.0
2019/01/15 09:29:55.000   4280232.6551  -4034419.0032  -2458257.1689   5  12   7.4814   6.8991   6.6352  -6.1076   5.4253  -5.1646   0.00    0.0
2019/01/15 09:29:56.000   4280231.7751  -4034431.5106  -2458270.9340   5  12   7.4811   6.8983   6.6349  -6.1070   5.4247  -5.1639   0.00    0.0
2019/01/15 09:29:57.000   4280214.7166  -4034421.5201  -2458268.1350   5  12   7.4809   6.8975   6.6346  -6.1064   5.4241  -5.1632   0.00    0.0
2019/01/15 09:29:58.000   4280214.8634  -4034419.9632  -2458258.2682   5  12   7.4807   6.8967   6.6343  -6.1058   5.4235  -5.1625   0.00    0.0
2019/01/15 09:29:59.000   4280235.5967  -4034438.8923  -2458273.4520   5  12   7.4804   6.8959   6.6340  -6.1052   5.4229  -5.1618   0.00    0.0
2019/01/15 09:30:00.000   4280226.7479  -4034428.7139  -2458262.7502   5  12   7.4802   6.8951   6.6337  -6.1046   5.4223  -5.1611   0.00    0.0
2019/01/15 09:30:01.000   4280229.1841  -4034421.4119  -2458256.7827   5  12   7.4799   6.8944   6.6334  -6.1040   5.4217  -5.1604   0.00    0.0
2019/01/15 09:30:02.000   4280239.4141  -4034432.7598  -2458283.7487   5  12   7.4797   6.8936   6.6330  -6.1034   5.4211  -5.1597   0.00    0.0
2019/01/15 09:30:03.000   4280230.6948  -4034425.9371  -2458280.5004   5  12   7.4794   6.8928   6.6327  -6.1028   5.4205  -5.1590   0.00    0.0
2019/01/15 09:30:04.000   4280228.8092  -4034421.2687  -2458258.9851   5  12   7.4792   6.8920   6.6324  -6.1022   5.4199  -5.1583   0.00    0.0
2019/01/15 09:30:05.000   4280235.5798  -4034437.8011  -2458265.7878   5  12   7.4789   6.8912   6.6321  -6.1016   5.4193  -5.1576   0.00    0.0
2019/01/15 09:30:06.000   4280242.1263  -4034434.2908  -2458268.3385   5  12   7.4787   6.8904   6.6318  -6.1010   5.4188  -5.1570   0.00    0.0
2019/01/15 09:30:08.000   4280227.3371  -4034430.7510  -2458263.5443   5  12   7.4782   6.8889   6.6312  -6.0998   5.4176  -5.1556   0.00    0.0
2019/01/15 09:30:10.000   4280246.7081  -4034436.8415  -2458273.0618   5  12   7.4777   6.8873   6.6306  -6.0986   5.4164  -5.1542   0.00    0.0
2019/01/15 09:30:11.000   4280223.8253  -4034427.4750  -2458248.9221   5  11   8.8568   7.6382   6.9526  -7.2711   6.0203  -6.0407   0.00    0.0
2019/01/15 09:30:12.000   4280242.6659  -4034422.3583  -2458257.6844   5  11   8.8565   7.6374   6.9524  -7.2705   6.0198  -6.0402   0.00    0.0
2019/01/15 09:30:13.000   4280241.9088  -4034425.3103  -2458259.8955   5  11   8.8562   7.6365   6.9522  -7.2698   6.0193  -6.0397   0.00    0.0
2019/01/15 09:30:14.000   4280231.5666  -4034423.5871  -2458253.4372   5  11   8.8558   7.6357   6.9520  -7.2692   6.0188  -6.0392   0.00    0.0
2019/01/15 09:30:15.000   4280232.9385  -4034429.8271  -2458270.4421   5  11   8.8555   7.6349   6.9518  -7.2685   6.0183  -6.0387   0.00    0.0
2019/01/15 09:30:16.000   4280235.2698  -4034441.5068  -2458280.1102   5  11   8.8552   7.6341   6.9516  -7.2679   6.0178  -6.0382   0.00    0.0
2019/01/15 09:30:17.000   4280226.8790  -4034429.4185  -2458253.2562   5  11   8.8548   7.6333   6.9514  -7.2673   6.0174  -6.0377   0.00    0.0
2019/01/15 09:30:18.000   4280226.2520  -4034424.6154  -2458264.0204   5  12   7.4758   6.8811   6.6281  -6.0938   5.4116  -5.1486   0.00    0.0
2019/01/15 09:30:19.000   4280220.6715  -4034422.1361  -2458259.9976   5  12   7.4755   6.8803   6.6278  -6.0932   5.4110  -5.1479   0.00    0.0
2019/01/15 09:30:20.000   4280237.0637  -4034428.2337  -2458252.3708   5  12   7.4753   6.8795   6.6275  -6.0926   5.4104  -5.1472   0.00    0.0
2019/01/15 09:30:21.000   4280242.4390  -4034434.9964  -2458255.9233   5  12   7.4750   6.8787   6.6272  -6.0920   5.4098  -5.1465   0.00    0.0
2019/01/15 09:30:22.000   4280228.3574  -4034425.0249  -2458263.7763   5  12   7.4748   6.8779   6.6269  -6.0914   5.4092  -5.1458   0.00    0.0
2019/01/15 09:30:23.000   4280230.1849  -4034425.5834  -2458256.1807   5  12   7.4745   6.8771   6.6266  -6.0908   5.4086  -5.1451   0.00    0.0
2019/01/15 09:30:24.000   4280225.8365  -4034422.7118  -2458249.7497   5  12   7.4743   6.8764   6.6263  -6.0902   5.4080  -5.1444   0.00    0.0
2019/01/15 09:30:25.000   4280215.2552  -4034413.7027  -2458255.8298   5  12   7.4741   6.8756   6.6259  -6.0896   5.4074  -5.1437   0.00    0.0
2019/01/15 09:30:26.000   4280214.9374  -4034418.5846  -2458253.2783   5  12   7.4738   6.8748   6.6256  -6.0890   5.4068  -5.1430   0.00    0.0
2019/01/15 09:30:27.000   4280218.1905  -4034419.7204  -2458264.0119   5  12   7.4736   6.8740   6.6253  -6.0884   5.4062  -5.1423   0.00    0.0
2019/01/15 09:30:28.000   4280245.6206  -4034438.9689  -2458280.8989   5  12   7.4733   6.8732   6.6250  -6.0878   5.4056  -5.1416   0.00    0.0
2019/01/15 09:30:29.000   4280224.1027  -4034415.2782  -2458273.7913   5  12   7.4731   6.8724   6.6247  -6.0872   5.4050  -5.1409   0.00    0.0
2019/01/15 09:30:31.000   4280230.3023  -4034428.5784  -2458272.6148   5  12   7.4726   6.8709   6.6240  -6.0860   5.4038  -5.1395   0.00    0.0
2019/01/15 09:30:32.000   4280229.5851  -4034423.6166  -2458280.3956   5  12   7.4723   6.8701   6.6237  -6.0854   5.4032  -5.1388   0.00    0.0
2019/01/15 09:30:33.000   4280227.2962  -4034423.6064  -2458268.8295   5  12   7.4721   6.8693   6.6234  -6.0848   5.4026  -5.1381   0.00    0.0
2019/01/15 09:30:35.000   4280213.2238  -4034407.8455  -2458256.8204   5  12   7.4716   6.8677   6.6228  -6.0836   5.4014  -5.1367   0.00    0.0
2019/01/15 09:30:36.000   4280213.6470  -4034418.7925  -2458269.5679   5  12   7.4713   6.8670   6.6225  -6.0830   5.4008  -5.1360   0.00    0.0
2019/01/15 09:30:37.000   4280217.7528  -4034423.9518  -2458257.7567   5  12   7.4711   6.8662   6.6221  -6.0824   5.4002  -5.1352   0.00    0.0
2019/01/15 09:30:38.000   4280226.9672  -4034425.9635  -2458274.2449   5  12   7.4708   6.8654   6.6218  -6.0818   5.3996  -5.1345   0.00    0.0
2019/01/15 09:30:40.000   4280223.0225  -4034403.1682  -2458260.3846   5  12   7.4703   6.8638   6.6212  -6.0806   5.3984  -5.1331   0.00    0.0
2019/01/15 09:30:42.000   4280205.0020  -4034403.4310  -2458253.8708   5  12   7.4699   6.8623   6.6205  -6.0794   5.3972  -5.1317   0.00    0.0
2019/01/15 09:30:43.000   4280229.5607  -4034416.3593  -2458263.0979   5  12   7.4696   6.8615   6.6202  -6.0787   5.3965  -5.1310   0.00    0.0
2019/01/15 09:30:44.000   4280227.0702  -4034414.2962  -2458268.1618   5  12   7.4693   6.8607   6.6199  -6.0781   5.3959  -5.1303   0.00    0.0
2019/01/15 09:30:45.000   4280220.7361  -4034425.1776  -2458274.9776   5  12   7.4691   6.8599   6.6196  -6.0775   5.3953  -5.1296   0.00    0.0
2019/01/15 09:30:46.000   4280218.1831  -4034423.8497  -2458271.1206   5  12   7.4688   6.8591   6.6192  -6.0769   5.3947  -5.1289   0.00    0.0
2019/01/15 09:30:50.000   4280222.4563  -4034422.9114  -2458283.0977   5  12   7.4678   6.8560   6.6179  -6.0745   5.3923  -5.1260   0.00    0.0
2019/01/15 09:30:51.000   4280233.0538  -4034425.9536  -2458275.5312   5  12   7.4676   6.8552   6.6176  -6.0739   5.3917  -5.1253   0.00    0.0
2019/01/15 09:30:52.000   4280236.1360  -4034426.7570  -2458280.3449   5  12   7.4673   6.8544   6.6173  -6.0733   5.3911  -5.1246   0.00    0.0
2019/01/15 09:30:53.000   4280227.2982  -4034424.0617  -2458286.6521   5  12   7.4671   6.8536   6.6169  -6.0727   5.3905  -5.1239   0.00    0.0
2019/01/15 09:30:54.000   4280226.5048  -4034418.9381  -2458278.1655   5  12   7.4668   6.8528   6.6166  -6.0721   5.3899  -5.1232   0.00    0.0
2019/01/15 09:30:55.000   4280211.0053  -4034412.3166  -2458268.6938   5  12   7.4666   6.8521   6.6163  -6.0715   5.3893  -5.1224   0.00    0.0
2019/01/15 09:30:56.000   4280208.7727  -4034411.1384  -2458256.7368   5  12   7.4663   6.8513   6.6160  -6.0709   5.3886  -5.1217   0.00    0.0
2019/01/15 09:30:57.000   4280224.0517  -4034415.2908  -2458273.1002   5  12   7.4661   6.8505   6.6156  -6.0703   5.3880  -5.1210   0.00    0.0
2019/01/15 09:30:58.000   4280213.5453  -4034409.5915  -2458259.5335   5  12   7.4658   6.8497   6.6153  -6.0697   5.3874  -5.1203   0.00    0.0
2019/01/15 09:30:59.000   4280222.1837  -4034419.5399  -2458266.8864   5  12   7.4656   6.8489   6.6150  -6.0690   5.3868  -5.1196   0.00    0.0
2019/01/15 09:31:00.000   4280213.0203  -4034417.8148  -2458271.0399   5  12   7.4653   6.8481   6.6147  -6.0684   5.3862  -5.1189   0.00    0.0
2019/01/15 09:31:01.000   4280235.7128  -4034426.2771  -2458283.1453   5  12   7.4651   6.8473   6.6143  -6.0678   5.3856  -5.1181   0.00    0.0
2019/01/15 09:31:02.000   4280236.9180  -4034415.5277  -2458273.3762   5  12   7.4648   6.8466   6.6140  -6.0672   5.3850  -5.1174   0.00    0.0
2019/01/15 09:31:03.000   4280231.3067  -4034406.3473  -2458277.7296   5  12   7.4646   6.8458   6.6137  -6.0666   5.3844  -5.1167   0.00    0.0
2019/01/15 09:31:04.000   4280218.4894  -4034411.5908  -2458274.5817   5  12   7.4643   6.8450   6.6133  -6.0660   5.3838  -5.1160   0.00    0.0
2019/01/15 09:31:05.000   4280217.4041  -4034412.0170  -2458248.9833   5  12   7.4641   6.8442   6.6130  -6.0654   5.3831  -5.1153   0.00    0.0
2019/01/15 09:31:06.000   4280233.3602  -4034428.0352  -2458277.6817   5  12   7.4638   6.8434   6.6127  -6.0648   5.3825  -5.1145   0.00    0.0
2019/01/15 09:31:07.000   4280228.8046  -4034429.8379  -2458277.7314   5  12   7.4635   6.8426   6.6123  -6.0642   5.3819  -5.1138   0.00    0.0
2019/01/15 09:31:10.000   4280228.2863  -4034410.2078  -2458264.3069   5  12   7.4628   6.8403   6.6113  -6.0624   5.3801  -5.1117   0.00    0.0
2019/01/15 09:31:12.000   4280239.5966  -4034414.0502  -2458276.1062   5  12   7.4623   6.8387   6.6106  -6.0611   5.3788  -5.1102   0.00    0.0
2019/01/15 09:31:13.000   4280239.9942  -4034415.0424  -2458272.3259   5  12   7.4620   6.8379   6.6103  -6.0605   5.3782  -5.1095   0.00    0.0
2019/01/15 09:31:17.000   4280227.3444  -4034408.3020  -2458287.9293   5  12   7.4610   6.8348   6.6090  -6.0581   5.3758  -5.1066   0.00    0.0
2019/01/15 09:31:21.000   4280231.0590  -4034429.1249  -2458282.0341   5  12   7.4600   6.8317   6.6076  -6.0556   5.3733  -5.1037   0.00    0.0
2019/01/15 09:31:22.000   4280227.3968  -4034412.7112  -2458268.5295   5  12   7.4597   6.8309   6.6073  -6.0550   5.3727  -5.1030   0.00    0.0
2019/01/15 09:31:23.000   4280234.5662  -4034435.2863  -2458301.3663   5  12   7.4595   6.8301   6.6069  -6.0544   5.3720  -5.1022   0.00    0.0
2019/01/15 09:31:24.000   4280229.2376  -4034432.3855  -2458283.9017   5  12   7.4592   6.8293   6.6066  -6.0538   5.3714  -5.1015   0.00    0.0
2019/01/15 09:31:25.000   4280234.6492  -4034433.2119  -2458284.6252   5  12   7.4590   6.8285   6.6062  -6.0532   5.3708  -5.1008   0.00    0.0
2019/01/15 09:31:27.000   4280210.9357  -4034410.0452  -2458275.7606   5  12   7.4585   6.8270   6.6056  -6.0520   5.3696  -5.0993   0.00    0.0
2019/01/15 09:31:28.000   4280225.3842  -4034422.5330  -2458279.8314   5  12   7.4582   6.8262   6.6052  -6.0514   5.3690  -5.0986   0.00    0.0
2019/01/15 09:31:29.000   4280226.3065  -4034427.4963  -2458277.7738   5  12   7.4579   6.8254   6.6049  -6.0508   5.3683  -5.0979   0.00    0.0
2019/01/15 09:31:30.000   4280221.9713  -4034422.5581  -2458278.2830   5  12   7.4577   6.8246   6.6045  -6.0501   5.3677  -5.0971   0.00    0.0
2019/01/15 09:31:35.000   4280228.3494  -4034418.4239  -2458265.4722   5  12   7.4564   6.8207   6.6028  -6.0471   5.3646  -5.0935   0.00    0.0
2019/01/15 09:31:39.000   4280226.2591  -4034422.9634  -2458270.7306   5  12   7.4554   6.8175   6.6014  -6.0446   5.3621  -5.0905   0.00    0.0
2019/01/15 09:31:40.000   4280225.6047  -4034417.3772  -2458275.0083   5  12   7.4551   6.8167   6.6011  -6.0440   5.3615  -5.0898   0.00    0.0
2019/01/15 09:31:41.000   4280223.2176  -4034412.5265  -2458268.0860   5  12   7.4549   6.8160   6.6007  -6.0434   5.3609  -5.0891   0.00    0.0
2019/01/15 09:31:42.000   4280225.3154  -4034427.4439  -2458268.4499   5  12   7.4546   6.8152   6.6004  -6.0428   5.3602  -5.0883   0.00    0.0
2019/01/15 09:31:43.000   4280203.2967  -4034407.3195  -2458255.2075   5  12   7.4543   6.8144   6.6000  -6.0422   5.3596  -5.0876   0.00    0.0
2019/01/15 09:31:45.000   4280208.9752  -4034397.2368  -2458276.9344   5  12   7.4538   6.8128   6.5993  -6.0410   5.3584  -5.0861   0.00    0.0
2019/01/15 09:31:46.000   4280217.4973  -4034407.4307  -2458279.6433   5  12   7.4536   6.8120   6.5990  -6.0403   5.3577  -5.0854   0.00    0.0
2019/01/15 09:31:47.000   4280228.4948  -4034416.9455  -2458279.3547   5  12   7.4533   6.8112   6.5986  -6.0397   5.3571  -5.0847   0.00    0.0
2019/01/15 09:31:53.000   4280230.2525  -4034410.6376  -2458280.0239   5  12   7.4517   6.8065   6.5965  -6.0360   5.3534  -5.0802   0.00    0.0
2019/01/15 09:31:54.000   4280216.5708  -4034400.3646  -2458268.0960   5  12   7.4515   6.8058   6.5962  -6.0354   5.3527  -5.0795   0.00    0.0
2019/01/15 09:31:55.000   4280213.8274  -4034408.7437  -2458252.6116   5  12   7.4512   6.8050   6.5958  -6.0348   5.3521  -5.0788   0.00    0.0
2019/01/15 09:32:00.000   4280218.7157  -4034417.0039  -2458258.1436   5  12   7.4499   6.8010   6.5940  -6.0317   5.3490  -5.0750   0.00    0.0
2019/01/15 09:32:01.000   4280221.2293  -4034422.9988  -2458257.5350   5  12   7.4497   6.8003   6.5937  -6.0311   5.3483  -5.0743   0.00    0.0
2019/01/15 09:32:02.000   4280213.6273  -4034414.5892  -2458257.6268   5  12   7.4494   6.7995   6.5933  -6.0305   5.3477  -5.0736   0.00    0.0
2019/01/15 09:32:03.000   4280226.3154  -4034423.9862  -2458263.8018   5  12   7.4491   6.7987   6.5929  -6.0299   5.3471  -5.0728   0.00    0.0
2019/01/15 09:32:04.000   4280205.8525  -4034410.9901  -2458252.7777   5  12   7.4489   6.7979   6.5926  -6.0293   5.3464  -5.0721   0.00    0.0
2019/01/15 09:32:05.000   4280219.2116  -4034418.4389  -2458271.0055   5  12   7.4486   6.7971   6.5922  -6.0286   5.3458  -5.0713   0.00    0.0
2019/01/15 09:32:06.000   4280210.1189  -4034409.3222  -2458262.1598   5  12   7.4484   6.7963   6.5919  -6.0280   5.3452  -5.0706   0.00    0.0
2019/01/15 09:32:07.000   4280215.5760  -4034422.9819  -2458266.7608   5  12   7.4481   6.7955   6.5915  -6.0274   5.3445  -5.0698   0.00    0.0
2019/01/15 09:32:08.000   4280219.1127  -4034419.0452  -2458258.4046   5  12   7.4478   6.7948   6.5912  -6.0268   5.3439  -5.0691   0.00    0.0
2019/01/15 09:32:09.000   4280215.0749  -4034418.0884  -2458254.0208   5  12   7.4476   6.7940   6.5908  -6.0262   5.3433  -5.0683   0.00    0.0
2019/01/15 09:32:10.000   4280237.6089  -4034437.7661  -2458284.5385   5  12   7.4473   6.7932   6.5904  -6.0255   5.3426  -5.0676   0.00    0.0
2019/01/15 09:32:11.000   4280234.3302  -4034441.7671  -2458279.1811   5  12   7.4470   6.7924   6.5901  -6.0249   5.3420  -5.0668   0.00    0.0
2019/01/15 09:32:12.000   4280219.0949  -4034412.3897  -2458247.3847   5  12   7.4468   6.7916   6.5897  -6.0243   5.3414  -5.0661   0.00    0.0
2019/01/15 09:32:13.000   4280227.9647  -4034420.6237  -2458253.8703   5  12   7.4465   6.7908   6.5893  -6.0237   5.3408  -5.0653   0.00    0.0
2019/01/15 09:32:14.000   4280244.7419  -4034438.3764  -2458268.5721   5  12   7.4462   6.7900   6.5890  -6.0231   5.3401  -5.0646   0.00    0.0
2019/01/15 09:32:16.000   4280259.1130  -4034447.3206  -2458284.6372   5  12   7.4457   6.7885   6.5882  -6.0218   5.3388  -5.0631   0.00    0.0
2019/01/15 09:32:18.000   4280234.5958  -4034438.4486  -2458269.4855   5  12   7.4452   6.7869   6.5875  -6.0206   5.3376  -5.0616   0.00    0.0
2019/01/15 09:32:19.000   4280229.0026  -4034424.4744  -2458265.4110   5  12   7.4449   6.7861   6.5872  -6.0200   5.3369  -5.0608   0.00    0.0
2019/01/15 09:32:20.000   4280228.6348  -4034429.8584  -2458262.5969   5  12   7.4447   6.7853   6.5868  -6.0194   5.3363  -5.0601   0.00    0.0
2019/01/15 09:32:21.000   4280230.2750  -4034431.8845  -2458270.6622   5  12   7.4444   6.7845   6.5864  -6.0187   5.3357  -5.0593   0.00    0.0
2019/01/15 09:32:22.000   4280232.0784  -4034424.6702  -2458281.5356   5  12   7.4441   6.7838   6.5861  -6.0181   5.3350  -5.0586   0.00    0.0
2019/01/15 09:32:23.000   4280233.5405  -4034430.1753  -2458287.6345   5  12   7.4439   6.7830   6.5857  -6.0175   5.3344  -5.0578   0.00    0.0
2019/01/15 09:32:24.000   4280229.7666  -4034417.0993  -2458274.6131   5  12   7.4436   6.7822   6.5853  -6.0169   5.3338  -5.0571   0.00    0.0
2019/01/15 09:32:25.000   4280238.8814  -4034427.5147  -2458276.9217   5  12   7.4433   6.7814   6.5850  -6.0163   5.3331  -5.0563   0.00    0.0
2019/01/15 09:32:26.000   4280230.1764  -4034427.1661  -2458269.6286   5  12   7.4431   6.7806   6.5846  -6.0156   5.3325  -5.0556   0.00    0.0
2019/01/15 09:32:27.000   4280235.2560  -4034429.2407  -2458275.0099   5  12   7.4428   6.7798   6.5842  -6.0150   5.3319  -5.0548   0.00    0.0
2019/01/15 09:32:28.000   4280230.1196  -4034434.1794  -2458267.7488   5  12   7.4425   6.7790   6.5839  -6.0144   5.3312  -5.0541   0.00    0.0
2019/01/15 09:32:29.000   4280227.8345  -4034430.0100  -2458261.2345   5  11   7.4871   6.8786   8.5436  -6.0928   5.8983  -5.4761   0.00    0.0
2019/01/15 09:32:30.000   4280226.5333  -4034431.5635  -2458272.0852   5  11   7.4865   6.8774   8.5414  -6.0918   5.8964  -5.4739   0.00    0.0
2019/01/15 09:32:31.000   4280226.3097  -4034421.6871  -2458275.9497   5  11   7.4859   6.8763   8.5393  -6.0908   5.8944  -5.4716   0.00    0.0
2019/01/15 09:32:32.000   4280219.8440  -4034415.4966  -2458270.5344   5  11   7.4854   6.8751   8.5372  -6.0898   5.8925  -5.4693   0.00    0.0
2019/01/15 09:32:33.000   4280232.7769  -4034425.8174  -2458279.5959   5  11   7.4848   6.8739   8.5350  -6.0887   5.8905  -5.4670   0.00    0.0
2019/01/15 09:32:34.000   4280244.5474  -4034435.2824  -2458277.5586   5  11   7.4843   6.8728   8.5329  -6.0877   5.8886  -5.4648   0.00    0.0
2019/01/15 09:32:35.000   4280228.6054  -4034415.1826  -2458269.1253   5  11   7.4837   6.8716   8.5308  -6.0867   5.8867  -5.4625   0.00    0.0
2019/01/15 09:32:36.000   4280233.2678  -4034425.3181  -2458286.4718   5  11   7.4831   6.8704   8.5286  -6.0856   5.8847  -5.4602   0.00    0.0
2019/01/15 09:32:37.000   4280216.1604  -4034413.9966  -2458278.0461   5  11   7.4826   6.8693   8.5265  -6.0846   5.8828  -5.4580   0.00    0.0
2019/01/15 09:32:38.000   4280230.6456  -4034429.9549  -2458298.4091   5  11   7.4820   6.8681   8.5244  -6.0836   5.8808  -5.4557   0.00    0.0
2019/01/15 09:32:39.000   4280232.2381  -4034434.2860  -2458290.6330   5  11   7.4815   6.8669   8.5223  -6.0826   5.8789  -5.4534   0.00    0.0
2019/01/15 09:32:41.000   4280238.9149  -4034440.7373  -2458284.3001   5  11   7.4804   6.8646   8.5180  -6.0805   5.8750  -5.4489   0.00    0.0
2019/01/15 09:32:42.000   4280234.2466  -4034435.4970  -2458294.0837   5  11   7.4798   6.8634   8.5159  -6.0795   5.8731  -5.4466   0.00    0.0
2019/01/15 09:32:45.000   4280242.2476  -4034440.7237  -2458288.6542   5  11   7.4782   6.8599   8.5095  -6.0764   5.8673  -5.4399   0.00    0.0
2019/01/15 09:32:46.000   4280225.7960  -4034431.8311  -2458284.3857   5  11   7.4776   6.8588   8.5074  -6.0754   5.8653  -5.4376   0.00    0.0
2019/01/15 09:32:47.000   4280214.6782  -4034411.8311  -2458258.6152   5  11   7.4771   6.8576   8.5053  -6.0744   5.8634  -5.4354   0.00    0.0
2019/01/15 09:32:48.000   4280230.1757  -4034419.6967  -2458272.5951   5  11   7.4766   6.8565   8.5032  -6.0734   5.8615  -5.4331   0.00    0.0
2019/01/15 09:32:49.000   4280236.0486  -4034435.6038  -2458294.1757   5  11   7.4760   6.8553   8.5010  -6.0724   5.8595  -5.4308   0.00    0.0
2019/01/15 09:32:51.000   4280208.1810  -4034410.9280  -2458238.4691   5  12   7.4364   6.7610   6.5753  -6.0001   5.3165  -5.0366   0.00    0.0
2019/01/15 09:32:54.000   4280207.7420  -4034419.1666  -2458258.9074   5  12   7.4356   6.7586   6.5741  -5.9982   5.3146  -5.0343   0.00    0.0
2019/01/15 09:32:55.000   4280211.7800  -4034418.2204  -2458277.2389   5  12   7.4354   6.7578   6.5737  -5.9976   5.3139  -5.0335   0.00    0.0
2019/01/15 09:32:56.000   4280201.8964  -4034409.3444  -2458278.6133   5  12   7.4351   6.7570   6.5734  -5.9970   5.3133  -5.0328   0.00    0.0
2019/01/15 09:33:00.000   4280220.2811  -4034408.0718  -2458251.9848   5  12   7.4340   6.7539   6.5718  -5.9945   5.3107  -5.0297   0.00    0.0
2019/01/15 09:33:02.000   4280213.8348  -4034411.8525  -2458256.9447   5  12   7.4335   6.7523   6.5711  -5.9932   5.3094  -5.0282   0.00    0.0
2019/01/15 09:33:03.000   4280216.3262  -4034413.5283  -2458245.6446   5  12   7.4332   6.7515   6.5707  -5.9926   5.3087  -5.0274   0.00    0.0
2019/01/15 09:33:04.000   4280207.9671  -4034412.8859  -2458242.0918   5  12   7.4329   6.7508   6.5703  -5.9920   5.3081  -5.0267   0.00    0.0
2019/01/15 09:33:05.000   4280220.8576  -4034416.0588  -2458244.4883   5  12   7.4327   6.7500   6.5699  -5.9914   5.3074  -5.0259   0.00    0.0
2019/01/15 09:33:06.000   4280219.8678  -4034419.6203  -2458242.6149   5  12   7.4324   6.7492   6.5695  -5.9907   5.3068  -5.0251   0.00    0.0
2019/01/15 09:33:07.000   4280223.1275  -4034418.1479  -2458257.3006   5  12   7.4321   6.7484   6.5692  -5.9901   5.3061  -5.0243   0.00    0.0
2019/01/15 09:33:09.000   4280216.7396  -4034418.4052  -2458262.5816   5  12   7.4316   6.7468   6.5684  -5.9889   5.3048  -5.0228   0.00    0.0
2019/01/15 09:33:10.000   4280231.8411  -4034431.0934  -2458277.8202   5  12   7.4313   6.7460   6.5680  -5.9882   5.3042  -5.0220   0.00    0.0
2019/01/15 09:33:11.000   4280253.3484  -4034436.1152  -2458292.0699   5  12   7.4310   6.7452   6.5676  -5.9876   5.3035  -5.0212   0.00    0.0
2019/01/15 09:33:13.000   4280219.3311  -4034428.6727  -2458264.5595   5  12   7.4305   6.7437   6.5668  -5.9863   5.3022  -5.0197   0.00    0.0
2019/01/15 09:33:14.000   4280217.7123  -4034434.8041  -2458279.8656   5  12   7.4302   6.7429   6.5664  -5.9857   5.3016  -5.0189   0.00    0.0
2019/01/15 09:33:15.000   4280211.3806  -4034432.2231  -2458260.1489   5  12   7.4300   6.7421   6.5661  -5.9851   5.3009  -5.0182   0.00    0.0
2019/01/15 09:33:16.000   4280220.1466  -4034433.2475  -2458282.8647   5  12   7.4297   6.7413   6.5657  -5.9845   5.3003  -5.0174   0.00    0.0
2019/01/15 09:33:17.000   4280229.9515  -4034429.2446  -2458277.7593   5  12   7.4294   6.7405   6.5653  -5.9838   5.2996  -5.0166   0.00    0.0
2019/01/15 09:33:18.000   4280231.0463  -4034442.0891  -2458274.7859   5  12   7.4291   6.7397   6.5649  -5.9832   5.2990  -5.0158   0.00    0.0
2019/01/15 09:33:19.000   4280221.7409  -4034438.7230  -2458283.9759   5  12   7.4289   6.7390   6.5645  -5.9826   5.2983  -5.0151   0.00    0.0
2019/01/15 09:33:23.000   4280217.3795  -4034431.2268  -2458273.9600   5  12   7.4278   6.7358   6.5629  -5.9801   5.2957  -5.0120   0.00    0.0
2019/01/15 09:33:24.000   4280232.1956  -4034431.3161  -2458277.1421   5  12   7.4275   6.7350   6.5625  -5.9794   5.2951  -5.0112   0.00    0.0
2019/01/15 09:33:25.000   4280208.7647  -4034416.3614  -2458263.8422   5  12   7.4273   6.7342   6.5622  -5.9788   5.2944  -5.0104   0.00    0.0
2019/01/15 09:33:28.000   4280213.4795  -4034417.4769  -2458254.7744   5  12   7.4264   6.7319   6.5610  -5.9769   5.2925  -5.0081   0.00    0.0
2019/01/15 09:33:31.000   4280211.4021  -4034420.9976  -2458257.8486   5  12   7.4256   6.7295   6.5598  -5.9751   5.2905  -5.0057   0.00    0.0
2019/01/15 09:33:32.000   4280232.3905  -4034427.6948  -2458272.3783   5  12   7.4253   6.7287   6.5594  -5.9744   5.2898  -5.0050   0.00    0.0
2019/01/15 09:33:33.000   4280227.8757  -4034424.4200  -2458267.3014   5  12   7.4251   6.7280   6.5590  -5.9738   5.2892  -5.0042   0.00    0.0
2019/01/15 09:33:35.000   4280236.2818  -4034438.5784  -2458275.2253   5  12   7.4245   6.7264   6.5582  -5.9725   5.2879  -5.0026   0.00    0.0
2019/01/15 09:33:37.000   4280219.1510  -4034424.9326  -2458261.3415   5  12   7.4240   6.7248   6.5574  -5.9713   5.2866  -5.0011   0.00    0.0
2019/01/15 09:33:38.000   4280226.6267  -4034432.1644  -2458257.8796   5  12   7.4237   6.7240   6.5570  -5.9706   5.2859  -5.0003   0.00    0.0
2019/01/15 09:33:39.000   4280220.4895  -4034424.3544  -2458252.8496   5  12   7.4234   6.7232   6.5566  -5.9700   5.2853  -4.9995   0.00    0.0
2019/01/15 09:33:40.000   4280220.0450  -4034429.9661  -2458279.8806   5  12   7.4232   6.7224   6.5562  -5.9694   5.2846  -4.9987   0.00    0.0
2019/01/15 09:33:41.000   4280217.1482  -4034421.9017  -2458279.1735   5  12   7.4229   6.7217   6.5558  -5.9688   5.2839  -4.9979   0.00    0.0
2019/01/15 09:33:42.000   4280216.1098  -4034414.0821  -2458266.0714   5  12   7.4226   6.7209   6.5554  -5.9681   5.2833  -4.9971   0.00    0.0
2019/01/15 09:33:43.000   4280223.7478  -4034433.5449  -2458273.3711   5  12   7.4223   6.7201   6.5550  -5.9675   5.2826  -4.9964   0.00    0.0
2019/01/15 09:33:44.000   4280220.3185  -4034415.1782  -2458275.8407   5  12   7.4221   6.7193   6.5546  -5.9669   5.2820  -4.9956   0.00    0.0
2019/01/15 09:33:45.000   4280218.8966  -4034415.3842  -2458275.4139   5  12   7.4218   6.7185   6.5542  -5.9662   5.2813  -4.9948   0.00    0.0
2019/01/15 09:33:46.000   4280216.4897  -4034421.8280  -2458283.8419   5  12   7.4215   6.7177   6.5538  -5.9656   5.2806  -4.9940   0.00    0.0
2019/01/15 09:33:49.000   4280222.4144  -4034432.0203  -2458274.1956   5  12   7.4207   6.7154   6.5526  -5.9637   5.2787  -4.9916   0.00    0.0
2019/01/15 09:33:50.000   4280217.8159  -4034408.4386  -2458249.6971   5  12   7.4204   6.7146   6.5522  -5.9631   5.2780  -4.9909   0.00    0.0
2019/01/15 09:33:51.000   4280222.1670  -4034409.7204  -2458256.5914   5  12   7.4201   6.7138   6.5518  -5.9625   5.2774  -4.9901   0.00    0.0
2019/01/15 09:33:52.000   4280221.8178  -4034414.0522  -2458253.3042   5  12   7.4199   6.7130   6.5514  -5.9618   5.2767  -4.9893   0.00    0.0
2019/01/15 09:33:53.000   4280217.5473  -4034404.3515  -2458256.4039   5  12   7.4196   6.7122   6.5510  -5.9612   5.2760  -4.9885   0.00    0.0
2019/01/15 09:33:54.000   4280215.0159  -4034399.5527  -2458246.0744   5  12   7.4193   6.7115   6.5506  -5.9606   5.2754  -4.9877   0.00    0.0
2019/01/15 09:33:57.000   4280201.5353  -4034398.0188  -2458260.0906   5  12   7.4185   6.7091   6.5494  -5.9587   5.2734  -4.9854   0.00    0.0
