% program   : RTKPOST ver.2.4.2
% inp file  : D:\Google Drive\UERJ\_Projeto Final\Python\tcc-guilherme\20190115_Levantamento_8min_Original.19o
% inp file  : D:\Google Drive\UERJ\_Projeto Final\20190115_Marco 91500 IBGE\brdm0150.19p
% obs start : 2019/01/15 09:34:43.0 GPST (week2036 207283.0s)
% obs end   : 2019/01/15 09:52:37.0 GPST (week2036 208357.0s)
% pos mode  : single
% elev mask : 15.0 deg
% ionos opt : off
% tropo opt : off
% ephemeris : broadcast
% navi sys  : gps glonass
%
% (x/y/z-ecef=WGS84,Q=1:fix,2:float,3:sbas,4:dgps,5:single,6:ppp,ns=# of satellites)
%  GPST                      x-ecef(m)      y-ecef(m)      z-ecef(m)   Q  ns   sdx(m)   sdy(m)   sdz(m)  sdxy(m)  sdyz(m)  sdzx(m) age(s)  ratio
2019/01/15 09:34:43.000   4280212.4378  -4034395.4844  -2458267.7129   5   8  10.3661  10.5348   7.1085  -9.3758   5.9673  -6.2075   0.00    0.0
2019/01/15 09:34:44.000   4280227.5205  -4034416.8818  -2458274.7373   5  12   7.4054   6.6722   6.5299  -5.9289   5.2420  -4.9479   0.00    0.0
2019/01/15 09:34:45.000   4280222.7806  -4034413.9890  -2458268.9376   5  12   7.4051   6.6714   6.5295  -5.9282   5.2413  -4.9470   0.00    0.0
2019/01/15 09:34:46.000   4280228.3478  -4034412.3629  -2458272.8981   5  12   7.4048   6.6706   6.5290  -5.9276   5.2407  -4.9462   0.00    0.0
2019/01/15 09:34:47.000   4280235.8217  -4034424.4588  -2458275.3190   5  12   7.4046   6.6698   6.5286  -5.9269   5.2400  -4.9454   0.00    0.0
2019/01/15 09:34:48.000   4280226.9375  -4034425.1183  -2458276.6323   5  12   7.4043   6.6690   6.5282  -5.9263   5.2393  -4.9446   0.00    0.0
2019/01/15 09:34:49.000   4280218.0588  -4034414.2957  -2458273.9836   5  12   7.4040   6.6682   6.5278  -5.9257   5.2386  -4.9438   0.00    0.0
2019/01/15 09:34:50.000   4280221.5204  -4034411.9248  -2458270.6501   5  12   7.4037   6.6675   6.5273  -5.9250   5.2380  -4.9430   0.00    0.0
2019/01/15 09:34:51.000   4280217.5670  -4034403.5698  -2458274.0808   5  12   7.4034   6.6667   6.5269  -5.9244   5.2373  -4.9422   0.00    0.0
2019/01/15 09:34:52.000   4280226.0590  -4034420.6710  -2458274.9356   5  12   7.4032   6.6659   6.5265  -5.9238   5.2366  -4.9414   0.00    0.0
2019/01/15 09:34:53.000   4280219.4827  -4034417.6927  -2458276.2305   5  12   7.4029   6.6651   6.5261  -5.9231   5.2359  -4.9406   0.00    0.0
2019/01/15 09:34:54.000   4280215.3481  -4034416.7967  -2458273.3641   5  12   7.4026   6.6643   6.5256  -5.9225   5.2353  -4.9398   0.00    0.0
2019/01/15 09:34:55.000   4280214.5541  -4034414.5070  -2458276.7093   5  12   7.4023   6.6635   6.5252  -5.9218   5.2346  -4.9390   0.00    0.0
2019/01/15 09:34:56.000   4280222.4083  -4034422.2810  -2458271.2378   5  12   7.4020   6.6627   6.5248  -5.9212   5.2339  -4.9382   0.00    0.0
2019/01/15 09:34:57.000   4280215.9342  -4034415.9298  -2458270.4079   5  12   7.4018   6.6620   6.5244  -5.9206   5.2332  -4.9373   0.00    0.0
2019/01/15 09:34:58.000   4280214.6820  -4034427.7782  -2458271.0139   5  11   7.6079   6.9819   6.5737  -6.2231   5.0686  -4.7904   0.00    0.0
2019/01/15 09:34:59.000   4280224.3725  -4034427.7219  -2458283.1932   5  12   7.4012   6.6604   6.5235  -5.9193   5.2319  -4.9357   0.00    0.0
2019/01/15 09:35:00.000   4280229.8319  -4034431.0901  -2458274.2117   5  12   7.4009   6.6596   6.5231  -5.9187   5.2312  -4.9349   0.00    0.0
2019/01/15 09:35:01.000   4280209.9373  -4034416.8965  -2458261.1872   5  12   7.4006   6.6588   6.5226  -5.9180   5.2305  -4.9341   0.00    0.0
2019/01/15 09:35:02.000   4280209.7435  -4034415.8906  -2458254.2227   5  12   7.4003   6.6580   6.5222  -5.9174   5.2299  -4.9333   0.00    0.0
2019/01/15 09:35:03.000   4280230.3556  -4034422.8339  -2458261.5876   5  12   7.4001   6.6573   6.5218  -5.9167   5.2292  -4.9325   0.00    0.0
2019/01/15 09:35:04.000   4280228.1317  -4034419.4245  -2458294.7539   5  11   7.4110   6.7068   8.2219  -5.9443   5.6073  -5.1343   0.00    0.0
2019/01/15 09:35:05.000   4280225.4196  -4034419.6582  -2458294.6566   5  11   7.4106   6.7057   8.2199  -5.9434   5.6055  -5.1321   0.00    0.0
2019/01/15 09:35:06.000   4280222.2192  -4034425.8933  -2458270.8948   5  12   7.3992   6.6549   6.5205  -5.9148   5.2271  -4.9300   0.00    0.0
2019/01/15 09:35:07.000   4280231.6393  -4034433.6075  -2458272.0109   5  12   7.3989   6.6541   6.5200  -5.9142   5.2265  -4.9292   0.00    0.0
2019/01/15 09:35:08.000   4280232.8046  -4034433.4066  -2458271.9810   5  12   7.3986   6.6533   6.5196  -5.9135   5.2258  -4.9284   0.00    0.0
2019/01/15 09:35:09.000   4280211.2682  -4034420.2287  -2458253.5300   5  12   7.3984   6.6525   6.5192  -5.9129   5.2251  -4.9276   0.00    0.0
2019/01/15 09:35:10.000   4280188.9724  -4034418.2031  -2458258.3119   5  11   8.8412   6.6594   6.5190  -6.0410   5.2262  -4.9551   0.00    0.0
2019/01/15 09:35:11.000   4280226.9220  -4034434.5610  -2458264.2809   5  12   7.3978   6.6510   6.5183  -5.9116   5.2237  -4.9260   0.00    0.0
2019/01/15 09:35:12.000   4280239.0819  -4034433.0340  -2458265.0367   5  12   7.3975   6.6502   6.5179  -5.9110   5.2231  -4.9251   0.00    0.0
2019/01/15 09:35:13.000   4280216.3009  -4034408.5853  -2458224.9176   5  11   7.7611   6.8622   6.9405  -6.2382   5.5964  -5.4638   0.00    0.0
2019/01/15 09:35:14.000   4280207.5820  -4034400.6131  -2458224.5911   5  12   7.3970   6.6486   6.5170  -5.9097   5.2217  -4.9235   0.00    0.0
2019/01/15 09:35:15.000   4280227.6958  -4034417.9811  -2458238.2876   5  12   7.3967   6.6478   6.5166  -5.9091   5.2210  -4.9227   0.00    0.0
2019/01/15 09:35:16.000   4280223.9793  -4034429.4266  -2458254.6052   5  12   7.3964   6.6470   6.5161  -5.9084   5.2203  -4.9219   0.00    0.0
2019/01/15 09:35:17.000   4280218.1357  -4034422.5587  -2458242.1285   5  12   7.3961   6.6463   6.5157  -5.9078   5.2197  -4.9211   0.00    0.0
2019/01/15 09:35:18.000   4280224.6901  -4034418.0226  -2458249.8420   5  12   7.3958   6.6455   6.5153  -5.9072   5.2190  -4.9202   0.00    0.0
2019/01/15 09:35:19.000   4280222.2945  -4034414.6145  -2458264.9132   5  11   7.4232   6.7316   6.5163  -5.8477   5.2038  -4.9286   0.00    0.0
2019/01/15 09:35:20.000   4280219.8197  -4034413.2135  -2458265.4532   5  12   7.3952   6.6439   6.5144  -5.9059   5.2176  -4.9186   0.00    0.0
2019/01/15 09:35:21.000   4280237.6153  -4034433.9994  -2458272.2971   5  12   7.3950   6.6431   6.5139  -5.9052   5.2169  -4.9178   0.00    0.0
2019/01/15 09:35:24.000   4280230.8398  -4034427.2703  -2458273.6489   5  12   7.3941   6.6408   6.5126  -5.9033   5.2149  -4.9153   0.00    0.0
2019/01/15 09:35:25.000   4280227.0669  -4034426.7253  -2458279.8347   5  12   7.3938   6.6400   6.5122  -5.9027   5.2142  -4.9145   0.00    0.0
2019/01/15 09:35:26.000   4280241.0175  -4034432.0893  -2458275.5134   5  12   7.3935   6.6392   6.5118  -5.9020   5.2135  -4.9137   0.00    0.0
2019/01/15 09:35:27.000   4280247.5930  -4034442.1434  -2458285.0068   5  12   7.3932   6.6384   6.5113  -5.9014   5.2128  -4.9128   0.00    0.0
2019/01/15 09:35:28.000   4280233.3571  -4034433.2873  -2458271.9931   5  12   7.3930   6.6376   6.5109  -5.9007   5.2122  -4.9120   0.00    0.0
2019/01/15 09:35:29.000   4280238.2861  -4034441.7269  -2458288.1133   5  12   7.3927   6.6368   6.5104  -5.9001   5.2115  -4.9112   0.00    0.0
2019/01/15 09:35:30.000   4280234.9011  -4034428.1950  -2458277.5760   5  12   7.3924   6.6361   6.5100  -5.8995   5.2108  -4.9104   0.00    0.0
2019/01/15 09:35:31.000   4280222.3590  -4034413.1214  -2458272.3944   5  12   7.3921   6.6353   6.5096  -5.8988   5.2101  -4.9096   0.00    0.0
2019/01/15 09:35:32.000   4280217.5567  -4034414.2228  -2458280.6149   5  11   7.6095   6.9628   6.5580  -6.2134   5.0447  -4.7593   0.00    0.0
2019/01/15 09:35:33.000   4280238.0643  -4034438.6410  -2458294.1841   5  11   7.6095   6.9622   6.5575  -6.2131   5.0440  -4.7584   0.00    0.0
2019/01/15 09:35:34.000   4280245.0675  -4034442.0442  -2458299.1157   5  12   7.3912   6.6329   6.5082  -5.8969   5.2080  -4.9071   0.00    0.0
2019/01/15 09:35:35.000   4280243.6352  -4034437.6033  -2458293.2056   5  11   8.7196   7.3580   6.8592  -7.0363   5.8329  -5.8394   0.00    0.0
2019/01/15 09:35:36.000   4280210.9365  -4034414.2400  -2458268.3359   5  12   7.3907   6.6314   6.5074  -5.8956   5.2067  -4.9055   0.00    0.0
2019/01/15 09:35:37.000   4280209.6336  -4034403.3887  -2458256.2387   5  12   7.3904   6.6306   6.5069  -5.8950   5.2060  -4.9046   0.00    0.0
2019/01/15 09:35:38.000   4280205.2044  -4034395.8734  -2458256.5409   5  12   7.3901   6.6298   6.5065  -5.8943   5.2053  -4.9038   0.00    0.0
2019/01/15 09:35:39.000   4280229.2138  -4034417.7075  -2458265.9008   5  12   7.3898   6.6290   6.5060  -5.8937   5.2046  -4.9030   0.00    0.0
2019/01/15 09:35:40.000   4280236.5516  -4034425.1209  -2458272.2205   5  12   7.3895   6.6282   6.5056  -5.8930   5.2039  -4.9021   0.00    0.0
2019/01/15 09:35:41.000   4280225.2821  -4034435.3173  -2458281.8156   5  11   7.4256   8.1255   8.5052  -6.1783   7.2686  -5.2957   0.00    0.0
2019/01/15 09:35:42.000   4280235.9237  -4034448.6195  -2458288.3581   5  11   7.4253   8.1247   8.5054  -6.1774   7.2682  -5.2947   0.00    0.0
2019/01/15 09:35:43.000   4280238.2963  -4034447.8232  -2458295.9935   5  11   7.4249   8.1239   8.5056  -6.1765   7.2679  -5.2936   0.00    0.0
2019/01/15 09:35:44.000   4280251.2865  -4034457.5939  -2458307.0338   5  11   7.4245   8.1231   8.5057  -6.1756   7.2676  -5.2925   0.00    0.0
2019/01/15 09:35:46.000   4280224.0511  -4034415.5740  -2458270.2587   5  12   7.3878   6.6235   6.5029  -5.8892   5.1998  -4.8972   0.00    0.0
2019/01/15 09:35:47.000   4280232.2066  -4034425.0619  -2458277.2880   5  12   7.3875   6.6227   6.5024  -5.8885   5.1991  -4.8964   0.00    0.0
2019/01/15 09:35:48.000   4280225.5882  -4034421.1755  -2458277.1726   5  12   7.3873   6.6220   6.5020  -5.8879   5.1984  -4.8955   0.00    0.0
2019/01/15 09:35:49.000   4280231.7628  -4034418.5530  -2458283.3492   5  12   7.3870   6.6212   6.5016  -5.8873   5.1977  -4.8947   0.00    0.0
2019/01/15 09:35:50.000   4280248.5932  -4034434.2628  -2458283.8289   5  11   7.4148   6.7078   6.5022  -5.8272   5.1846  -4.9017   0.00    0.0
2019/01/15 09:35:51.000   4280238.7059  -4034433.8090  -2458275.1191   5  11   7.4145   6.7070   6.5017  -5.8265   5.1840  -4.9009   0.00    0.0
2019/01/15 09:35:52.000   4280224.5457  -4034428.1270  -2458257.4175   5  11   7.4142   6.7062   6.5013  -5.8259   5.1834  -4.9000   0.00    0.0
2019/01/15 09:35:53.000   4280222.7005  -4034420.8485  -2458264.3879   5  11   7.4139   6.7055   6.5008  -5.8252   5.1828  -4.8991   0.00    0.0
2019/01/15 09:35:54.000   4280232.9032  -4034431.4657  -2458270.8710   5  12   7.3855   6.6172   6.4993  -5.8840   5.1943  -4.8906   0.00    0.0
2019/01/15 09:35:55.000   4280229.3286  -4034429.7321  -2458273.7468   5  12   7.3852   6.6165   6.4989  -5.8834   5.1936  -4.8897   0.00    0.0
2019/01/15 09:35:56.000   4280249.4088  -4034451.5416  -2458285.4466   5  11   8.7088   7.3390   6.8512  -7.0193   5.8190  -5.8239   0.00    0.0
2019/01/15 09:35:57.000   4280231.7488  -4034425.1511  -2458269.3944   5  11   7.4128   6.7024   6.4990  -5.8226   5.1803  -4.8956   0.00    0.0
2019/01/15 09:35:58.000   4280218.0339  -4034414.5980  -2458262.4332   5  11   7.4126   6.7017   6.4985  -5.8219   5.1797  -4.8948   0.00    0.0
2019/01/15 09:35:59.000   4280225.7472  -4034432.9135  -2458265.2910   5  12   7.3841   6.6133   6.4971  -5.8808   5.1909  -4.8864   0.00    0.0
2019/01/15 09:36:00.000   4280244.6342  -4034437.5701  -2458263.1933   5  12   7.3838   6.6125   6.4966  -5.8802   5.1902  -4.8856   0.00    0.0
2019/01/15 09:36:01.000   4280230.3536  -4034429.2610  -2458267.4849   5  11   7.6110   6.9466   6.5443  -6.2052   5.0241  -4.7325   0.00    0.0
2019/01/15 09:36:02.000   4280237.4087  -4034442.2351  -2458284.8159   5  11   7.4115   6.6986   6.4967  -5.8192   5.1772  -4.8913   0.00    0.0
2019/01/15 09:36:03.000   4280224.8726  -4034417.5525  -2458262.1171   5  11   7.4112   6.6978   6.4962  -5.8186   5.1766  -4.8904   0.00    0.0
2019/01/15 09:36:04.000   4280219.5930  -4034414.2793  -2458255.6026   5  11   7.4109   6.6971   6.4957  -5.8179   5.1759  -4.8895   0.00    0.0
2019/01/15 09:36:05.000   4280233.6907  -4034431.2619  -2458263.5097   5  11   7.4106   6.6963   6.4953  -5.8172   5.1753  -4.8886   0.00    0.0
2019/01/15 09:36:06.000   4280234.3172  -4034419.1292  -2458255.5507   5  11   7.4104   6.6955   6.4948  -5.8166   5.1747  -4.8878   0.00    0.0
2019/01/15 09:36:07.000   4280224.1417  -4034406.9273  -2458259.7647   5  11   7.4101   6.6948   6.4943  -5.8159   5.1741  -4.8869   0.00    0.0
2019/01/15 09:36:08.000   4280228.4585  -4034425.5569  -2458271.3941   5  11   7.4098   6.6940   6.4939  -5.8152   5.1734  -4.8860   0.00    0.0
2019/01/15 09:36:09.000   4280216.0196  -4034414.7801  -2458268.9923   5  12   7.3812   6.6055   6.4925  -5.8744   5.1839  -4.8781   0.00    0.0
2019/01/15 09:36:10.000   4280210.1257  -4034408.3603  -2458267.7330   5  12   7.3809   6.6047   6.4921  -5.8737   5.1833  -4.8772   0.00    0.0
2019/01/15 09:36:11.000   4280217.6194  -4034418.6118  -2458276.6928   5  12   7.3806   6.6039   6.4916  -5.8731   5.1826  -4.8764   0.00    0.0
2019/01/15 09:36:12.000   4280216.2092  -4034406.1970  -2458268.0365   5  11   7.4087   6.6909   6.4920  -5.8126   5.1710  -4.8825   0.00    0.0
2019/01/15 09:36:14.000   4280235.2153  -4034421.1473  -2458273.2612   5  12   7.3798   6.6016   6.4902  -5.8712   5.1805  -4.8739   0.00    0.0
2019/01/15 09:36:15.000   4280221.0761  -4034416.2923  -2458270.1138   5  12   7.3795   6.6008   6.4898  -5.8705   5.1798  -4.8731   0.00    0.0
2019/01/15 09:36:16.000   4280199.5054  -4034410.6240  -2458277.8034   5  12   7.3792   6.6000   6.4893  -5.8699   5.1791  -4.8722   0.00    0.0
2019/01/15 09:36:17.000   4280209.3630  -4034409.5725  -2458257.8117   5  12   7.3789   6.5992   6.4889  -5.8692   5.1784  -4.8714   0.00    0.0
2019/01/15 09:36:18.000   4280205.4565  -4034400.7290  -2458251.7751   5  12   7.3786   6.5985   6.4884  -5.8686   5.1777  -4.8706   0.00    0.0
2019/01/15 09:36:19.000   4280210.9016  -4034410.4633  -2458266.7372   5  12   7.3783   6.5977   6.4880  -5.8679   5.1770  -4.8697   0.00    0.0
2019/01/15 09:36:20.000   4280216.1401  -4034408.5952  -2458260.2348   5  12   7.3781   6.5969   6.4875  -5.8673   5.1763  -4.8689   0.00    0.0
2019/01/15 09:36:21.000   4280206.5633  -4034392.0648  -2458261.1441   5  11   7.6122   6.9355   6.5347  -6.1996   5.0098  -4.7139   0.00    0.0
2019/01/15 09:36:22.000   4280232.0691  -4034427.4309  -2458277.7776   5  11   7.9812   7.9072   6.5134  -6.9060   5.4182  -5.0486   0.00    0.0
2019/01/15 09:36:23.000   4280222.5013  -4034411.4809  -2458263.0880   5  11   7.4057   6.6825   6.4869  -5.8052   5.1641  -4.8728   0.00    0.0
2019/01/15 09:36:24.000   4280234.0749  -4034423.0238  -2458272.4201   5  11   7.4054   6.6817   6.4864  -5.8046   5.1634  -4.8719   0.00    0.0
2019/01/15 09:36:25.000   4280222.5018  -4034415.1265  -2458279.8549   5  12   7.3766   6.5930   6.4852  -5.8641   5.1728  -4.8647   0.00    0.0
2019/01/15 09:36:26.000   4280210.3757  -4034391.6414  -2458257.4954   5  12   7.3763   6.5922   6.4848  -5.8634   5.1722  -4.8638   0.00    0.0
2019/01/15 09:36:27.000   4280212.0511  -4034392.5015  -2458250.6903   5  12   7.3760   6.5914   6.4843  -5.8628   5.1715  -4.8630   0.00    0.0
2019/01/15 09:36:28.000   4280230.8558  -4034416.5731  -2458266.7251   5  12   7.3757   6.5906   6.4838  -5.8621   5.1707  -4.8621   0.00    0.0
2019/01/15 09:36:29.000   4280229.5036  -4034411.0082  -2458269.2135   5  11   7.4040   6.6779   6.4840  -5.8012   5.1603  -4.8675   0.00    0.0
2019/01/15 09:36:30.000   4280219.2558  -4034421.0115  -2458275.7419   5  12   7.3752   6.5891   6.4829  -5.8608   5.1694  -4.8605   0.00    0.0
2019/01/15 09:36:31.000   4280223.9768  -4034410.4590  -2458280.4833   5  12   7.3749   6.5883   6.4824  -5.8602   5.1687  -4.8596   0.00    0.0
2019/01/15 09:36:32.000   4280236.6360  -4034421.4595  -2458284.8431   5  11   7.6128   6.9294   6.5294  -6.1965   5.0019  -4.7036   0.00    0.0
2019/01/15 09:36:33.000   4280209.9240  -4034428.7858  -2458280.4361   5  12   7.3743   6.5867   6.4815  -5.8589   5.1673  -4.8579   0.00    0.0
2019/01/15 09:36:34.000   4280208.6955  -4034415.4137  -2458272.9290   5  12   7.3740   6.5859   6.4810  -5.8582   5.1666  -4.8571   0.00    0.0
2019/01/15 09:36:35.000   4280220.9883  -4034413.0934  -2458279.2432   5  12   7.3737   6.5851   6.4806  -5.8576   5.1659  -4.8562   0.00    0.0
2019/01/15 09:36:36.000   4280218.6634  -4034424.6111  -2458273.7592   5  12   7.3734   6.5844   6.4801  -5.8569   5.1652  -4.8554   0.00    0.0
2019/01/15 09:36:37.000   4280224.8672  -4034424.8480  -2458274.4498   5  12   7.3731   6.5836   6.4797  -5.8563   5.1645  -4.8546   0.00    0.0
2019/01/15 09:36:38.000   4280233.4143  -4034429.8886  -2458276.2713   5  12   7.3728   6.5828   6.4792  -5.8556   5.1638  -4.8537   0.00    0.0
2019/01/15 09:36:39.000   4280224.3838  -4034428.6759  -2458283.7115   5  12   7.3725   6.5820   6.4787  -5.8550   5.1631  -4.8529   0.00    0.0
2019/01/15 09:36:40.000   4280230.2619  -4034427.4116  -2458277.3955   5  12   7.3722   6.5812   6.4783  -5.8544   5.1624  -4.8520   0.00    0.0
2019/01/15 09:36:41.000   4280224.9986  -4034426.8421  -2458270.7580   5  12   7.3720   6.5804   6.4778  -5.8537   5.1617  -4.8512   0.00    0.0
2019/01/15 09:36:42.000   4280228.4957  -4034431.0467  -2458265.9010   5  12   7.3717   6.5797   6.4773  -5.8531   5.1610  -4.8503   0.00    0.0
2019/01/15 09:36:43.000   4280235.4891  -4034430.9184  -2458270.0827   5  12   7.3714   6.5789   6.4769  -5.8524   5.1603  -4.8495   0.00    0.0
2019/01/15 09:36:44.000   4280219.7271  -4034427.6742  -2458278.4348   5  12   7.3711   6.5781   6.4764  -5.8518   5.1596  -4.8486   0.00    0.0
2019/01/15 09:36:45.000   4280228.9504  -4034433.7717  -2458282.0434   5  11   7.3996   6.6657   6.4764  -5.7905   5.1502  -4.8533   0.00    0.0
2019/01/15 09:36:46.000   4280248.2034  -4034435.3518  -2458285.6676   5  11   7.3993   6.6649   6.4760  -5.7898   5.1496  -4.8524   0.00    0.0
2019/01/15 09:36:47.000   4280237.7723  -4034425.9500  -2458267.3331   5  12   7.3702   6.5758   6.4750  -5.8498   5.1575  -4.8461   0.00    0.0
2019/01/15 09:36:48.000   4280199.8684  -4034396.4900  -2458259.0308   5  11   7.9725   7.8853   6.5014  -6.8882   5.4002  -5.0270   0.00    0.0
2019/01/15 09:36:49.000   4280258.2610  -4034445.1614  -2458275.9643   5  11   7.6139   6.9200   6.5210  -6.1918   4.9897  -4.6875   0.00    0.0
2019/01/15 09:36:50.000   4280252.1822  -4034436.1009  -2458282.8544   5  12   7.3693   6.5734   6.4736  -5.8479   5.1554  -4.8435   0.00    0.0
2019/01/15 09:36:51.000   4280217.1654  -4034404.4025  -2458278.2543   5  11   7.9714   7.8827   6.5000  -6.8862   5.3980  -5.0245   0.00    0.0
2019/01/15 09:36:53.000   4280217.4717  -4034417.3461  -2458272.5546   5  12   7.3685   6.5711   6.4722  -5.8459   5.1533  -4.8410   0.00    0.0
2019/01/15 09:36:54.000   4280225.4739  -4034413.9494  -2458280.5333   5  11   7.9704   7.8802   6.4985  -6.8841   5.3959  -5.0220   0.00    0.0
2019/01/15 09:36:55.000   4280220.5490  -4034417.6078  -2458264.1711   5  12   7.3679   6.5695   6.4712  -5.8446   5.1519  -4.8393   0.00    0.0
2019/01/15 09:36:56.000   4280221.0501  -4034419.9430  -2458276.4516   5  12   7.3676   6.5687   6.4708  -5.8440   5.1512  -4.8385   0.00    0.0
2019/01/15 09:36:58.000   4280224.5726  -4034428.5088  -2458265.3988   5  12   7.3670   6.5672   6.4698  -5.8427   5.1498  -4.8368   0.00    0.0
2019/01/15 09:36:59.000   4280240.7850  -4034437.5668  -2458280.0544   5  11   7.6145   6.9145   6.5161  -6.1890   4.9824  -4.6781   0.00    0.0
2019/01/15 09:37:00.000   4280242.1098  -4034433.8907  -2458261.3668   5  11   7.6146   6.9140   6.5156  -6.1888   4.9817  -4.6771   0.00    0.0
2019/01/15 09:37:01.000   4280225.3682  -4034424.9619  -2458266.1804   5  12   7.3661   6.5648   6.4684  -5.8408   5.1477  -4.8342   0.00    0.0
2019/01/15 09:37:02.000   4280231.4541  -4034426.8109  -2458247.1028   5  11   7.3667   6.5887   7.9892  -5.8456   5.4002  -4.8879   0.00    0.0
2019/01/15 09:37:03.000   4280220.0859  -4034420.8921  -2458241.2083   5  11   7.3664   6.5878   7.9873  -5.8448   5.3985  -4.8859   0.00    0.0
2019/01/15 09:37:04.000   4280222.9887  -4034424.4985  -2458264.9594   5  11   7.6149   6.9118   6.5136  -6.1877   4.9788  -4.6733   0.00    0.0
2019/01/15 09:37:05.000   4280232.5110  -4034425.1654  -2458268.9577   5  12   7.3650   6.5617   6.4665  -5.8382   5.1448  -4.8308   0.00    0.0
2019/01/15 09:37:06.000   4280236.8749  -4034438.1655  -2458272.4893   5  11   7.6150   6.9107   6.5126  -6.1871   4.9773  -4.6714   0.00    0.0
2019/01/15 09:37:07.000   4280215.2314  -4034421.2518  -2458274.1147   5  11   7.3935   6.6488   6.4659  -5.7758   5.1363  -4.8337   0.00    0.0
2019/01/15 09:37:08.000   4280217.3769  -4034424.1598  -2458267.2046   5  12   7.3641   6.5593   6.4651  -5.8362   5.1427  -4.8282   0.00    0.0
2019/01/15 09:37:09.000   4280222.3240  -4034425.5848  -2458257.8701   5  12   7.3638   6.5586   6.4646  -5.8356   5.1420  -4.8274   0.00    0.0
2019/01/15 09:37:10.000   4280201.1920  -4034406.7321  -2458270.4985   5  11   7.9649   7.8666   6.4910  -6.8730   5.3847  -5.0086   0.00    0.0
2019/01/15 09:37:11.000   4280203.1998  -4034407.5034  -2458263.9773   5  12   7.3632   6.5570   6.4637  -5.8343   5.1406  -4.8257   0.00    0.0
2019/01/15 09:37:12.000   4280214.1880  -4034420.7294  -2458263.4846   5  12   7.3629   6.5562   6.4632  -5.8336   5.1399  -4.8248   0.00    0.0
2019/01/15 09:37:13.000   4280232.5654  -4034433.1014  -2458268.1379   5  12   7.3626   6.5554   6.4627  -5.8330   5.1392  -4.8240   0.00    0.0
2019/01/15 09:37:14.000   4280232.6521  -4034419.4034  -2458277.1983   5  11   7.6156   6.9063   6.5086  -6.1849   4.9715  -4.6638   0.00    0.0
2019/01/15 09:37:15.000   4280236.7961  -4034438.2901  -2458282.0887   5  11   7.6156   6.9058   6.5081  -6.1847   4.9708  -4.6629   0.00    0.0
2019/01/15 09:37:16.000   4280228.4436  -4034430.1989  -2458283.1554   5  12   7.3617   6.5531   6.4613  -5.8310   5.1371  -4.8214   0.00    0.0
2019/01/15 09:37:17.000   4280223.3472  -4034423.7200  -2458274.2007   5  12   7.3614   6.5523   6.4608  -5.8304   5.1364  -4.8205   0.00    0.0
2019/01/15 09:37:18.000   4280225.4795  -4034425.9056  -2458280.1778   5  12   7.3612   6.5515   6.4603  -5.8297   5.1357  -4.8197   0.00    0.0
2019/01/15 09:37:19.000   4280229.4615  -4034415.5477  -2458276.2770   5  12   7.3609   6.5508   6.4598  -5.8291   5.1350  -4.8188   0.00    0.0
2019/01/15 09:37:20.000   4280232.3410  -4034426.1152  -2458274.4201   5  11   7.3899   6.6389   6.4596  -5.7670   5.1281  -4.8220   0.00    0.0
2019/01/15 09:37:21.000   4280236.2415  -4034435.9559  -2458270.8022   5  11   7.3896   6.6381   6.4591  -5.7663   5.1274  -4.8211   0.00    0.0
2019/01/15 09:37:22.000   4280219.7641  -4034418.3137  -2458265.6781   5  12   7.3600   6.5484   6.4584  -5.8271   5.1328  -4.8163   0.00    0.0
2019/01/15 09:37:23.000   4280218.3545  -4034423.6121  -2458269.4519   5  11   7.3890   6.6366   6.4582  -5.7650   5.1261  -4.8193   0.00    0.0
2019/01/15 09:37:24.000   4280235.9193  -4034442.7042  -2458274.5585   5  12   7.3594   6.5468   6.4574  -5.8258   5.1314  -4.8145   0.00    0.0
2019/01/15 09:37:25.000   4280232.0645  -4034436.2090  -2458277.0173   5  12   7.3591   6.5461   6.4569  -5.8252   5.1307  -4.8137   0.00    0.0
2019/01/15 09:37:26.000   4280236.6950  -4034438.3161  -2458284.9953   5  12   7.3588   6.5453   6.4565  -5.8245   5.1300  -4.8128   0.00    0.0
2019/01/15 09:37:27.000   4280234.8765  -4034429.4402  -2458286.7161   5  12   7.3585   6.5445   6.4560  -5.8239   5.1293  -4.8120   0.00    0.0
2019/01/15 09:37:28.000   4280255.5084  -4034443.8352  -2458298.3612   5  12   7.3582   6.5437   6.4555  -5.8232   5.1286  -4.8111   0.00    0.0
2019/01/15 09:37:29.000   4280250.0046  -4034435.2489  -2458288.6604   5  12   7.3579   6.5429   6.4550  -5.8226   5.1279  -4.8102   0.00    0.0
2019/01/15 09:37:30.000   4280230.0578  -4034429.1996  -2458284.3235   5  12   7.3576   6.5422   6.4545  -5.8219   5.1272  -4.8094   0.00    0.0
2019/01/15 09:37:31.000   4280234.8593  -4034433.4220  -2458275.5569   5  12   7.3573   6.5414   6.4541  -5.8213   5.1265  -4.8085   0.00    0.0
2019/01/15 09:37:32.000   4280235.3513  -4034438.1955  -2458278.1087   5  12   7.3570   6.5406   6.4536  -5.8206   5.1258  -4.8077   0.00    0.0
2019/01/15 09:37:33.000   4280238.6498  -4034438.4080  -2458271.8656   5  12   7.3567   6.5398   6.4531  -5.8200   5.1250  -4.8068   0.00    0.0
2019/01/15 09:37:34.000   4280230.9350  -4034425.0840  -2458270.5841   5  12   7.3565   6.5390   6.4526  -5.8193   5.1243  -4.8059   0.00    0.0
2019/01/15 09:37:35.000   4280235.6890  -4034424.1565  -2458272.2496   5  12   7.3562   6.5383   6.4521  -5.8187   5.1236  -4.8051   0.00    0.0
2019/01/15 09:37:36.000   4280238.9335  -4034427.3116  -2458275.3833   5  12   7.3559   6.5375   6.4516  -5.8180   5.1229  -4.8042   0.00    0.0
2019/01/15 09:37:37.000   4280237.0062  -4034436.0155  -2458274.9680   5  12   7.3556   6.5367   6.4512  -5.8174   5.1222  -4.8034   0.00    0.0
2019/01/15 09:37:38.000   4280222.4874  -4034433.6063  -2458269.8512   5  11   8.6531   7.2456   6.8094  -6.9346   5.7490  -5.7450   0.00    0.0
2019/01/15 09:37:39.000   4280244.6896  -4034432.7221  -2458271.7361   5  11   7.3845   6.6244   6.4503  -5.7542   5.1159  -4.8048   0.00    0.0
2019/01/15 09:37:40.000   4280241.0435  -4034427.4194  -2458264.4174   5  12   7.3547   6.5344   6.4497  -5.8154   5.1201  -4.8008   0.00    0.0
2019/01/15 09:37:41.000   4280240.8779  -4034427.2502  -2458276.7432   5  12   7.3544   6.5336   6.4492  -5.8148   5.1194  -4.7999   0.00    0.0
2019/01/15 09:37:42.000   4280230.8994  -4034422.2573  -2458268.6929   5  12   7.3541   6.5328   6.4487  -5.8141   5.1187  -4.7990   0.00    0.0
2019/01/15 09:37:43.000   4280222.9525  -4034425.7252  -2458258.8549   5  12   7.3538   6.5320   6.4482  -5.8135   5.1179  -4.7982   0.00    0.0
2019/01/15 09:37:44.000   4280237.8762  -4034423.0290  -2458262.1714   5  12   7.3535   6.5313   6.4478  -5.8128   5.1172  -4.7973   0.00    0.0
2019/01/15 09:37:45.000   4280231.2243  -4034423.4089  -2458266.5868   5  12   7.3532   6.5305   6.4473  -5.8122   5.1165  -4.7965   0.00    0.0
2019/01/15 09:37:46.000   4280230.7634  -4034422.5031  -2458258.4908   5  12   7.3529   6.5297   6.4468  -5.8115   5.1158  -4.7956   0.00    0.0
2019/01/15 09:37:47.000   4280227.5395  -4034424.8371  -2458271.4403   5  12   7.3526   6.5289   6.4463  -5.8109   5.1151  -4.7947   0.00    0.0
2019/01/15 09:37:48.000   4280220.1111  -4034412.7736  -2458268.0376   5  12   7.3523   6.5281   6.4458  -5.8102   5.1144  -4.7939   0.00    0.0
2019/01/15 09:37:49.000   4280222.1870  -4034409.1203  -2458258.1839   5  11   7.3818   6.6168   6.4454  -5.7475   5.1095  -4.7957   0.00    0.0
2019/01/15 09:37:50.000   4280232.1523  -4034420.7926  -2458243.0869   5  12   7.3517   6.5266   6.4448  -5.8089   5.1130  -4.7921   0.00    0.0
2019/01/15 09:37:51.000   4280216.7108  -4034406.4541  -2458249.9989   5  12   7.3515   6.5258   6.4443  -5.8083   5.1123  -4.7913   0.00    0.0
2019/01/15 09:37:52.000   4280232.7342  -4034425.2844  -2458263.0954   5  12   7.3511   6.5250   6.4438  -5.8076   5.1115  -4.7904   0.00    0.0
2019/01/15 09:37:53.000   4280222.8633  -4034415.7679  -2458263.4126   5  12   7.3509   6.5242   6.4434  -5.8069   5.1108  -4.7895   0.00    0.0
2019/01/15 09:37:54.000   4280230.3603  -4034412.4505  -2458264.4992   5  12   7.3506   6.5235   6.4429  -5.8063   5.1101  -4.7887   0.00    0.0
2019/01/15 09:37:55.000   4280240.6039  -4034425.6181  -2458274.3524   5  11   7.3801   6.6122   6.4425  -5.7434   5.1057  -4.7902   0.00    0.0
2019/01/15 09:37:56.000   4280215.6501  -4034401.2589  -2458270.7571   5  11   7.9487   7.8274   6.4687  -6.8408   5.3520  -4.9694   0.00    0.0
2019/01/15 09:37:57.000   4280245.6781  -4034448.4453  -2458280.5726   5  11   7.3795   6.6107   6.4415  -5.7421   5.1044  -4.7884   0.00    0.0
2019/01/15 09:37:58.000   4280231.2654  -4034430.3153  -2458281.9049   5  11   7.3792   6.6099   6.4410  -5.7414   5.1037  -4.7875   0.00    0.0
2019/01/15 09:37:59.000   4280238.7585  -4034437.1919  -2458273.0691   5  12   7.3491   6.5196   6.4404  -5.8030   5.1065  -4.7843   0.00    0.0
2019/01/15 09:38:00.000   4280226.3880  -4034433.0002  -2458280.7838   5  11   7.3787   6.6084   6.4400  -5.7400   5.1024  -4.7857   0.00    0.0
2019/01/15 09:38:01.000   4280219.6775  -4034426.7120  -2458286.2360   5  11   7.3784   6.6076   6.4395  -5.7394   5.1018  -4.7847   0.00    0.0
2019/01/15 09:38:02.000   4280241.2709  -4034437.8402  -2458284.4239   5  11   8.6393   7.2234   6.7989  -6.9141   5.7319  -5.7256   0.00    0.0
2019/01/15 09:38:03.000   4280228.8193  -4034428.9235  -2458278.7980   5  11   7.3778   6.6061   6.4385  -5.7380   5.1005  -4.7829   0.00    0.0
2019/01/15 09:38:04.000   4280230.3049  -4034437.2523  -2458269.0885   5  11   7.3776   6.6053   6.4380  -5.7373   5.0999  -4.7820   0.00    0.0
2019/01/15 09:38:05.000   4280227.1437  -4034422.7245  -2458273.6981   5  11   7.3773   6.6046   6.4375  -5.7367   5.0992  -4.7811   0.00    0.0
2019/01/15 09:38:06.000   4280224.3719  -4034428.6800  -2458258.4380   5  11   7.3770   6.6038   6.4370  -5.7360   5.0986  -4.7802   0.00    0.0
2019/01/15 09:38:07.000   4280224.8473  -4034419.2243  -2458276.3268   5  12   7.3467   6.5133   6.4365  -5.7978   5.1008  -4.7774   0.00    0.0
2019/01/15 09:38:08.000   4280227.7261  -4034424.3281  -2458271.1423   5  11   7.3764   6.6023   6.4360  -5.7346   5.0973  -4.7783   0.00    0.0
2019/01/15 09:38:09.000   4280229.8571  -4034433.5344  -2458283.1994   5  11   7.3762   6.6015   6.4355  -5.7339   5.0966  -4.7774   0.00    0.0
2019/01/15 09:38:10.000   4280233.9103  -4034421.8627  -2458277.5808   5  12   7.3458   6.5110   6.4350  -5.7959   5.0987  -4.7747   0.00    0.0
2019/01/15 09:38:11.000   4280236.1994  -4034433.0445  -2458278.2763   5  11   7.3756   6.6000   6.4345  -5.7326   5.0954  -4.7756   0.00    0.0
2019/01/15 09:38:12.000   4280251.8470  -4034434.9667  -2458290.5176   5  11   8.6335   7.2141   6.7944  -6.9055   5.7247  -5.7174   0.00    0.0
2019/01/15 09:38:13.000   4280230.9404  -4034437.7119  -2458269.9422   5  11   7.3750   6.5985   6.4335  -5.7312   5.0941  -4.7737   0.00    0.0
2019/01/15 09:38:14.000   4280224.6508  -4034427.3218  -2458266.0099   5  12   7.3446   6.5079   6.4330  -5.7932   5.0958  -4.7713   0.00    0.0
2019/01/15 09:38:15.000   4280213.5036  -4034421.1071  -2458264.3871   5  12   7.3444   6.5071   6.4325  -5.7926   5.0951  -4.7704   0.00    0.0
2019/01/15 09:38:16.000   4280254.5880  -4034444.4201  -2458286.4785   5  11   8.6311   7.2103   6.7926  -6.9020   5.7218  -5.7141   0.00    0.0
2019/01/15 09:38:17.000   4280230.5497  -4034427.7249  -2458271.4266   5  12   7.3437   6.5056   6.4315  -5.7913   5.0937  -4.7686   0.00    0.0
2019/01/15 09:38:18.000   4280227.5179  -4034422.2624  -2458255.2034   5  12   7.3435   6.5048   6.4310  -5.7906   5.0930  -4.7678   0.00    0.0
2019/01/15 09:38:19.000   4280245.5044  -4034434.3497  -2458282.8136   5  12   7.3431   6.5040   6.4305  -5.7900   5.0922  -4.7669   0.00    0.0
2019/01/15 09:38:20.000   4280235.1102  -4034431.7016  -2458269.0898   5  12   7.3429   6.5032   6.4300  -5.7893   5.0915  -4.7660   0.00    0.0
2019/01/15 09:38:21.000   4280233.9765  -4034428.7143  -2458270.4359   5  11   7.3740   6.6174   7.1519  -5.8604   5.4556  -4.9838   0.00    0.0
2019/01/15 09:38:22.000   4280240.0668  -4034427.9793  -2458274.9917   5  12   7.3423   6.5017   6.4290  -5.7880   5.0901  -4.7643   0.00    0.0
2019/01/15 09:38:23.000   4280219.8256  -4034421.2245  -2458269.8276   5  12   7.3420   6.5009   6.4285  -5.7874   5.0894  -4.7634   0.00    0.0
2019/01/15 09:38:24.000   4280216.3894  -4034423.8526  -2458256.5829   5  12   7.3417   6.5001   6.4280  -5.7867   5.0886  -4.7625   0.00    0.0
2019/01/15 09:38:25.000   4280221.1410  -4034425.9011  -2458258.9563   5  11   7.3729   6.6142   7.1494  -5.8578   5.4525  -4.9805   0.00    0.0
2019/01/15 09:38:26.000   4280219.0877  -4034428.3589  -2458266.8291   5  12   7.3411   6.4986   6.4270  -5.7854   5.0872  -4.7608   0.00    0.0
2019/01/15 09:38:27.000   4280229.0725  -4034430.4535  -2458271.2375   5  12   7.3408   6.4978   6.4265  -5.7847   5.0865  -4.7599   0.00    0.0
2019/01/15 09:38:28.000   4280230.0874  -4034431.4097  -2458264.9906   5  12   7.3405   6.4970   6.4260  -5.7841   5.0858  -4.7590   0.00    0.0
2019/01/15 09:38:29.000   4280228.9616  -4034442.2345  -2458261.8717   5  12   7.3402   6.4962   6.4255  -5.7834   5.0850  -4.7581   0.00    0.0
2019/01/15 09:38:30.000   4280235.0547  -4034439.3344  -2458268.8839   5  12   7.3399   6.4954   6.4250  -5.7828   5.0843  -4.7573   0.00    0.0
2019/01/15 09:38:31.000   4280214.4390  -4034421.6246  -2458270.2610   5  12   7.3396   6.4947   6.4245  -5.7821   5.0836  -4.7564   0.00    0.0
2019/01/15 09:38:32.000   4280221.5552  -4034424.7208  -2458263.6379   5  12   7.3393   6.4939   6.4240  -5.7815   5.0829  -4.7555   0.00    0.0
2019/01/15 09:38:33.000   4280215.1379  -4034422.5518  -2458261.0954   5  12   7.3390   6.4931   6.4235  -5.7808   5.0822  -4.7546   0.00    0.0
2019/01/15 09:38:34.000   4280227.6978  -4034431.5218  -2458254.9359   5  12   7.3387   6.4923   6.4230  -5.7802   5.0815  -4.7538   0.00    0.0
2019/01/15 09:38:35.000   4280230.1059  -4034432.1318  -2458267.3483   5  12   7.3384   6.4916   6.4225  -5.7795   5.0807  -4.7529   0.00    0.0
2019/01/15 09:38:36.000   4280235.6541  -4034431.2866  -2458272.3704   5  12   7.3381   6.4908   6.4220  -5.7789   5.0800  -4.7520   0.00    0.0
2019/01/15 09:38:37.000   4280225.9550  -4034432.0454  -2458272.9581   5  12   7.3378   6.4900   6.4215  -5.7782   5.0793  -4.7511   0.00    0.0
2019/01/15 09:38:38.000   4280226.9561  -4034423.7964  -2458275.9052   5  12   7.3375   6.4892   6.4210  -5.7776   5.0786  -4.7502   0.00    0.0
2019/01/15 09:38:39.000   4280219.1828  -4034423.3368  -2458283.4965   5  12   7.3372   6.4885   6.4205  -5.7769   5.0778  -4.7494   0.00    0.0
2019/01/15 09:38:40.000   4280210.0668  -4034414.7256  -2458279.9994   5  12   7.3369   6.4877   6.4200  -5.7763   5.0771  -4.7485   0.00    0.0
2019/01/15 09:38:41.000   4280218.5805  -4034413.3656  -2458266.0276   5  12   7.3366   6.4869   6.4195  -5.7756   5.0764  -4.7476   0.00    0.0
2019/01/15 09:38:42.000   4280225.3047  -4034418.2501  -2458276.8568   5  12   7.3363   6.4861   6.4190  -5.7749   5.0757  -4.7467   0.00    0.0
2019/01/15 09:38:43.000   4280222.3383  -4034416.6579  -2458277.9827   5  12   7.3360   6.4854   6.4185  -5.7743   5.0750  -4.7458   0.00    0.0
2019/01/15 09:38:44.000   4280228.4577  -4034419.1930  -2458274.3059   5  12   7.3357   6.4846   6.4180  -5.7736   5.0742  -4.7450   0.00    0.0
2019/01/15 09:38:45.000   4280234.9547  -4034422.3779  -2458283.5217   5  11   7.6228   6.8571   6.4618  -6.1607   4.9045  -4.5759   0.00    0.0
2019/01/15 09:38:46.000   4280239.8589  -4034432.4624  -2458283.3021   5  12   7.3351   6.4830   6.4169  -5.7723   5.0728  -4.7432   0.00    0.0
2019/01/15 09:38:47.000   4280225.5786  -4034430.8716  -2458280.7813   5  12   7.3348   6.4822   6.4164  -5.7717   5.0721  -4.7423   0.00    0.0
2019/01/15 09:38:48.000   4280222.5104  -4034420.6772  -2458268.2284   5  12   7.3345   6.4815   6.4159  -5.7710   5.0714  -4.7414   0.00    0.0
2019/01/15 09:38:49.000   4280238.5878  -4034432.9012  -2458280.7553   5  12   7.3342   6.4807   6.4154  -5.7704   5.0706  -4.7405   0.00    0.0
2019/01/15 09:38:50.000   4280239.5680  -4034434.7839  -2458265.7887   5  12   7.3339   6.4799   6.4149  -5.7697   5.0699  -4.7397   0.00    0.0
2019/01/15 09:38:51.000   4280228.8768  -4034427.0103  -2458265.1682   5  12   7.3336   6.4791   6.4144  -5.7690   5.0692  -4.7388   0.00    0.0
2019/01/15 09:38:52.000   4280216.8482  -4034422.9773  -2458276.3199   5  11   7.6235   6.8534   6.4581  -6.1589   4.8993  -4.5691   0.00    0.0
2019/01/15 09:38:53.000   4280229.4274  -4034427.6360  -2458278.5960   5  12   7.3330   6.4776   6.4134  -5.7677   5.0677  -4.7370   0.00    0.0
2019/01/15 09:38:54.000   4280227.4993  -4034424.4228  -2458285.2700   5  11   7.6237   6.8523   6.4570  -6.1584   4.8978  -4.5671   0.00    0.0
2019/01/15 09:38:55.000   4280237.4138  -4034434.6502  -2458285.9813   5  12   7.3324   6.4760   6.4124  -5.7664   5.0663  -4.7352   0.00    0.0
2019/01/15 09:38:56.000   4280231.0742  -4034436.2749  -2458264.5352   5  12   7.3321   6.4753   6.4119  -5.7658   5.0656  -4.7344   0.00    0.0
2019/01/15 09:38:57.000   4280214.8973  -4034412.8130  -2458274.2541   5  11   7.6239   6.8507   6.4555  -6.1576   4.8955  -4.5642   0.00    0.0
2019/01/15 09:38:58.000   4280218.6806  -4034422.9890  -2458276.8838   5  12   7.3316   6.4737   6.4108  -5.7645   5.0641  -4.7326   0.00    0.0
2019/01/15 09:38:59.000   4280222.6193  -4034425.5866  -2458279.7757   5  12   7.3312   6.4729   6.4103  -5.7638   5.0634  -4.7317   0.00    0.0
2019/01/15 09:39:00.000   4280238.9444  -4034436.5488  -2458276.8404   5  12   7.3309   6.4722   6.4098  -5.7631   5.0627  -4.7308   0.00    0.0
2019/01/15 09:39:01.000   4280233.7110  -4034432.5783  -2458268.6190   5  12   7.3306   6.4714   6.4093  -5.7625   5.0619  -4.7299   0.00    0.0
2019/01/15 09:39:02.000   4280225.5813  -4034425.6211  -2458269.4731   5  12   7.3304   6.4706   6.4088  -5.7618   5.0612  -4.7291   0.00    0.0
2019/01/15 09:39:03.000   4280227.7669  -4034424.0770  -2458266.0793   5  12   7.3301   6.4698   6.4083  -5.7612   5.0605  -4.7282   0.00    0.0
2019/01/15 09:39:04.000   4280232.2496  -4034438.0042  -2458275.6287   5  12   7.3298   6.4691   6.4078  -5.7605   5.0598  -4.7273   0.00    0.0
2019/01/15 09:39:05.000   4280235.9332  -4034463.2608  -2458289.8511   5  11   7.3519   7.9549   8.5280  -5.9861   7.1871  -5.0565   0.00    0.0
2019/01/15 09:39:06.000   4280235.2499  -4034438.2835  -2458275.5479   5  11   7.6248   6.8459   6.4507  -6.1553   4.8888  -4.5553   0.00    0.0
2019/01/15 09:39:07.000   4280234.5824  -4034424.9386  -2458249.8814   5  12   7.3289   6.4667   6.4063  -5.7586   5.0576  -4.7246   0.00    0.0
2019/01/15 09:39:08.000   4280241.3138  -4034437.4894  -2458265.5326   5  12   7.3286   6.4660   6.4057  -5.7579   5.0569  -4.7237   0.00    0.0
2019/01/15 09:39:09.000   4280235.3721  -4034432.7586  -2458278.1859   5  12   7.3283   6.4652   6.4052  -5.7573   5.0561  -4.7228   0.00    0.0
2019/01/15 09:39:10.000   4280249.6343  -4034438.6679  -2458277.7095   5  12   7.3280   6.4644   6.4047  -5.7566   5.0554  -4.7220   0.00    0.0
2019/01/15 09:39:11.000   4280234.1132  -4034413.5519  -2458259.7002   5  12   7.3277   6.4636   6.4042  -5.7559   5.0547  -4.7211   0.00    0.0
2019/01/15 09:39:12.000   4280244.6193  -4034430.1968  -2458278.5034   5  12   7.3274   6.4629   6.4037  -5.7553   5.0540  -4.7202   0.00    0.0
2019/01/15 09:39:13.000   4280230.6403  -4034411.3323  -2458259.6220   5  12   7.3271   6.4621   6.4032  -5.7546   5.0532  -4.7193   0.00    0.0
2019/01/15 09:39:14.000   4280238.6982  -4034417.0266  -2458266.9292   5  12   7.3268   6.4613   6.4027  -5.7540   5.0525  -4.7184   0.00    0.0
2019/01/15 09:39:15.000   4280226.1703  -4034409.6514  -2458255.3480   5  12   7.3265   6.4605   6.4021  -5.7533   5.0518  -4.7175   0.00    0.0
2019/01/15 09:39:16.000   4280224.6071  -4034416.9489  -2458259.4524   5  12   7.3262   6.4598   6.4016  -5.7527   5.0511  -4.7166   0.00    0.0
2019/01/15 09:39:17.000   4280222.3553  -4034411.2193  -2458265.9622   5  12   7.3259   6.4590   6.4011  -5.7520   5.0503  -4.7157   0.00    0.0
2019/01/15 09:39:18.000   4280214.3967  -4034406.4657  -2458249.7681   5  12   7.3256   6.4582   6.4006  -5.7514   5.0496  -4.7149   0.00    0.0
2019/01/15 09:39:19.000   4280226.8964  -4034419.0489  -2458266.0772   5  12   7.3253   6.4574   6.4001  -5.7507   5.0489  -4.7140   0.00    0.0
2019/01/15 09:39:20.000   4280220.3402  -4034411.3450  -2458265.2867   5  12   7.3250   6.4567   6.3996  -5.7501   5.0482  -4.7131   0.00    0.0
2019/01/15 09:39:21.000   4280216.2659  -4034428.3165  -2458273.7041   5  12   7.3247   6.4559   6.3990  -5.7494   5.0474  -4.7122   0.00    0.0
2019/01/15 09:39:22.000   4280224.2319  -4034422.1069  -2458273.0273   5  11   7.3556   6.5460   6.3986  -5.6843   5.0492  -4.7096   0.00    0.0
2019/01/15 09:39:23.000   4280219.0289  -4034419.9228  -2458275.4323   5  11   7.3553   6.5453   6.3980  -5.6836   5.0485  -4.7087   0.00    0.0
2019/01/15 09:39:24.000   4280217.2904  -4034415.0256  -2458264.3818   5  11   7.3551   6.5445   6.3975  -5.6830   5.0479  -4.7078   0.00    0.0
2019/01/15 09:39:25.000   4280227.7312  -4034426.7868  -2458280.7489   5  11   7.3548   6.5437   6.3970  -5.6823   5.0472  -4.7068   0.00    0.0
2019/01/15 09:39:26.000   4280215.8268  -4034415.7805  -2458281.7063   5  11   7.3545   6.5430   6.3965  -5.6816   5.0465  -4.7059   0.00    0.0
2019/01/15 09:39:27.000   4280212.3122  -4034413.9957  -2458275.7482   5  12   7.3229   6.4513   6.3959  -5.7455   5.0431  -4.7068   0.00    0.0
2019/01/15 09:39:28.000   4280221.3387  -4034399.3422  -2458261.5724   5  11   7.3435   7.9349   8.5284  -5.9635   7.1761  -5.0272   0.00    0.0
2019/01/15 09:39:29.000   4280228.4968  -4034416.5451  -2458288.0185   5  12   7.3223   6.4497   6.3949  -5.7441   5.0416  -4.7051   0.00    0.0
2019/01/15 09:39:30.000   4280235.0148  -4034417.1791  -2458286.6603   5  12   7.3220   6.4489   6.3944  -5.7435   5.0409  -4.7042   0.00    0.0
2019/01/15 09:39:31.000   4280220.8876  -4034412.1968  -2458287.7015   5  12   7.3217   6.4482   6.3939  -5.7428   5.0401  -4.7033   0.00    0.0
2019/01/15 09:39:32.000   4280227.9100  -4034420.3420  -2458306.7873   5  11   7.3535   6.5606   7.1069  -5.8143   5.4003  -4.9237   0.00    0.0
2019/01/15 09:39:33.000   4280219.0469  -4034405.8602  -2458275.8015   5  11   8.5849   7.1384   6.7567  -6.8345   5.6652  -5.6490   0.00    0.0
2019/01/15 09:39:34.000   4280223.0276  -4034415.7732  -2458292.0497   5  11   7.3248   6.4514   7.7048  -5.7352   5.1513  -4.5881   0.00    0.0
2019/01/15 09:39:35.000   4280221.0177  -4034412.4131  -2458281.6750   5  12   7.3205   6.4451   6.3918  -5.7402   5.0372  -4.6997   0.00    0.0
2019/01/15 09:39:36.000   4280204.4409  -4034406.0651  -2458278.0359   5  12   7.3202   6.4443   6.3913  -5.7396   5.0365  -4.6988   0.00    0.0
2019/01/15 09:39:37.000   4280206.7608  -4034398.2192  -2458281.5950   5  12   7.3199   6.4435   6.3907  -5.7389   5.0358  -4.6979   0.00    0.0
2019/01/15 09:39:38.000   4280216.6322  -4034395.8527  -2458281.6626   5  12   7.3196   6.4428   6.3902  -5.7382   5.0350  -4.6970   0.00    0.0
2019/01/15 09:39:39.000   4280209.7649  -4034399.5410  -2458279.7526   5  12   7.3193   6.4420   6.3897  -5.7376   5.0343  -4.6961   0.00    0.0
2019/01/15 09:39:40.000   4280222.7748  -4034425.5441  -2458277.9396   5  11   8.5806   7.1318   6.7533  -6.8282   5.6599  -5.6430   0.00    0.0
2019/01/15 09:39:41.000   4280202.6919  -4034406.4590  -2458258.0264   5  12   7.3187   6.4404   6.3887  -5.7363   5.0329  -4.6943   0.00    0.0
2019/01/15 09:39:42.000   4280213.2439  -4034419.5337  -2458270.5997   5  12   7.3184   6.4397   6.3881  -5.7356   5.0321  -4.6934   0.00    0.0
2019/01/15 09:39:43.000   4280219.9858  -4034418.5652  -2458275.8124   5  12   7.3181   6.4389   6.3876  -5.7350   5.0314  -4.6925   0.00    0.0
2019/01/15 09:39:44.000   4280233.2827  -4034416.1445  -2458285.3380   5  11   7.6285   6.8258   6.4302  -6.1457   4.8602  -4.5177   0.00    0.0
2019/01/15 09:39:45.000   4280218.0328  -4034407.1518  -2458270.2274   5  12   7.3175   6.4373   6.3866  -5.7336   5.0299  -4.6907   0.00    0.0
2019/01/15 09:39:46.000   4280223.6134  -4034418.7797  -2458280.0174   5  12   7.3172   6.4366   6.3860  -5.7330   5.0292  -4.6898   0.00    0.0
2019/01/15 09:39:47.000   4280238.7480  -4034420.5275  -2458290.1744   5  10   7.6289   7.0930   6.4321  -6.1487   4.8151  -4.5141   0.00    0.0
2019/01/15 09:39:48.000   4280227.1839  -4034410.3339  -2458271.7245   5  10   7.6290   7.0925   6.4316  -6.1485   4.8145  -4.5131   0.00    0.0
2019/01/15 09:39:49.000   4280216.4556  -4034418.7616  -2458270.7046   5  11   7.6290   6.8232   6.4275  -6.1444   4.8565  -4.5127   0.00    0.0
2019/01/15 09:39:50.000   4280214.5916  -4034414.2267  -2458275.3281   5  11   7.6292   6.8227   6.4269  -6.1442   4.8557  -4.5117   0.00    0.0
2019/01/15 09:39:51.000   4280198.9720  -4034397.9831  -2458265.2979   5  12   7.3157   6.4327   6.3834  -5.7297   5.0256  -4.6854   0.00    0.0
2019/01/15 09:39:52.000   4280192.7623  -4034393.4109  -2458267.3282   5  11   7.6294   6.8217   6.4258  -6.1437   4.8542  -4.5097   0.00    0.0
2019/01/15 09:39:53.000   4280182.3656  -4034392.5373  -2458273.4233   5  11   8.6691   6.4317   6.3834  -5.7624   5.0231  -4.6265   0.00    0.0
2019/01/15 09:39:54.000   4280200.9751  -4034384.4712  -2458278.6440   5  11   7.3471   6.5431   7.0925  -5.8000   5.3829  -4.9049   0.00    0.0
2019/01/15 09:39:55.000   4280208.3156  -4034397.5300  -2458272.0711   5  11   7.3463   6.5210   6.3815  -5.6618   5.0275  -4.6785   0.00    0.0
2019/01/15 09:39:56.000   4280212.8503  -4034400.5609  -2458266.0393   5  11   7.3200   6.4329   7.6650  -5.7206   5.1169  -4.5463   0.00    0.0
2019/01/15 09:39:59.000   4280197.9281  -4034383.4039  -2458253.6437   5  10   7.6302   7.0873   6.4253  -6.1461   4.8079  -4.5022   0.00    0.0
2019/01/15 09:40:00.000   4280199.7264  -4034393.7278  -2458266.8289   5  11   7.6302   6.8175   6.4215  -6.1417   4.8481  -4.5017   0.00    0.0
2019/01/15 09:40:01.000   4280207.3104  -4034405.8190  -2458256.1828   5  12   7.3127   6.4250   6.3781  -5.7231   5.0182  -4.6764   0.00    0.0
2019/01/15 09:40:02.000   4280209.8732  -4034405.7679  -2458260.0360   5  12   7.3124   6.4242   6.3776  -5.7225   5.0175  -4.6755   0.00    0.0
2019/01/15 09:40:03.000   4280212.1386  -4034405.7089  -2458267.1862   5  11   7.6305   6.8159   6.4198  -6.1410   4.8459  -4.4987   0.00    0.0
2019/01/15 09:40:04.000   4280218.9313  -4034412.9488  -2458275.3202   5  11   7.6306   6.8154   6.4193  -6.1407   4.8451  -4.4977   0.00    0.0
2019/01/15 09:40:05.000   4280224.7613  -4034412.7557  -2458266.5949   5  11   7.6307   6.8148   6.4187  -6.1405   4.8443  -4.4967   0.00    0.0
2019/01/15 09:40:06.000   4280201.6303  -4034403.1901  -2458264.2708   5  12   7.3112   6.4211   6.3755  -5.7199   5.0146  -4.6719   0.00    0.0
2019/01/15 09:40:07.000   4280209.0090  -4034405.5682  -2458256.3586   5  12   7.3109   6.4204   6.3750  -5.7192   5.0138  -4.6710   0.00    0.0
2019/01/15 09:40:08.000   4280213.5478  -4034412.6426  -2458268.5641   5  12   7.3106   6.4196   6.3744  -5.7185   5.0131  -4.6701   0.00    0.0
2019/01/15 09:40:09.000   4280189.2557  -4034396.7827  -2458264.6097   5  12   7.3103   6.4188   6.3739  -5.7179   5.0124  -4.6692   0.00    0.0
2019/01/15 09:40:10.000   4280212.0753  -4034415.8429  -2458270.6488   5  11   7.6313   6.8122   6.4160  -6.1392   4.8406  -4.4917   0.00    0.0
2019/01/15 09:40:11.000   4280219.2114  -4034409.4873  -2458265.7196   5  11   7.6314   6.8117   6.4154  -6.1390   4.8398  -4.4907   0.00    0.0
2019/01/15 09:40:12.000   4280220.7356  -4034418.2118  -2458251.5300   5  11   7.6315   6.8112   6.4149  -6.1388   4.8390  -4.4897   0.00    0.0
2019/01/15 09:40:13.000   4280219.4284  -4034414.2879  -2458257.9476   5  11   7.6316   6.8107   6.4143  -6.1385   4.8383  -4.4887   0.00    0.0
2019/01/15 09:40:14.000   4280226.3864  -4034417.3836  -2458270.7254   5  11   7.6317   6.8101   6.4138  -6.1383   4.8375  -4.4877   0.00    0.0
2019/01/15 09:40:16.000   4280227.2740  -4034418.5767  -2458267.8802   5  11   7.6319   6.8091   6.4127  -6.1378   4.8360  -4.4857   0.00    0.0
2019/01/15 09:40:17.000   4280210.9216  -4034401.9990  -2458259.6988   5  12   7.3078   6.4127   6.3697  -5.7126   5.0065  -4.6619   0.00    0.0
2019/01/15 09:40:18.000   4280214.3762  -4034409.3778  -2458269.9916   5  12   7.3075   6.4119   6.3691  -5.7120   5.0057  -4.6610   0.00    0.0
2019/01/15 09:40:19.000   4280228.5021  -4034420.2790  -2458292.4329   5  12   7.3072   6.4111   6.3686  -5.7113   5.0050  -4.6601   0.00    0.0
2019/01/15 09:40:20.000   4280232.8914  -4034418.2785  -2458282.6151   5  11   7.6324   6.8070   6.4104  -6.1368   4.8330  -4.4817   0.00    0.0
2019/01/15 09:40:21.000   4280216.6381  -4034421.3218  -2458270.1409   5  11   7.6325   6.8065   6.4099  -6.1365   4.8322  -4.4807   0.00    0.0
2019/01/15 09:40:22.000   4280209.1746  -4034409.9777  -2458274.0964   5  12   7.3063   6.4088   6.3670  -5.7093   5.0028  -4.6574   0.00    0.0
2019/01/15 09:40:23.000   4280224.4199  -4034420.9039  -2458282.6952   5  12   7.3060   6.4080   6.3664  -5.7087   5.0020  -4.6565   0.00    0.0
2019/01/15 09:40:24.000   4280214.4909  -4034411.9820  -2458272.4025   5  12   7.3057   6.4073   6.3659  -5.7080   5.0013  -4.6556   0.00    0.0
2019/01/15 09:40:25.000   4280215.2431  -4034411.4647  -2458277.9328   5  12   7.3054   6.4065   6.3654  -5.7074   5.0006  -4.6547   0.00    0.0
2019/01/15 09:40:26.000   4280217.6408  -4034419.7216  -2458281.0173   5  12   7.3051   6.4057   6.3648  -5.7067   4.9998  -4.6538   0.00    0.0
2019/01/15 09:40:27.000   4280221.6666  -4034418.2523  -2458273.7734   5  12   7.3048   6.4050   6.3643  -5.7060   4.9991  -4.6529   0.00    0.0
2019/01/15 09:40:28.000   4280229.3415  -4034433.8760  -2458271.7535   5  11   7.6333   6.8028   6.4060  -6.1348   4.8269  -4.4737   0.00    0.0
2019/01/15 09:40:29.000   4280213.6627  -4034413.2072  -2458269.3414   5  12   7.3042   6.4034   6.3632  -5.7047   4.9976  -4.6511   0.00    0.0
2019/01/15 09:40:30.000   4280222.7118  -4034412.9301  -2458273.4147   5  12   7.3039   6.4027   6.3627  -5.7041   4.9969  -4.6502   0.00    0.0
2019/01/15 09:40:31.000   4280222.7136  -4034419.0199  -2458271.7210   5  11   7.6336   6.8013   6.4043  -6.1341   4.8246  -4.4706   0.00    0.0
2019/01/15 09:40:32.000   4280231.6071  -4034430.7196  -2458272.6847   5  11   7.6337   6.8008   6.4038  -6.1339   4.8238  -4.4696   0.00    0.0
2019/01/15 09:40:33.000   4280225.7584  -4034425.2991  -2458262.4803   5  11   7.6339   6.8003   6.4032  -6.1336   4.8231  -4.4686   0.00    0.0
2019/01/15 09:40:34.000   4280216.1945  -4034420.2177  -2458257.0490   5  11   7.6340   6.7997   6.4027  -6.1334   4.8223  -4.4676   0.00    0.0
2019/01/15 09:40:35.000   4280214.5594  -4034416.9397  -2458261.2692   5  12   7.3024   6.3988   6.3600  -5.7008   4.9932  -4.6456   0.00    0.0
2019/01/15 09:40:36.000   4280220.7476  -4034420.8188  -2458267.4174   5  12   7.3021   6.3980   6.3595  -5.7001   4.9925  -4.6447   0.00    0.0
2019/01/15 09:40:37.000   4280230.7763  -4034416.4583  -2458277.3804   5  12   7.3018   6.3973   6.3589  -5.6994   4.9917  -4.6438   0.00    0.0
2019/01/15 09:40:38.000   4280227.2892  -4034422.4393  -2458276.6156   5  12   7.3015   6.3965   6.3584  -5.6988   4.9910  -4.6429   0.00    0.0
2019/01/15 09:40:39.000   4280218.7453  -4034422.8694  -2458274.2391   5  12   7.3012   6.3957   6.3579  -5.6981   4.9903  -4.6420   0.00    0.0
2019/01/15 09:40:40.000   4280213.3883  -4034416.1727  -2458260.8624   5  11   7.6347   6.7966   6.3993  -6.1319   4.8177  -4.4616   0.00    0.0
2019/01/15 09:40:41.000   4280196.3131  -4034408.9450  -2458273.5469   5  12   7.3006   6.3942   6.3568  -5.6968   4.9888  -4.6402   0.00    0.0
2019/01/15 09:40:42.000   4280223.3745  -4034424.3601  -2458278.4480   5  12   7.3003   6.3934   6.3563  -5.6962   4.9880  -4.6393   0.00    0.0
2019/01/15 09:40:43.000   4280219.5328  -4034410.9394  -2458260.4206   5  12   7.3000   6.3927   6.3557  -5.6955   4.9873  -4.6384   0.00    0.0
2019/01/15 09:40:44.000   4280225.2167  -4034426.3254  -2458276.2621   5  12   7.2997   6.3919   6.3552  -5.6948   4.9866  -4.6374   0.00    0.0
2019/01/15 09:40:45.000   4280214.7035  -4034415.6055  -2458276.4795   5  12   7.2994   6.3911   6.3546  -5.6942   4.9858  -4.6365   0.00    0.0
2019/01/15 09:40:46.000   4280210.7605  -4034415.3378  -2458271.1611   5  12   7.2991   6.3904   6.3541  -5.6935   4.9851  -4.6356   0.00    0.0
2019/01/15 09:40:47.000   4280230.9144  -4034419.7473  -2458271.1132   5  12   7.2988   6.3896   6.3536  -5.6929   4.9843  -4.6347   0.00    0.0
2019/01/15 09:40:48.000   4280227.2810  -4034395.7261  -2458244.1791   5  11   7.3145   7.8641   8.5265  -5.8839   7.1354  -4.9218   0.00    0.0
2019/01/15 09:40:49.000   4280233.0422  -4034417.6988  -2458272.3514   5  12   7.2982   6.3880   6.3525  -5.6916   4.9829  -4.6329   0.00    0.0
2019/01/15 09:40:50.000   4280212.4764  -4034416.4524  -2458281.8062   5  12   7.2979   6.3873   6.3519  -5.6909   4.9821  -4.6320   0.00    0.0
2019/01/15 09:40:51.000   4280208.6059  -4034414.2888  -2458278.9996   5  12   7.2976   6.3865   6.3514  -5.6902   4.9814  -4.6311   0.00    0.0
2019/01/15 09:40:52.000   4280215.2227  -4034415.0607  -2458269.9923   5  11   7.3302   6.4780   6.3514  -5.6227   4.9896  -4.6240   0.00    0.0
2019/01/15 09:40:53.000   4280208.9163  -4034416.1796  -2458267.9387   5  12   7.2970   6.3850   6.3503  -5.6889   4.9799  -4.6293   0.00    0.0
2019/01/15 09:40:54.000   4280216.4907  -4034426.0906  -2458277.2631   5  12   7.2967   6.3842   6.3498  -5.6883   4.9792  -4.6283   0.00    0.0
2019/01/15 09:40:55.000   4280238.8373  -4034433.2216  -2458273.4569   5  12   7.2964   6.3834   6.3492  -5.6876   4.9784  -4.6274   0.00    0.0
2019/01/15 09:40:56.000   4280239.2753  -4034433.0732  -2458281.5461   5  12   7.2960   6.3827   6.3487  -5.6869   4.9777  -4.6265   0.00    0.0
2019/01/15 09:40:57.000   4280209.4579  -4034416.2031  -2458268.6953   5  12   7.2958   6.3819   6.3481  -5.6863   4.9770  -4.6256   0.00    0.0
2019/01/15 09:40:58.000   4280210.0383  -4034409.9234  -2458262.2412   5  12   7.2955   6.3812   6.3476  -5.6856   4.9762  -4.6247   0.00    0.0
2019/01/15 09:40:59.000   4280232.2159  -4034419.9900  -2458272.9606   5  12   7.2951   6.3804   6.3470  -5.6850   4.9755  -4.6238   0.00    0.0
2019/01/15 09:41:00.000   4280222.1733  -4034415.5829  -2458263.0882   5  12   7.2948   6.3796   6.3465  -5.6843   4.9747  -4.6229   0.00    0.0
2019/01/15 09:41:01.000   4280216.1352  -4034410.3130  -2458252.1006   5  12   7.2946   6.3788   6.3460  -5.6837   4.9740  -4.6220   0.00    0.0
2019/01/15 09:41:02.000   4280218.2874  -4034416.6830  -2458277.3097   5  12   7.2942   6.3781   6.3454  -5.6830   4.9732  -4.6210   0.00    0.0
2019/01/15 09:41:03.000   4280220.4079  -4034419.5632  -2458279.6751   5  11   7.6374   6.7848   6.3864  -6.1264   4.8001  -4.4383   0.00    0.0
2019/01/15 09:41:04.000   4280208.4082  -4034408.9377  -2458289.4683   5  12   7.2936   6.3765   6.3443  -5.6817   4.9718  -4.6192   0.00    0.0
2019/01/15 09:41:05.000   4280208.7112  -4034408.0662  -2458281.3646   5  12   7.2933   6.3758   6.3438  -5.6810   4.9710  -4.6183   0.00    0.0
2019/01/15 09:41:06.000   4280210.7979  -4034405.8378  -2458278.0294   5  12   7.2930   6.3750   6.3432  -5.6804   4.9703  -4.6174   0.00    0.0
2019/01/15 09:41:07.000   4280211.4709  -4034412.6631  -2458267.9281   5  12   7.2927   6.3742   6.3427  -5.6797   4.9695  -4.6165   0.00    0.0
2019/01/15 09:41:08.000   4280208.4581  -4034409.7819  -2458269.6544   5  12   7.2924   6.3735   6.3421  -5.6790   4.9688  -4.6156   0.00    0.0
2019/01/15 09:41:09.000   4280225.0114  -4034437.6344  -2458301.5805   5  11   7.3069   7.8453   8.5250  -5.8627   7.1240  -4.8932   0.00    0.0
2019/01/15 09:41:10.000   4280251.8193  -4034438.9605  -2458288.4068   5  12   7.2918   6.3719   6.3410  -5.6777   4.9673  -4.6137   0.00    0.0
2019/01/15 09:41:11.000   4280247.1248  -4034431.3912  -2458274.0360   5  12   7.2915   6.3712   6.3405  -5.6771   4.9666  -4.6128   0.00    0.0
2019/01/15 09:41:12.000   4280226.7085  -4034419.5098  -2458254.2529   5  12   7.2912   6.3704   6.3400  -5.6764   4.9658  -4.6119   0.00    0.0
2019/01/15 09:41:13.000   4280227.3810  -4034434.5783  -2458263.7082   5  12   7.2909   6.3696   6.3394  -5.6757   4.9651  -4.6110   0.00    0.0
2019/01/15 09:41:14.000   4280220.6573  -4034419.9106  -2458261.1367   5  12   7.2906   6.3689   6.3389  -5.6751   4.9643  -4.6101   0.00    0.0
2019/01/15 09:41:15.000   4280226.3035  -4034421.1280  -2458273.5377   5  12   7.2903   6.3681   6.3383  -5.6744   4.9636  -4.6091   0.00    0.0
2019/01/15 09:41:16.000   4280228.2253  -4034426.7821  -2458271.7627   5  12   7.2900   6.3673   6.3378  -5.6738   4.9629  -4.6082   0.00    0.0
2019/01/15 09:41:17.000   4280231.4494  -4034429.9307  -2458278.7277   5  12   7.2897   6.3666   6.3372  -5.6731   4.9621  -4.6073   0.00    0.0
2019/01/15 09:41:18.000   4280236.6239  -4034436.3395  -2458281.3611   5  12   7.2894   6.3658   6.3367  -5.6724   4.9614  -4.6064   0.00    0.0
2019/01/15 09:41:19.000   4280225.5423  -4034434.9402  -2458272.2672   5  12   7.2891   6.3651   6.3361  -5.6718   4.9606  -4.6055   0.00    0.0
2019/01/15 09:41:20.000   4280229.0832  -4034435.5972  -2458278.4631   5  12   7.2888   6.3643   6.3356  -5.6711   4.9599  -4.6045   0.00    0.0
2019/01/15 09:41:21.000   4280229.6559  -4034425.8401  -2458274.3971   5  12   7.2885   6.3635   6.3350  -5.6705   4.9591  -4.6036   0.00    0.0
2019/01/15 09:41:22.000   4280208.2076  -4034404.5046  -2458266.0363   5  11   7.8704   7.6488   6.3607  -6.6901   5.1996  -4.7854   0.00    0.0
2019/01/15 09:41:23.000   4280217.3416  -4034423.0121  -2458264.6383   5  12   7.2879   6.3620   6.3339  -5.6692   4.9577  -4.6018   0.00    0.0
2019/01/15 09:41:24.000   4280218.9629  -4034425.8089  -2458255.4282   5  12   7.2876   6.3612   6.3334  -5.6685   4.9569  -4.6009   0.00    0.0
2019/01/15 09:41:25.000   4280222.3594  -4034428.2921  -2458276.0798   5  12   7.2873   6.3605   6.3328  -5.6678   4.9562  -4.6000   0.00    0.0
2019/01/15 09:41:26.000   4280239.3386  -4034433.1873  -2458289.2037   5  12   7.2870   6.3597   6.3323  -5.6672   4.9554  -4.5990   0.00    0.0
2019/01/15 09:41:27.000   4280227.1511  -4034426.1504  -2458280.1850   5  12   7.2867   6.3589   6.3317  -5.6665   4.9547  -4.5981   0.00    0.0
2019/01/15 09:41:28.000   4280224.2780  -4034418.0300  -2458275.2590   5  12   7.2864   6.3582   6.3312  -5.6659   4.9539  -4.5972   0.00    0.0
2019/01/15 09:41:29.000   4280218.2672  -4034411.5638  -2458264.3929   5  12   7.2861   6.3574   6.3306  -5.6652   4.9532  -4.5963   0.00    0.0
2019/01/15 09:41:30.000   4280236.1193  -4034430.5091  -2458279.1869   5  12   7.2858   6.3566   6.3301  -5.6645   4.9524  -4.5954   0.00    0.0
2019/01/15 09:41:31.000   4280239.7298  -4034438.5711  -2458280.0684   5  12   7.2854   6.3559   6.3295  -5.6639   4.9517  -4.5944   0.00    0.0
2019/01/15 09:41:32.000   4280237.2908  -4034427.8241  -2458280.3875   5  12   7.2851   6.3551   6.3290  -5.6632   4.9510  -4.5935   0.00    0.0
2019/01/15 09:41:33.000   4280242.6514  -4034432.2199  -2458297.2246   5  12   7.2848   6.3543   6.3284  -5.6626   4.9502  -4.5926   0.00    0.0
2019/01/15 09:41:34.000   4280224.2081  -4034423.3345  -2458279.0373   5  11   7.3184   6.4464   6.3288  -5.5938   4.9615  -4.5833   0.00    0.0
2019/01/15 09:41:35.000   4280232.2014  -4034458.2853  -2458308.0434   5  11   7.2976   7.8217   8.5228  -5.8363   7.1095  -4.8573   0.00    0.0
2019/01/15 09:41:36.000   4280245.2304  -4034449.0457  -2458277.5154   5  11   7.6415   6.7679   6.3677  -6.1187   4.7748  -4.4047   0.00    0.0
2019/01/15 09:41:37.000   4280231.9335  -4034428.1565  -2458275.9002   5  12   7.2836   6.3513   6.3262  -5.6599   4.9472  -4.5889   0.00    0.0
2019/01/15 09:41:38.000   4280231.2200  -4034425.8939  -2458280.9351   5  12   7.2833   6.3505   6.3256  -5.6593   4.9465  -4.5880   0.00    0.0
2019/01/15 09:41:39.000   4280225.3089  -4034424.3754  -2458276.4241   5  12   7.2830   6.3498   6.3251  -5.6586   4.9457  -4.5871   0.00    0.0
