% program   : RTKPOST ver.2.4.2
% inp file  : D:\Google Drive\UERJ\_Projeto Final\Python\tcc-guilherme\20190115_Levantamento_8min_Original.19o
% inp file  : D:\Google Drive\UERJ\_Projeto Final\20190115_Marco 91500 IBGE\brdm0150.19p
% obs start : 2019/01/15 09:34:43.0 GPST (week2036 207283.0s)
% obs end   : 2019/01/15 09:52:37.0 GPST (week2036 208357.0s)
% pos mode  : single
% elev mask : 15.0 deg
% ionos opt : broadcast
% tropo opt : off
% ephemeris : broadcast
% navi sys  : gps glonass
%
% (x/y/z-ecef=WGS84,Q=1:fix,2:float,3:sbas,4:dgps,5:single,6:ppp,ns=# of satellites)
%  GPST                      x-ecef(m)      y-ecef(m)      z-ecef(m)   Q  ns   sdx(m)   sdy(m)   sdz(m)  sdxy(m)  sdyz(m)  sdzx(m) age(s)  ratio
2019/01/15 09:34:43.000   4280207.2854  -4034391.9338  -2458265.1978   5   8   7.1512   7.2108   5.3319  -6.3676   3.9870  -4.2877   0.00    0.0
2019/01/15 09:34:46.000   4280223.0429  -4034407.6645  -2458271.4681   5  12   5.4154   4.8174   4.9519  -4.2909   3.7718  -3.6437   0.00    0.0
2019/01/15 09:34:47.000   4280233.2360  -4034422.0332  -2458274.2871   5  12   5.4153   4.8170   4.9515  -4.2906   3.7713  -3.6431   0.00    0.0
2019/01/15 09:34:51.000   4280217.5112  -4034401.8988  -2458273.1767   5  12   5.4151   4.8154   4.9500  -4.2894   3.7694  -3.6406   0.00    0.0
2019/01/15 09:34:52.000   4280224.6569  -4034419.3219  -2458273.2563   5  12   5.4150   4.8149   4.9496  -4.2891   3.7689  -3.6400   0.00    0.0
2019/01/15 09:34:53.000   4280218.7563  -4034415.2978  -2458274.5738   5  12   5.4149   4.8145   4.9493  -4.2888   3.7685  -3.6394   0.00    0.0
2019/01/15 09:34:54.000   4280213.8963  -4034414.6160  -2458272.0019   5  12   5.4149   4.8141   4.9489  -4.2885   3.7680  -3.6388   0.00    0.0
2019/01/15 09:34:55.000   4280213.1403  -4034411.9326  -2458274.9059   5  12   5.4148   4.8137   4.9485  -4.2882   3.7675  -3.6382   0.00    0.0
2019/01/15 09:34:59.000   4280222.2346  -4034425.1738  -2458281.7403   5  12   5.4146   4.8121   4.9471  -4.2870   3.7656  -3.6357   0.00    0.0
2019/01/15 09:35:02.000   4280207.3378  -4034413.2080  -2458254.4664   5  12   5.4144   4.8109   4.9459  -4.2860   3.7642  -3.6338   0.00    0.0
2019/01/15 09:35:06.000   4280220.2340  -4034422.5700  -2458270.0483   5  12   5.4142   4.8093   4.9444  -4.2848   3.7622  -3.6314   0.00    0.0
2019/01/15 09:35:07.000   4280228.3266  -4034429.6847  -2458271.5071   5  12   5.4141   4.8089   4.9441  -4.2845   3.7617  -3.6307   0.00    0.0
2019/01/15 09:35:09.000   4280208.0249  -4034415.2236  -2458251.9775   5  12   5.4140   4.8081   4.9433  -4.2839   3.7608  -3.6295   0.00    0.0
2019/01/15 09:35:11.000   4280225.5056  -4034431.6194  -2458264.1932   5  12   5.4139   4.8073   4.9426  -4.2833   3.7598  -3.6283   0.00    0.0
2019/01/15 09:35:16.000   4280221.4785  -4034425.2565  -2458254.5375   5  12   5.4136   4.8053   4.9407  -4.2818   3.7574  -3.6252   0.00    0.0
2019/01/15 09:35:18.000   4280220.8015  -4034413.3799  -2458248.9677   5  12   5.4135   4.8045   4.9400  -4.2811   3.7565  -3.6239   0.00    0.0
2019/01/15 09:35:21.000   4280233.8132  -4034429.4474  -2458271.0759   5  12   5.4133   4.8033   4.9388  -4.2802   3.7550  -3.6220   0.00    0.0
2019/01/15 09:35:24.000   4280226.6167  -4034422.5725  -2458272.6893   5  12   5.4131   4.8021   4.9377  -4.2793   3.7536  -3.6202   0.00    0.0
2019/01/15 09:35:25.000   4280224.5791  -4034423.0420  -2458278.6800   5  12   5.4130   4.8017   4.9373  -4.2790   3.7531  -3.6196   0.00    0.0
2019/01/15 09:35:26.000   4280238.1966  -4034428.7958  -2458273.8487   5  12   5.4130   4.8013   4.9369  -4.2787   3.7526  -3.6189   0.00    0.0
2019/01/15 09:35:28.000   4280230.0377  -4034428.1600  -2458270.1709   5  12   5.4129   4.8005   4.9362  -4.2781   3.7516  -3.6177   0.00    0.0
2019/01/15 09:35:29.000   4280234.0295  -4034436.4504  -2458286.3670   5  12   5.4128   4.8001   4.9358  -4.2778   3.7511  -3.6171   0.00    0.0
2019/01/15 09:35:31.000   4280220.4300  -4034410.4172  -2458272.2337   5  12   5.4127   4.7993   4.9351  -4.2772   3.7502  -3.6158   0.00    0.0
2019/01/15 09:35:34.000   4280240.4865  -4034437.3216  -2458296.3686   5  12   5.4125   4.7981   4.9339  -4.2762   3.7487  -3.6139   0.00    0.0
2019/01/15 09:35:36.000   4280208.4779  -4034409.7976  -2458265.8812   5  12   5.4124   4.7973   4.9332  -4.2757   3.7478  -3.6127   0.00    0.0
2019/01/15 09:35:39.000   4280225.1348  -4034412.6633  -2458262.8619   5  12   5.4122   4.7961   4.9320  -4.2747   3.7463  -3.6108   0.00    0.0
2019/01/15 09:35:46.000   4280219.2566  -4034410.2896  -2458267.0930   5  12   5.4118   4.7933   4.9294  -4.2726   3.7429  -3.6065   0.00    0.0
2019/01/15 09:35:48.000   4280221.7128  -4034416.6141  -2458274.6119   5  12   5.4117   4.7925   4.9286  -4.2720   3.7420  -3.6052   0.00    0.0
2019/01/15 09:36:10.000   4280206.9267  -4034403.8932  -2458265.1605   5  12   5.4105   4.7838   4.9202  -4.2653   3.7313  -3.5914   0.00    0.0
2019/01/15 09:36:15.000   4280220.0094  -4034413.4894  -2458268.2085   5  12   5.4102   4.7818   4.9182  -4.2638   3.7289  -3.5882   0.00    0.0
2019/01/15 09:36:26.000   4280208.7468  -4034389.2638  -2458257.1079   5  12   5.4096   4.7775   4.9140  -4.2605   3.7235  -3.5813   0.00    0.0
2019/01/15 09:36:33.000   4280209.4733  -4034426.2138  -2458280.0653   5  12   5.4093   4.7747   4.9113  -4.2584   3.7201  -3.5769   0.00    0.0
2019/01/15 09:36:34.000   4280207.1383  -4034412.8348  -2458272.4532   5  12   5.4092   4.7743   4.9109  -4.2581   3.7196  -3.5762   0.00    0.0
2019/01/15 09:36:36.000   4280215.5999  -4034420.9595  -2458271.7098   5  12   5.4091   4.7735   4.9101  -4.2575   3.7187  -3.5750   0.00    0.0
2019/01/15 09:36:37.000   4280224.0592  -4034423.7804  -2458273.9569   5  12   5.4090   4.7732   4.9097  -4.2571   3.7182  -3.5743   0.00    0.0
2019/01/15 09:36:38.000   4280230.5125  -4034427.0152  -2458274.6150   5  12   5.4090   4.7728   4.9093  -4.2568   3.7177  -3.5737   0.00    0.0
2019/01/15 09:36:39.000   4280220.6365  -4034425.0625  -2458280.8536   5  12   5.4089   4.7724   4.9089  -4.2565   3.7172  -3.5730   0.00    0.0
2019/01/15 09:36:43.000   4280232.2692  -4034426.4411  -2458267.5484   5  12   5.4087   4.7708   4.9073  -4.2553   3.7152  -3.5705   0.00    0.0
2019/01/15 09:36:47.000   4280234.8439  -4034423.0203  -2458264.5290   5  12   5.4085   4.7692   4.9058  -4.2541   3.7133  -3.5680   0.00    0.0
2019/01/15 09:37:16.000   4280225.8338  -4034427.4253  -2458281.0074   5  12   5.4070   4.7579   4.8943  -4.2454   3.6991  -3.5495   0.00    0.0
2019/01/15 09:37:17.000   4280223.7878  -4034422.6410  -2458273.4409   5  12   5.4070   4.7575   4.8939  -4.2451   3.6986  -3.5488   0.00    0.0
2019/01/15 09:37:18.000   4280223.9796  -4034424.3044  -2458279.1046   5  12   5.4069   4.7571   4.8935  -4.2448   3.6981  -3.5482   0.00    0.0
2019/01/15 09:37:19.000   4280225.8660  -4034413.3395  -2458274.2403   5  12   5.4069   4.7567   4.8931  -4.2445   3.6976  -3.5475   0.00    0.0
2019/01/15 09:37:24.000   4280231.4951  -4034438.9479  -2458272.4741   5  12   5.4066   4.7548   4.8911  -4.2430   3.6952  -3.5443   0.00    0.0
2019/01/15 09:37:26.000   4280233.2720  -4034433.9497  -2458282.9861   5  12   5.4065   4.7540   4.8903  -4.2424   3.6942  -3.5430   0.00    0.0
2019/01/15 09:37:29.000   4280244.2372  -4034429.9250  -2458286.1071   5  12   5.4064   4.7529   4.8891  -4.2415   3.6927  -3.5411   0.00    0.0
2019/01/15 09:37:30.000   4280225.8235  -4034424.9001  -2458281.3109   5  12   5.4063   4.7525   4.8887  -4.2412   3.6923  -3.5405   0.00    0.0
2019/01/15 09:37:31.000   4280232.1235  -4034429.8879  -2458273.8097   5  12   5.4063   4.7521   4.8883  -4.2409   3.6918  -3.5398   0.00    0.0
2019/01/15 09:37:33.000   4280234.4842  -4034434.4216  -2458270.6445   5  12   5.4062   4.7513   4.8875  -4.2403   3.6908  -3.5386   0.00    0.0
2019/01/15 09:37:34.000   4280226.6672  -4034420.7153  -2458268.1248   5  12   5.4061   4.7509   4.8871  -4.2400   3.6903  -3.5379   0.00    0.0
2019/01/15 09:37:35.000   4280232.3307  -4034420.5442  -2458271.2171   5  12   5.4061   4.7505   4.8867  -4.2397   3.6898  -3.5373   0.00    0.0
2019/01/15 09:37:36.000   4280235.2443  -4034423.7260  -2458273.3864   5  12   5.4060   4.7502   4.8863  -4.2394   3.6893  -3.5366   0.00    0.0
2019/01/15 09:37:37.000   4280231.5809  -4034430.6453  -2458272.5084   5  12   5.4060   4.7498   4.8859  -4.2391   3.6888  -3.5360   0.00    0.0
2019/01/15 09:37:41.000   4280235.6987  -4034422.6211  -2458275.0551   5  12   5.4058   4.7482   4.8843  -4.2379   3.6869  -3.5334   0.00    0.0
2019/01/15 09:37:42.000   4280228.3643  -4034419.5001  -2458267.6064   5  12   5.4058   4.7478   4.8839  -4.2376   3.6864  -3.5328   0.00    0.0
2019/01/15 09:37:43.000   4280220.0025  -4034420.7229  -2458257.1621   5  12   5.4057   4.7475   4.8835  -4.2374   3.6859  -3.5321   0.00    0.0
2019/01/15 09:37:44.000   4280233.8900  -4034419.1618  -2458260.6818   5  12   5.4057   4.7471   4.8831  -4.2371   3.6854  -3.5315   0.00    0.0
2019/01/15 09:37:45.000   4280229.5258  -4034420.5372  -2458266.4706   5  12   5.4056   4.7467   4.8827  -4.2368   3.6849  -3.5308   0.00    0.0
2019/01/15 09:37:47.000   4280223.5881  -4034420.8043  -2458269.1859   5  12   5.4055   4.7459   4.8819  -4.2362   3.6839  -3.5295   0.00    0.0
2019/01/15 09:37:50.000   4280227.6488  -4034414.7971  -2458240.3981   5  12   5.4054   4.7448   4.8807  -4.2353   3.6824  -3.5276   0.00    0.0
2019/01/15 09:37:52.000   4280230.2897  -4034421.7577  -2458260.8787   5  12   5.4053   4.7440   4.8799  -4.2347   3.6815  -3.5263   0.00    0.0
2019/01/15 09:37:54.000   4280226.6172  -4034408.8426  -2458261.4213   5  12   5.4052   4.7432   4.8791  -4.2341   3.6805  -3.5250   0.00    0.0
2019/01/15 09:38:14.000   4280222.4625  -4034424.7870  -2458266.0937   5  12   5.4043   4.7355   4.8710  -4.2281   3.6706  -3.5121   0.00    0.0
2019/01/15 09:38:17.000   4280227.1413  -4034424.3590  -2458270.8083   5  12   5.4041   4.7344   4.8698  -4.2272   3.6692  -3.5101   0.00    0.0
2019/01/15 09:38:18.000   4280222.8497  -4034417.6095  -2458254.9874   5  12   5.4041   4.7340   4.8694  -4.2270   3.6687  -3.5095   0.00    0.0
2019/01/15 09:38:20.000   4280232.1358  -4034427.5788  -2458267.0342   5  12   5.4040   4.7332   4.8685  -4.2264   3.6677  -3.5082   0.00    0.0
2019/01/15 09:38:22.000   4280237.5062  -4034423.8802  -2458274.3571   5  12   5.4039   4.7325   4.8677  -4.2258   3.6667  -3.5069   0.00    0.0
2019/01/15 09:38:23.000   4280218.7984  -4034418.4778  -2458269.1694   5  12   5.4038   4.7321   4.8673  -4.2255   3.6662  -3.5062   0.00    0.0
2019/01/15 09:38:28.000   4280228.1761  -4034427.8913  -2458264.2128   5  12   5.4036   4.7302   4.8653  -4.2240   3.6637  -3.5030   0.00    0.0
2019/01/15 09:38:29.000   4280225.9243  -4034437.4499  -2458261.7426   5  12   5.4036   4.7298   4.8649  -4.2237   3.6632  -3.5023   0.00    0.0
2019/01/15 09:38:30.000   4280232.5045  -4034434.4876  -2458268.2222   5  12   5.4035   4.7294   4.8645  -4.2234   3.6627  -3.5017   0.00    0.0
2019/01/15 09:38:31.000   4280213.5704  -4034418.3737  -2458268.8522   5  12   5.4035   4.7290   4.8641  -4.2231   3.6623  -3.5010   0.00    0.0
2019/01/15 09:38:33.000   4280211.9262  -4034417.9728  -2458259.8471   5  12   5.4034   4.7283   4.8632  -4.2225   3.6613  -3.4997   0.00    0.0
2019/01/15 09:38:36.000   4280231.2296  -4034426.5359  -2458270.4193   5  12   5.4033   4.7271   4.8620  -4.2216   3.6598  -3.4978   0.00    0.0
2019/01/15 09:38:37.000   4280221.5635  -4034426.4949  -2458270.5287   5  12   5.4032   4.7268   4.8616  -4.2213   3.6593  -3.4971   0.00    0.0
2019/01/15 09:38:39.000   4280216.0585  -4034419.3976  -2458281.6896   5  12   5.4031   4.7260   4.8608  -4.2208   3.6583  -3.4958   0.00    0.0
2019/01/15 09:38:40.000   4280208.5142  -4034411.5650  -2458277.7352   5  12   5.4031   4.7256   4.8604  -4.2205   3.6578  -3.4952   0.00    0.0
2019/01/15 09:38:42.000   4280219.4131  -4034412.7544  -2458274.2328   5  12   5.4030   4.7249   4.8595  -4.2199   3.6568  -3.4939   0.00    0.0
2019/01/15 09:38:43.000   4280219.5099  -4034413.2156  -2458276.9034   5  12   5.4030   4.7245   4.8591  -4.2196   3.6563  -3.4932   0.00    0.0
2019/01/15 09:38:44.000   4280222.9714  -4034413.7997  -2458271.9144   5  12   5.4029   4.7241   4.8587  -4.2193   3.6558  -3.4926   0.00    0.0
2019/01/15 09:38:46.000   4280236.0199  -4034428.1034  -2458281.6662   5  12   5.4028   4.7233   4.8579  -4.2187   3.6549  -3.4913   0.00    0.0
2019/01/15 09:38:48.000   4280220.2355  -4034417.9760  -2458267.3035   5  12   5.4028   4.7226   4.8571  -4.2181   3.6539  -3.4900   0.00    0.0
2019/01/15 09:38:49.000   4280235.2074  -4034428.6093  -2458279.1082   5  12   5.4027   4.7222   4.8566  -4.2178   3.6534  -3.4893   0.00    0.0
2019/01/15 09:38:53.000   4280225.3061  -4034423.1604  -2458276.8455   5  12   5.4025   4.7207   4.8550  -4.2166   3.6514  -3.4867   0.00    0.0
2019/01/15 09:38:58.000   4280217.3476  -4034420.4480  -2458275.7906   5  12   5.4023   4.7188   4.8529  -4.2152   3.6489  -3.4834   0.00    0.0
2019/01/15 09:38:59.000   4280221.3524  -4034422.3233  -2458277.9617   5  12   5.4023   4.7184   4.8525  -4.2149   3.6484  -3.4828   0.00    0.0
2019/01/15 09:39:00.000   4280235.4529  -4034431.5707  -2458273.8629   5  12   5.4022   4.7180   4.8521  -4.2146   3.6479  -3.4821   0.00    0.0
2019/01/15 09:39:01.000   4280230.7690  -4034427.9355  -2458266.8937   5  12   5.4022   4.7177   4.8517  -4.2143   3.6474  -3.4814   0.00    0.0
2019/01/15 09:39:02.000   4280222.5153  -4034421.0688  -2458268.1313   5  12   5.4022   4.7173   4.8513  -4.2140   3.6470  -3.4808   0.00    0.0
2019/01/15 09:39:03.000   4280224.6823  -4034418.8476  -2458264.2659   5  12   5.4021   4.7169   4.8509  -4.2137   3.6465  -3.4801   0.00    0.0
2019/01/15 09:39:09.000   4280231.4060  -4034427.6258  -2458275.5620   5  12   5.4019   4.7146   4.8484  -4.2119   3.6435  -3.4762   0.00    0.0
2019/01/15 09:39:11.000   4280227.8512  -4034408.6708  -2458256.9534   5  12   5.4018   4.7139   4.8475  -4.2114   3.6425  -3.4749   0.00    0.0
2019/01/15 09:39:12.000   4280240.4722  -4034425.9326  -2458275.9209   5  12   5.4018   4.7135   4.8471  -4.2111   3.6420  -3.4742   0.00    0.0
2019/01/15 09:39:13.000   4280226.1091  -4034406.9816  -2458257.9511   5  12   5.4017   4.7131   4.8467  -4.2108   3.6415  -3.4736   0.00    0.0
2019/01/15 09:39:15.000   4280221.3653  -4034406.1673  -2458252.7029   5  12   5.4016   4.7124   4.8459  -4.2102   3.6405  -3.4723   0.00    0.0
2019/01/15 09:39:16.000   4280222.3372  -4034413.5149  -2458257.5613   5  12   5.4016   4.7120   4.8455  -4.2099   3.6400  -3.4716   0.00    0.0
2019/01/15 09:39:18.000   4280210.4672  -4034403.0631  -2458249.9381   5  12   5.4015   4.7113   4.8446  -4.2093   3.6390  -3.4703   0.00    0.0
2019/01/15 09:39:20.000   4280215.2615  -4034406.4849  -2458263.2502   5  12   5.4014   4.7105   4.8438  -4.2087   3.6381  -3.4690   0.00    0.0
2019/01/15 09:39:21.000   4280212.6027  -4034423.6563  -2458272.0314   5  12   5.4014   4.7101   4.8434  -4.2084   3.6376  -3.4683   0.00    0.0
2019/01/15 09:39:27.000   4280211.6289  -4034413.4264  -2458275.7706   5  12   5.4012   4.7079   4.8409  -4.2067   3.6346  -3.4644   0.00    0.0
2019/01/15 09:39:30.000   4280231.7677  -4034414.1488  -2458284.8649   5  12   5.4010   4.7068   4.8396  -4.2058   3.6331  -3.4624   0.00    0.0
2019/01/15 09:39:41.000   4280203.1633  -4034405.1586  -2458258.4474   5  12   5.4006   4.7027   4.8350  -4.2026   3.6277  -3.4552   0.00    0.0
2019/01/15 09:39:43.000   4280217.2626  -4034414.7095  -2458274.3395   5  12   5.4005   4.7019   4.8342  -4.2020   3.6267  -3.4538   0.00    0.0
2019/01/15 09:39:49.000   4280215.5890  -4034415.5440  -2458268.9669   5  11   5.5653   4.9115   4.8698  -4.4228   3.5019  -3.3292   0.00    0.0
2019/01/15 09:40:06.000   4280202.4011  -4034402.7154  -2458263.8510   5  12   5.3997   4.6934   4.8245  -4.1954   3.6153  -3.4386   0.00    0.0
2019/01/15 09:40:08.000   4280211.9326  -4034411.0576  -2458268.6001   5  12   5.3996   4.6926   4.8236  -4.1948   3.6143  -3.4373   0.00    0.0
2019/01/15 09:40:18.000   4280211.7118  -4034407.1861  -2458268.5352   5  12   5.3993   4.6889   4.8194  -4.1919   3.6093  -3.4307   0.00    0.0
2019/01/15 09:40:19.000   4280224.5334  -4034416.3177  -2458290.8494   5  12   5.3993   4.6886   4.8190  -4.1916   3.6088  -3.4300   0.00    0.0
2019/01/15 09:40:23.000   4280221.3010  -4034416.7568  -2458280.2243   5  12   5.3991   4.6871   4.8173  -4.1905   3.6068  -3.4274   0.00    0.0
2019/01/15 09:40:27.000   4280218.9421  -4034415.4817  -2458272.0576   5  12   5.3990   4.6856   4.8156  -4.1893   3.6048  -3.4247   0.00    0.0
2019/01/15 09:40:36.000   4280217.5742  -4034416.2858  -2458265.2108   5  12   5.3987   4.6823   4.8117  -4.1868   3.6004  -3.4187   0.00    0.0
2019/01/15 09:40:42.000   4280221.8061  -4034421.8789  -2458277.0718   5  12   5.3985   4.6801   4.8092  -4.1850   3.5974  -3.4147   0.00    0.0
2019/01/15 09:40:44.000   4280222.1261  -4034422.9009  -2458275.7734   5  12   5.3984   4.6794   4.8083  -4.1845   3.5964  -3.4134   0.00    0.0
2019/01/15 09:40:46.000   4280208.0691  -4034411.8872  -2458269.7604   5  12   5.3984   4.6786   4.8075  -4.1839   3.5954  -3.4121   0.00    0.0
2019/01/15 09:40:47.000   4280225.9979  -4034415.6174  -2458269.5674   5  12   5.3983   4.6783   4.8070  -4.1836   3.5949  -3.4114   0.00    0.0
2019/01/15 09:40:49.000   4280228.8414  -4034413.9784  -2458269.6443   5  12   5.3983   4.6775   4.8062  -4.1830   3.5939  -3.4101   0.00    0.0
2019/01/15 09:40:53.000   4280207.1357  -4034413.4557  -2458267.2149   5  12   5.3981   4.6761   4.8045  -4.1819   3.5919  -3.4074   0.00    0.0
2019/01/15 09:40:54.000   4280216.0711  -4034423.6006  -2458277.3024   5  12   5.3981   4.6757   4.8040  -4.1816   3.5914  -3.4067   0.00    0.0
2019/01/15 09:40:55.000   4280235.9200  -4034430.1914  -2458273.0762   5  12   5.3981   4.6754   4.8036  -4.1813   3.5909  -3.4060   0.00    0.0
2019/01/15 09:40:56.000   4280234.6465  -4034429.5112  -2458279.2483   5  12   5.3980   4.6750   4.8032  -4.1810   3.5904  -3.4054   0.00    0.0
2019/01/15 09:40:57.000   4280209.4261  -4034413.3985  -2458267.4173   5  12   5.3980   4.6746   4.8027  -4.1808   3.5899  -3.4047   0.00    0.0
2019/01/15 09:40:58.000   4280208.9877  -4034406.3404  -2458260.4113   5  12   5.3980   4.6743   4.8023  -4.1805   3.5894  -3.4040   0.00    0.0
2019/01/15 09:41:00.000   4280219.0262  -4034412.9064  -2458262.2599   5  12   5.3979   4.6735   4.8014  -4.1799   3.5884  -3.4027   0.00    0.0
2019/01/15 09:41:01.000   4280214.2629  -4034407.5409  -2458251.4073   5  12   5.3979   4.6732   4.8010  -4.1796   3.5880  -3.4020   0.00    0.0
2019/01/15 09:41:02.000   4280216.1682  -4034413.5944  -2458275.5738   5  12   5.3979   4.6728   4.8006  -4.1793   3.5875  -3.4014   0.00    0.0
2019/01/15 09:41:08.000   4280207.8639  -4034407.3108  -2458268.5383   5  12   5.3977   4.6706   4.7980  -4.1776   3.5845  -3.3974   0.00    0.0
2019/01/15 09:41:11.000   4280243.3929  -4034427.7766  -2458271.8425   5  12   5.3976   4.6695   4.7967  -4.1768   3.5830  -3.3953   0.00    0.0
2019/01/15 09:41:12.000   4280223.9225  -4034414.9998  -2458252.5904   5  12   5.3976   4.6692   4.7963  -4.1765   3.5825  -3.3947   0.00    0.0
2019/01/15 09:41:14.000   4280218.5686  -4034417.1714  -2458259.4431   5  12   5.3975   4.6685   4.7954  -4.1759   3.5815  -3.3933   0.00    0.0
2019/01/15 09:41:16.000   4280226.2728  -4034423.4925  -2458269.2618   5  12   5.3975   4.6677   4.7946  -4.1754   3.5805  -3.3920   0.00    0.0
2019/01/15 09:41:17.000   4280228.4450  -4034425.7749  -2458276.4046   5  12   5.3974   4.6674   4.7941  -4.1751   3.5800  -3.3913   0.00    0.0
2019/01/15 09:41:18.000   4280233.5576  -4034433.4644  -2458279.9576   5  12   5.3974   4.6670   4.7937  -4.1748   3.5795  -3.3907   0.00    0.0
2019/01/15 09:41:19.000   4280222.7013  -4034431.5215  -2458271.1189   5  12   5.3974   4.6666   4.7933  -4.1745   3.5790  -3.3900   0.00    0.0
2019/01/15 09:41:20.000   4280225.0664  -4034430.9437  -2458277.0677   5  12   5.3973   4.6663   4.7928  -4.1742   3.5785  -3.3893   0.00    0.0
2019/01/15 09:41:27.000   4280224.5731  -4034423.5898  -2458278.5312   5  12   5.3971   4.6637   4.7898  -4.1723   3.5750  -3.3846   0.00    0.0
2019/01/15 09:41:28.000   4280222.9519  -4034416.0934  -2458274.5237   5  12   5.3971   4.6634   4.7894  -4.1720   3.5745  -3.3840   0.00    0.0
2019/01/15 09:41:31.000   4280236.9483  -4034435.6391  -2458278.7602   5  12   5.3970   4.6623   4.7881  -4.1711   3.5730  -3.3819   0.00    0.0
2019/01/15 09:41:32.000   4280232.8910  -4034423.7678  -2458277.4390   5  12   5.3970   4.6619   4.7876  -4.1708   3.5725  -3.3813   0.00    0.0
2019/01/15 09:41:38.000   4280226.6074  -4034422.0521  -2458279.3847   5  12   5.3969   4.6598   4.7850  -4.1692   3.5696  -3.3772   0.00    0.0
2019/01/15 09:41:40.000   4280214.3466  -4034413.4733  -2458269.4648   5  12   5.3968   4.6591   4.7842  -4.1686   3.5686  -3.3759   0.00    0.0
2019/01/15 09:41:41.000   4280231.9003  -4034421.4135  -2458273.6955   5  12   5.3968   4.6587   4.7837  -4.1683   3.5681  -3.3752   0.00    0.0
2019/01/15 09:41:42.000   4280226.2199  -4034421.8100  -2458272.5642   5  12   5.3967   4.6583   4.7833  -4.1680   3.5676  -3.3746   0.00    0.0
2019/01/15 09:41:43.000   4280221.7966  -4034418.3173  -2458267.0347   5  12   5.3967   4.6580   4.7829  -4.1678   3.5671  -3.3739   0.00    0.0
2019/01/15 09:41:45.000   4280213.4536  -4034415.0748  -2458272.7611   5  12   5.3967   4.6573   4.7820  -4.1672   3.5661  -3.3725   0.00    0.0
2019/01/15 09:41:48.000   4280220.8610  -4034419.3800  -2458266.6873   5  12   5.3966   4.6562   4.7807  -4.1664   3.5646  -3.3705   0.00    0.0
2019/01/15 09:41:49.000   4280221.2539  -4034415.8168  -2458274.7205   5  12   5.3966   4.6558   4.7803  -4.1661   3.5641  -3.3699   0.00    0.0
2019/01/15 09:41:50.000   4280227.7371  -4034423.6383  -2458269.6341   5  12   5.3965   4.6555   4.7798  -4.1658   3.5636  -3.3692   0.00    0.0
2019/01/15 09:41:51.000   4280218.5567  -4034412.1640  -2458252.7457   5  12   5.3965   4.6551   4.7794  -4.1655   3.5631  -3.3685   0.00    0.0
2019/01/15 09:41:54.000   4280222.3447  -4034420.0112  -2458265.9859   5  12   5.3964   4.6540   4.7781  -4.1647   3.5616  -3.3665   0.00    0.0
2019/01/15 09:41:55.000   4280236.9780  -4034421.9655  -2458271.2824   5  12   5.3964   4.6537   4.7776  -4.1644   3.5611  -3.3658   0.00    0.0
2019/01/15 09:42:00.000   4280242.0009  -4034424.3605  -2458273.2525   5  12   5.3963   4.6519   4.7755  -4.1630   3.5586  -3.3624   0.00    0.0
2019/01/15 09:42:01.000   4280211.8890  -4034410.1595  -2458262.5244   5  12   5.3963   4.6515   4.7750  -4.1627   3.5581  -3.3618   0.00    0.0
2019/01/15 09:42:05.000   4280214.7831  -4034415.1392  -2458262.9766   5  12   5.3962   4.6501   4.7733  -4.1616   3.5561  -3.3591   0.00    0.0
2019/01/15 09:42:06.000   4280218.1430  -4034414.7670  -2458264.6520   5  12   5.3962   4.6498   4.7729  -4.1613   3.5556  -3.3584   0.00    0.0
2019/01/15 09:42:07.000   4280212.3056  -4034413.9130  -2458263.5902   5  12   5.3961   4.6494   4.7724  -4.1610   3.5551  -3.3577   0.00    0.0
2019/01/15 09:42:08.000   4280214.3311  -4034412.9559  -2458271.8191   5  12   5.3961   4.6491   4.7720  -4.1608   3.5546  -3.3571   0.00    0.0
2019/01/15 09:42:09.000   4280217.3203  -4034424.0247  -2458266.2484   5  12   5.3961   4.6487   4.7715  -4.1605   3.5541  -3.3564   0.00    0.0
2019/01/15 09:42:13.000   4280223.2582  -4034418.5182  -2458276.3762   5  12   5.3960   4.6473   4.7698  -4.1594   3.5521  -3.3537   0.00    0.0
2019/01/15 09:42:15.000   4280226.3693  -4034426.5239  -2458280.0944   5  12   5.3959   4.6466   4.7689  -4.1588   3.5512  -3.3523   0.00    0.0
2019/01/15 09:42:21.000   4280231.5983  -4034429.9508  -2458269.8483   5  12   5.3958   4.6444   4.7663  -4.1571   3.5482  -3.3483   0.00    0.0
2019/01/15 09:42:26.000   4280221.3996  -4034420.3268  -2458274.1579   5  12   5.3957   4.6427   4.7641  -4.1557   3.5457  -3.3449   0.00    0.0
2019/01/15 09:42:27.000   4280231.6411  -4034422.2955  -2458269.9442   5  12   5.3957   4.6423   4.7637  -4.1555   3.5452  -3.3442   0.00    0.0
2019/01/15 09:42:28.000   4280223.1436  -4034412.6422  -2458265.0408   5  12   5.3957   4.6420   4.7632  -4.1552   3.5447  -3.3435   0.00    0.0
2019/01/15 09:42:29.000   4280231.9541  -4034425.0391  -2458265.1719   5  12   5.3956   4.6416   4.7628  -4.1549   3.5442  -3.3429   0.00    0.0
2019/01/15 09:42:31.000   4280228.2751  -4034422.8333  -2458270.3915   5  12   5.3956   4.6409   4.7619  -4.1544   3.5432  -3.3415   0.00    0.0
2019/01/15 09:42:32.000   4280236.9689  -4034434.2868  -2458291.6364   5  12   5.3956   4.6405   4.7615  -4.1541   3.5427  -3.3408   0.00    0.0
2019/01/15 09:42:35.000   4280208.8789  -4034413.0320  -2458253.1478   5  12   5.3955   4.6395   4.7601  -4.1533   3.5412  -3.3388   0.00    0.0
2019/01/15 09:42:36.000   4280214.2398  -4034413.2813  -2458260.6200   5  12   5.3955   4.6391   4.7597  -4.1530   3.5407  -3.3381   0.00    0.0
2019/01/15 09:42:37.000   4280223.4591  -4034420.5754  -2458280.0585   5  12   5.3955   4.6388   4.7593  -4.1527   3.5402  -3.3375   0.00    0.0
2019/01/15 09:42:38.000   4280224.1471  -4034423.6567  -2458274.3583   5  12   5.3955   4.6384   4.7588  -4.1524   3.5397  -3.3368   0.00    0.0
2019/01/15 09:42:42.000   4280212.0447  -4034417.6301  -2458273.6786   5  12   5.3954   4.6370   4.7571  -4.1513   3.5377  -3.3341   0.00    0.0
2019/01/15 09:42:43.000   4280218.5041  -4034429.7930  -2458279.0996   5  12   5.3954   4.6367   4.7566  -4.1510   3.5372  -3.3334   0.00    0.0
2019/01/15 09:42:46.000   4280231.3675  -4034426.0414  -2458277.6997   5  12   5.3953   4.6356   4.7553  -4.1502   3.5357  -3.3314   0.00    0.0
2019/01/15 09:42:47.000   4280227.1770  -4034427.6586  -2458275.6651   5  12   5.3953   4.6353   4.7549  -4.1499   3.5352  -3.3307   0.00    0.0
2019/01/15 09:42:49.000   4280229.4690  -4034420.5036  -2458270.8199   5  12   5.3952   4.6345   4.7540  -4.1494   3.5342  -3.3293   0.00    0.0
2019/01/15 09:42:50.000   4280232.9936  -4034427.5483  -2458284.0327   5  12   5.3952   4.6342   4.7535  -4.1491   3.5337  -3.3286   0.00    0.0
2019/01/15 09:42:51.000   4280229.3042  -4034420.7779  -2458281.3105   5  12   5.3952   4.6338   4.7531  -4.1488   3.5332  -3.3280   0.00    0.0
2019/01/15 09:42:52.000   4280226.4025  -4034419.1352  -2458271.4613   5  12   5.3952   4.6335   4.7527  -4.1486   3.5328  -3.3273   0.00    0.0
2019/01/15 09:42:53.000   4280238.6849  -4034435.0697  -2458275.7626   5  12   5.3952   4.6331   4.7522  -4.1483   3.5322  -3.3266   0.00    0.0
2019/01/15 09:42:54.000   4280234.9726  -4034426.1414  -2458269.5707   5  12   5.3951   4.6328   4.7518  -4.1480   3.5318  -3.3259   0.00    0.0
2019/01/15 09:42:56.000   4280215.3106  -4034411.6782  -2458258.9301   5  12   5.3951   4.6321   4.7509  -4.1475   3.5308  -3.3246   0.00    0.0
2019/01/15 09:42:57.000   4280214.4683  -4034414.8408  -2458258.8063   5  12   5.3951   4.6317   4.7504  -4.1472   3.5303  -3.3239   0.00    0.0
2019/01/15 09:42:59.000   4280228.5055  -4034410.8623  -2458267.3527   5  12   5.3951   4.6310   4.7496  -4.1466   3.5293  -3.3225   0.00    0.0
2019/01/15 09:43:00.000   4280228.9767  -4034420.0200  -2458277.0463   5  12   5.3950   4.6307   4.7491  -4.1464   3.5288  -3.3219   0.00    0.0
2019/01/15 09:43:01.000   4280207.2307  -4034407.3066  -2458265.6522   5  12   5.3950   4.6304   4.7487  -4.1461   3.5283  -3.3212   0.00    0.0
2019/01/15 09:43:02.000   4280194.0632  -4034397.4959  -2458258.6283   5  12   5.3950   4.6300   4.7482  -4.1458   3.5278  -3.3205   0.00    0.0
2019/01/15 09:43:05.000   4280219.6429  -4034421.1734  -2458270.0085   5  12   5.3949   4.6289   4.7469  -4.1450   3.5263  -3.3185   0.00    0.0
2019/01/15 09:43:06.000   4280237.6239  -4034429.7269  -2458274.8882   5  12   5.3949   4.6286   4.7465  -4.1447   3.5258  -3.3178   0.00    0.0
2019/01/15 09:43:09.000   4280231.8532  -4034427.7331  -2458274.4722   5  12   5.3949   4.6275   4.7451  -4.1439   3.5243  -3.3158   0.00    0.0
2019/01/15 09:43:10.000   4280229.0968  -4034418.8210  -2458266.8796   5  12   5.3949   4.6272   4.7447  -4.1436   3.5238  -3.3151   0.00    0.0
2019/01/15 09:43:11.000   4280222.4381  -4034415.8283  -2458269.8443   5  12   5.3948   4.6269   4.7443  -4.1433   3.5233  -3.3144   0.00    0.0
2019/01/15 09:43:12.000   4280228.6297  -4034422.8086  -2458276.1346   5  12   5.3948   4.6265   4.7438  -4.1431   3.5228  -3.3137   0.00    0.0
2019/01/15 09:43:14.000   4280215.5255  -4034409.5527  -2458264.6665   5  12   5.3948   4.6258   4.7429  -4.1425   3.5218  -3.3124   0.00    0.0
2019/01/15 09:43:21.000   4280215.9449  -4034412.3574  -2458260.1774   5  12   5.3947   4.6234   4.7398  -4.1406   3.5183  -3.3076   0.00    0.0
2019/01/15 09:43:22.000   4280224.8957  -4034418.3076  -2458267.9530   5  12   5.3947   4.6230   4.7394  -4.1403   3.5178  -3.3069   0.00    0.0
2019/01/15 09:43:24.000   4280198.0772  -4034391.9268  -2458250.6025   5  12   5.3946   4.6223   4.7385  -4.1398   3.5169  -3.3056   0.00    0.0
2019/01/15 09:43:25.000   4280210.4728  -4034410.1777  -2458262.5196   5  12   5.3946   4.6220   4.7381  -4.1395   3.5163  -3.3049   0.00    0.0
2019/01/15 09:43:28.000   4280209.7733  -4034405.1881  -2458258.8197   5  12   5.3946   4.6210   4.7367  -4.1387   3.5149  -3.3028   0.00    0.0
2019/01/15 09:43:30.000   4280216.0965  -4034408.2237  -2458259.6536   5  12   5.3946   4.6203   4.7358  -4.1382   3.5139  -3.3015   0.00    0.0
2019/01/15 09:43:31.000   4280222.4934  -4034420.2839  -2458257.1832   5  12   5.3945   4.6199   4.7354  -4.1379   3.5134  -3.3008   0.00    0.0
2019/01/15 09:43:32.000   4280238.2615  -4034421.7836  -2458262.1813   5  12   5.3945   4.6196   4.7349  -4.1376   3.5129  -3.3001   0.00    0.0
2019/01/15 09:43:33.000   4280228.2668  -4034408.9653  -2458257.5631   5  12   5.3945   4.6192   4.7345  -4.1373   3.5124  -3.2994   0.00    0.0
2019/01/15 09:43:34.000   4280217.4036  -4034403.0548  -2458269.5167   5  12   5.3945   4.6189   4.7341  -4.1371   3.5119  -3.2987   0.00    0.0
2019/01/15 09:43:37.000   4280209.9664  -4034400.3617  -2458256.2385   5  12   5.3945   4.6178   4.7327  -4.1363   3.5104  -3.2967   0.00    0.0
2019/01/15 09:43:38.000   4280219.9112  -4034399.3620  -2458262.3024   5  12   5.3944   4.6175   4.7323  -4.1360   3.5099  -3.2960   0.00    0.0
2019/01/15 09:43:39.000   4280215.9953  -4034406.3582  -2458262.0816   5  12   5.3944   4.6171   4.7318  -4.1357   3.5094  -3.2953   0.00    0.0
2019/01/15 09:43:40.000   4280210.7600  -4034412.9109  -2458269.7955   5  12   5.3944   4.6168   4.7314  -4.1355   3.5089  -3.2947   0.00    0.0
2019/01/15 09:43:41.000   4280222.0523  -4034409.4144  -2458265.2196   5  12   5.3944   4.6165   4.7309  -4.1352   3.5084  -3.2940   0.00    0.0
2019/01/15 09:43:42.000   4280228.3474  -4034424.1462  -2458256.2177   5  12   5.3944   4.6161   4.7305  -4.1349   3.5079  -3.2933   0.00    0.0
2019/01/15 09:43:46.000   4280218.7655  -4034403.5063  -2458259.6045   5  12   5.3943   4.6147   4.7287  -4.1338   3.5059  -3.2906   0.00    0.0
2019/01/15 09:43:48.000   4280227.6754  -4034409.7526  -2458266.9802   5  12   5.3943   4.6140   4.7278  -4.1333   3.5049  -3.2892   0.00    0.0
2019/01/15 09:43:49.000   4280235.5033  -4034428.9377  -2458271.1188   5  12   5.3943   4.6137   4.7274  -4.1330   3.5044  -3.2885   0.00    0.0
2019/01/15 09:43:51.000   4280223.1905  -4034415.4979  -2458259.0531   5  12   5.3943   4.6130   4.7265  -4.1325   3.5034  -3.2872   0.00    0.0
2019/01/15 09:43:52.000   4280214.7712  -4034408.2020  -2458255.1276   5  12   5.3943   4.6127   4.7260  -4.1322   3.5029  -3.2865   0.00    0.0
2019/01/15 09:43:54.000   4280213.8747  -4034401.6152  -2458254.3225   5  12   5.3942   4.6120   4.7251  -4.1317   3.5019  -3.2851   0.00    0.0
2019/01/15 09:43:55.000   4280212.2802  -4034406.0892  -2458263.4316   5  12   5.3942   4.6116   4.7247  -4.1314   3.5014  -3.2844   0.00    0.0
2019/01/15 09:43:56.000   4280209.6217  -4034401.4510  -2458262.1407   5  12   5.3942   4.6113   4.7243  -4.1311   3.5010  -3.2837   0.00    0.0
2019/01/15 09:43:58.000   4280219.9040  -4034421.0038  -2458266.5417   5  12   5.3942   4.6106   4.7234  -4.1306   3.5000  -3.2824   0.00    0.0
2019/01/15 09:44:06.000   4280221.3346  -4034420.2847  -2458261.8007   5  10   5.8362   5.7828   4.7291  -4.9183   3.6408  -3.3664   0.00    0.0
2019/01/15 09:44:07.000   4280220.9629  -4034424.2229  -2458268.2623   5  10   5.8362   5.7824   4.7286  -4.9180   3.6405  -3.3658   0.00    0.0
2019/01/15 09:44:09.000   4280218.6661  -4034418.8271  -2458269.0069   5  11   5.8361   5.6207   4.7261  -4.9206   3.6161  -3.3650   0.00    0.0
2019/01/15 09:44:10.000   4280220.8670  -4034421.7218  -2458274.6334   5  11   5.8361   5.6203   4.7256  -4.9203   3.6156  -3.3643   0.00    0.0
2019/01/15 09:44:13.000   4280205.1189  -4034409.2695  -2458257.5696   5  11   5.8360   5.6192   4.7243  -4.9194   3.6143  -3.3624   0.00    0.0
2019/01/15 09:44:16.000   4280222.3195  -4034417.7456  -2458289.2921   5  12   5.3940   4.6045   4.7153  -4.1257   3.4910  -3.2701   0.00    0.0
2019/01/15 09:44:19.000   4280226.0970  -4034419.1507  -2458287.3628   5  12   5.3940   4.6034   4.7140  -4.1249   3.4895  -3.2680   0.00    0.0
2019/01/15 09:44:22.000   4280213.5981  -4034409.2771  -2458269.6531   5  12   5.3939   4.6024   4.7126  -4.1241   3.4880  -3.2660   0.00    0.0
2019/01/15 09:44:24.000   4280232.5582  -4034422.2145  -2458284.5687   5  12   5.3939   4.6017   4.7117  -4.1236   3.4871  -3.2646   0.00    0.0
2019/01/15 09:44:25.000   4280233.0948  -4034424.0752  -2458278.0024   5  12   5.3939   4.6014   4.7113  -4.1233   3.4866  -3.2639   0.00    0.0
2019/01/15 09:44:26.000   4280222.1517  -4034420.7924  -2458267.8955   5  12   5.3939   4.6011   4.7108  -4.1231   3.4861  -3.2632   0.00    0.0
2019/01/15 09:44:30.000   4280200.6630  -4034398.6204  -2458254.7325   5  12   5.3939   4.5997   4.7090  -4.1220   3.4841  -3.2605   0.00    0.0
2019/01/15 09:44:36.000   4280227.5977  -4034433.3907  -2458273.5070   5  12   5.3938   4.5977   4.7063  -4.1204   3.4811  -3.2564   0.00    0.0
2019/01/15 09:44:39.000   4280212.9338  -4034411.4149  -2458258.1277   5  12   5.3938   4.5967   4.7050  -4.1196   3.4796  -3.2543   0.00    0.0
2019/01/15 09:44:40.000   4280225.0640  -4034426.2512  -2458274.2933   5  12   5.3938   4.5963   4.7045  -4.1193   3.4791  -3.2536   0.00    0.0
2019/01/15 09:44:41.000   4280218.9882  -4034418.0817  -2458264.1231   5  12   5.3938   4.5960   4.7041  -4.1191   3.4786  -3.2530   0.00    0.0
2019/01/15 09:44:49.000   4280236.7936  -4034425.9044  -2458268.3255   5  12   5.3937   4.5933   4.7005  -4.1170   3.4747  -3.2475   0.00    0.0
2019/01/15 09:44:51.000   4280232.2201  -4034424.8222  -2458262.7775   5  12   5.3937   4.5926   4.6996  -4.1164   3.4737  -3.2461   0.00    0.0
2019/01/15 09:44:53.000   4280217.7458  -4034418.4080  -2458257.8286   5  12   5.3937   4.5920   4.6987  -4.1159   3.4727  -3.2447   0.00    0.0
2019/01/15 09:44:58.000   4280226.8099  -4034423.9248  -2458262.3704   5  12   5.3937   4.5903   4.6964  -4.1146   3.4702  -3.2413   0.00    0.0
2019/01/15 09:45:02.000   4280230.4382  -4034412.7540  -2458264.4236   5  12   5.3937   4.5889   4.6946  -4.1135   3.4682  -3.2386   0.00    0.0
2019/01/15 09:45:07.000   4280227.1233  -4034419.2094  -2458258.9964   5  12   5.3937   4.5873   4.6924  -4.1122   3.4658  -3.2351   0.00    0.0
2019/01/15 09:45:09.000   4280219.1499  -4034417.1570  -2458257.1334   5  12   5.3937   4.5866   4.6915  -4.1117   3.4648  -3.2337   0.00    0.0
2019/01/15 09:45:12.000   4280235.8604  -4034428.7676  -2458267.4134   5  12   5.3936   4.5856   4.6901  -4.1109   3.4633  -3.2317   0.00    0.0
2019/01/15 09:45:13.000   4280226.4756  -4034415.8874  -2458259.9891   5  12   5.3936   4.5853   4.6897  -4.1106   3.4628  -3.2310   0.00    0.0
2019/01/15 09:45:16.000   4280236.0917  -4034427.4414  -2458272.4688   5  12   5.3936   4.5843   4.6883  -4.1098   3.4613  -3.2289   0.00    0.0
2019/01/15 09:45:26.000   4280230.7510  -4034415.4767  -2458260.1516   5  12   5.3936   4.5809   4.6838  -4.1072   3.4564  -3.2221   0.00    0.0
2019/01/15 09:45:31.000   4280228.5326  -4034419.0197  -2458258.1289   5  12   5.3936   4.5793   4.6815  -4.1059   3.4539  -3.2186   0.00    0.0
2019/01/15 09:45:32.000   4280221.4814  -4034415.5584  -2458257.8839   5  12   5.3936   4.5790   4.6811  -4.1057   3.4534  -3.2179   0.00    0.0
2019/01/15 09:45:33.000   4280222.1350  -4034418.5174  -2458258.7918   5  12   5.3936   4.5786   4.6806  -4.1054   3.4529  -3.2172   0.00    0.0
2019/01/15 09:45:34.000   4280217.9496  -4034418.4326  -2458266.1052   5  12   5.3936   4.5783   4.6802  -4.1052   3.4524  -3.2166   0.00    0.0
2019/01/15 09:45:40.000   4280215.7368  -4034422.8114  -2458266.0294   5  12   5.3936   4.5763   4.6775  -4.1036   3.4494  -3.2124   0.00    0.0
2019/01/15 09:45:41.000   4280215.8468  -4034418.3713  -2458271.8301   5  12   5.3936   4.5760   4.6770  -4.1033   3.4489  -3.2117   0.00    0.0
2019/01/15 09:45:42.000   4280209.3013  -4034414.4768  -2458269.8747   5  12   5.3936   4.5756   4.6766  -4.1031   3.4485  -3.2111   0.00    0.0
2019/01/15 09:45:44.000   4280213.4750  -4034407.6287  -2458263.7141   5  12   5.3936   4.5750   4.6756  -4.1026   3.4475  -3.2097   0.00    0.0
2019/01/15 09:45:45.000   4280225.6727  -4034415.8044  -2458270.0990   5  12   5.3936   4.5747   4.6752  -4.1023   3.4470  -3.2090   0.00    0.0
2019/01/15 09:45:46.000   4280204.8349  -4034405.8959  -2458260.5760   5  12   5.3936   4.5743   4.6747  -4.1020   3.4465  -3.2083   0.00    0.0
2019/01/15 09:45:47.000   4280222.9370  -4034423.0972  -2458271.2687   5  12   5.3936   4.5740   4.6743  -4.1018   3.4460  -3.2076   0.00    0.0
2019/01/15 09:45:50.000   4280208.2890  -4034406.7372  -2458258.4795   5  12   5.3936   4.5730   4.6729  -4.1010   3.4445  -3.2055   0.00    0.0
2019/01/15 09:45:51.000   4280216.6913  -4034417.7915  -2458254.4790   5  12   5.3936   4.5727   4.6725  -4.1007   3.4440  -3.2049   0.00    0.0
2019/01/15 09:45:52.000   4280224.2548  -4034420.0719  -2458278.0627   5  12   5.3936   4.5724   4.6720  -4.1005   3.4435  -3.2042   0.00    0.0
2019/01/15 09:46:04.000   4280203.0953  -4034396.6681  -2458268.9197   5  12   5.3936   4.5684   4.6666  -4.0974   3.4376  -3.1959   0.00    0.0
2019/01/15 09:46:17.000   4280223.6274  -4034416.6047  -2458273.3342   5  12   5.3937   4.5642   4.6607  -4.0940   3.4312  -3.1869   0.00    0.0
2019/01/15 09:46:29.000   4280224.3797  -4034417.6392  -2458276.6063   5  12   5.3937   4.5603   4.6552  -4.0910   3.4253  -3.1786   0.00    0.0
2019/01/15 09:46:31.000   4280221.8523  -4034420.3855  -2458275.1558   5  12   5.3938   4.5596   4.6543  -4.0905   3.4243  -3.1773   0.00    0.0
2019/01/15 09:46:32.000   4280220.3480  -4034410.8727  -2458257.4620   5  12   5.3938   4.5593   4.6538  -4.0902   3.4238  -3.1766   0.00    0.0
2019/01/15 09:46:33.000   4280224.6075  -4034421.4014  -2458266.2570   5  12   5.3938   4.5590   4.6534  -4.0900   3.4233  -3.1759   0.00    0.0
2019/01/15 09:46:36.000   4280231.1146  -4034426.5685  -2458285.1154   5  12   5.3938   4.5580   4.6520  -4.0892   3.4218  -3.1738   0.00    0.0
2019/01/15 09:46:37.000   4280220.8231  -4034425.5908  -2458284.3520   5  12   5.3938   4.5577   4.6516  -4.0889   3.4213  -3.1731   0.00    0.0
2019/01/15 09:46:38.000   4280219.9546  -4034423.5921  -2458275.1496   5  12   5.3938   4.5574   4.6511  -4.0887   3.4209  -3.1724   0.00    0.0
2019/01/15 09:46:39.000   4280236.7700  -4034436.1766  -2458279.8083   5  12   5.3938   4.5571   4.6506  -4.0884   3.4204  -3.1717   0.00    0.0
2019/01/15 09:46:41.000   4280218.4266  -4034424.1861  -2458270.6717   5  12   5.3938   4.5564   4.6497  -4.0879   3.4194  -3.1703   0.00    0.0
2019/01/15 09:46:42.000   4280214.8305  -4034425.1295  -2458271.5480   5  12   5.3938   4.5561   4.6493  -4.0877   3.4189  -3.1697   0.00    0.0
2019/01/15 09:46:43.000   4280229.2901  -4034435.2714  -2458270.8767   5  12   5.3938   4.5558   4.6488  -4.0874   3.4184  -3.1690   0.00    0.0
2019/01/15 09:46:44.000   4280235.4816  -4034438.5190  -2458274.4123   5  12   5.3938   4.5554   4.6484  -4.0872   3.4179  -3.1683   0.00    0.0
2019/01/15 09:46:46.000   4280214.7554  -4034415.2246  -2458255.4043   5  12   5.3939   4.5548   4.6475  -4.0867   3.4169  -3.1669   0.00    0.0
2019/01/15 09:46:48.000   4280230.9618  -4034425.4073  -2458270.6126   5  12   5.3939   4.5542   4.6465  -4.0861   3.4159  -3.1655   0.00    0.0
2019/01/15 09:46:49.000   4280238.1513  -4034417.2200  -2458261.6186   5  12   5.3939   4.5538   4.6461  -4.0859   3.4154  -3.1648   0.00    0.0
2019/01/15 09:46:50.000   4280220.2505  -4034408.3859  -2458265.2600   5  12   5.3939   4.5535   4.6456  -4.0856   3.4150  -3.1641   0.00    0.0
2019/01/15 09:46:51.000   4280227.7709  -4034424.2123  -2458275.7500   5  12   5.3939   4.5532   4.6452  -4.0854   3.4145  -3.1634   0.00    0.0
2019/01/15 09:46:52.000   4280239.1420  -4034424.4048  -2458277.6457   5  12   5.3939   4.5529   4.6447  -4.0851   3.4140  -3.1627   0.00    0.0
2019/01/15 09:46:55.000   4280235.2778  -4034426.4299  -2458258.1888   5  12   5.3939   4.5519   4.6433  -4.0844   3.4125  -3.1607   0.00    0.0
2019/01/15 09:46:56.000   4280233.3939  -4034421.9454  -2458264.9969   5  12   5.3939   4.5516   4.6429  -4.0841   3.4120  -3.1600   0.00    0.0
2019/01/15 09:47:00.000   4280228.8384  -4034423.4775  -2458268.9179   5  12   5.3940   4.5503   4.6411  -4.0831   3.4100  -3.1572   0.00    0.0
2019/01/15 09:47:02.000   4280230.5480  -4034427.3718  -2458263.3383   5  12   5.3940   4.5497   4.6401  -4.0826   3.4091  -3.1558   0.00    0.0
2019/01/15 09:47:05.000   4280240.3751  -4034433.3910  -2458268.8407   5  12   5.3940   4.5487   4.6388  -4.0819   3.4076  -3.1537   0.00    0.0
2019/01/15 09:47:06.000   4280227.9795  -4034421.1121  -2458259.7691   5  12   5.3940   4.5484   4.6383  -4.0816   3.4071  -3.1531   0.00    0.0
2019/01/15 09:47:09.000   4280232.3314  -4034429.1143  -2458277.0249   5  12   5.3941   4.5474   4.6369  -4.0809   3.4056  -3.1510   0.00    0.0
2019/01/15 09:47:15.000   4280221.4311  -4034424.6131  -2458273.0159   5  12   5.3941   4.5455   4.6342  -4.0794   3.4027  -3.1468   0.00    0.0
2019/01/15 09:47:22.000   4280229.1832  -4034423.3922  -2458262.1461   5  12   5.3942   4.5433   4.6310  -4.0776   3.3993  -3.1420   0.00    0.0
2019/01/15 09:47:23.000   4280214.3606  -4034420.6296  -2458258.0082   5  12   5.3942   4.5430   4.6305  -4.0774   3.3988  -3.1413   0.00    0.0
2019/01/15 09:47:24.000   4280217.4114  -4034422.0533  -2458268.7109   5  12   5.3942   4.5427   4.6301  -4.0771   3.3983  -3.1406   0.00    0.0
2019/01/15 09:47:27.000   4280226.7733  -4034428.0099  -2458260.4642   5  12   5.3943   4.5417   4.6287  -4.0764   3.3968  -3.1385   0.00    0.0
2019/01/15 09:47:29.000   4280214.0730  -4034416.5427  -2458262.5531   5  12   5.3943   4.5411   4.6278  -4.0759   3.3958  -3.1371   0.00    0.0
2019/01/15 09:47:33.000   4280219.7052  -4034420.5856  -2458265.4484   5  12   5.3944   4.5398   4.6260  -4.0749   3.3939  -3.1344   0.00    0.0
2019/01/15 09:47:35.000   4280221.8238  -4034419.0978  -2458275.9284   5  12   5.3944   4.5392   4.6251  -4.0744   3.3929  -3.1330   0.00    0.0
2019/01/15 09:47:36.000   4280215.4348  -4034414.2621  -2458274.7880   5  12   5.3944   4.5389   4.6246  -4.0741   3.3924  -3.1323   0.00    0.0
2019/01/15 09:47:38.000   4280221.5502  -4034423.9903  -2458272.7151   5  12   5.3944   4.5383   4.6237  -4.0736   3.3914  -3.1309   0.00    0.0
2019/01/15 09:47:39.000   4280217.0843  -4034420.9333  -2458259.8505   5  12   5.3944   4.5380   4.6232  -4.0734   3.3909  -3.1302   0.00    0.0
2019/01/15 09:47:41.000   4280213.8269  -4034421.1208  -2458263.2866   5  12   5.3945   4.5373   4.6223  -4.0729   3.3900  -3.1288   0.00    0.0
2019/01/15 09:47:42.000   4280221.7375  -4034422.0942  -2458260.1770   5  12   5.3945   4.5370   4.6219  -4.0726   3.3895  -3.1281   0.00    0.0
2019/01/15 09:47:43.000   4280220.0602  -4034418.3092  -2458259.2222   5  12   5.3945   4.5367   4.6214  -4.0724   3.3890  -3.1274   0.00    0.0
2019/01/15 09:47:45.000   4280215.4781  -4034412.1803  -2458257.6813   5  12   5.3945   4.5361   4.6205  -4.0719   3.3880  -3.1261   0.00    0.0
2019/01/15 09:47:49.000   4280224.3553  -4034427.8890  -2458269.5758   5  12   5.3946   4.5348   4.6186  -4.0709   3.3861  -3.1233   0.00    0.0
2019/01/15 09:47:50.000   4280233.1859  -4034432.5060  -2458272.7875   5  12   5.3946   4.5345   4.6182  -4.0706   3.3856  -3.1226   0.00    0.0
2019/01/15 09:47:52.000   4280221.2620  -4034412.7697  -2458269.1833   5  12   5.3946   4.5339   4.6173  -4.0702   3.3846  -3.1212   0.00    0.0
2019/01/15 09:47:53.000   4280217.3801  -4034405.2521  -2458265.2445   5  12   5.3947   4.5336   4.6168  -4.0699   3.3841  -3.1205   0.00    0.0
2019/01/15 09:47:56.000   4280224.8753  -4034413.2170  -2458258.6588   5  12   5.3947   4.5326   4.6154  -4.0692   3.3826  -3.1184   0.00    0.0
2019/01/15 09:47:57.000   4280220.9115  -4034416.7892  -2458264.4828   5  12   5.3947   4.5323   4.6150  -4.0689   3.3822  -3.1177   0.00    0.0
2019/01/15 09:47:58.000   4280241.2507  -4034420.9461  -2458269.6657   5  12   5.3947   4.5320   4.6145  -4.0687   3.3817  -3.1170   0.00    0.0
2019/01/15 09:47:59.000   4280224.2159  -4034418.8732  -2458259.2754   5  12   5.3948   4.5317   4.6141  -4.0684   3.3812  -3.1164   0.00    0.0
2019/01/15 09:48:00.000   4280230.4861  -4034419.2687  -2458262.4260   5  12   5.3948   4.5314   4.6136  -4.0682   3.3807  -3.1157   0.00    0.0
2019/01/15 09:48:02.000   4280223.2500  -4034405.6879  -2458255.6241   5  12   5.3948   4.5308   4.6127  -4.0677   3.3797  -3.1143   0.00    0.0
2019/01/15 09:48:08.000   4280222.3057  -4034420.3900  -2458275.5877   5  12   5.3949   4.5289   4.6099  -4.0662   3.3768  -3.1101   0.00    0.0
2019/01/15 09:48:09.000   4280229.2763  -4034424.5671  -2458266.7803   5  12   5.3949   4.5286   4.6095  -4.0660   3.3763  -3.1094   0.00    0.0
2019/01/15 09:48:13.000   4280224.8646  -4034421.9668  -2458274.5837   5  12   5.3950   4.5273   4.6076  -4.0650   3.3743  -3.1066   0.00    0.0
2019/01/15 09:48:26.000   4280214.1749  -4034418.6279  -2458263.0197   5  12   5.3952   4.5233   4.6017  -4.0618   3.3680  -3.0976   0.00    0.0
2019/01/15 09:48:29.000   4280232.3148  -4034429.8900  -2458267.5265   5  12   5.3953   4.5224   4.6003  -4.0611   3.3666  -3.0955   0.00    0.0
2019/01/15 09:48:30.000   4280220.9943  -4034418.4523  -2458266.5771   5  12   5.3953   4.5221   4.5998  -4.0609   3.3661  -3.0948   0.00    0.0
2019/01/15 09:48:31.000   4280208.1311  -4034412.5076  -2458262.7794   5  12   5.3954   4.5218   4.5994  -4.0606   3.3656  -3.0942   0.00    0.0
2019/01/15 09:48:32.000   4280230.7555  -4034421.9970  -2458270.9263   5  12   5.3954   4.5215   4.5989  -4.0604   3.3651  -3.0935   0.00    0.0
2019/01/15 09:48:33.000   4280231.2993  -4034420.4547  -2458270.7197   5  12   5.3954   4.5212   4.5985  -4.0601   3.3646  -3.0928   0.00    0.0
2019/01/15 09:48:36.000   4280225.8842  -4034426.7923  -2458279.7347   5  12   5.3955   4.5202   4.5971  -4.0594   3.3632  -3.0907   0.00    0.0
2019/01/15 09:48:37.000   4280224.9407  -4034422.7087  -2458271.9007   5  12   5.3955   4.5199   4.5966  -4.0592   3.3627  -3.0900   0.00    0.0
2019/01/15 09:48:38.000   4280226.7305  -4034418.2611  -2458263.0507   5  12   5.3955   4.5196   4.5962  -4.0589   3.3622  -3.0893   0.00    0.0
2019/01/15 09:48:39.000   4280230.6160  -4034425.8403  -2458266.1045   5  12   5.3955   4.5193   4.5957  -4.0587   3.3617  -3.0886   0.00    0.0
2019/01/15 09:48:43.000   4280232.9271  -4034429.3501  -2458272.3212   5  11   5.7124   4.8199   4.6204  -4.4288   3.2339  -2.9318   0.00    0.0
2019/01/15 09:48:45.000   4280213.7555  -4034409.9498  -2458269.3135   5  11   5.7131   4.8197   4.6194  -4.4289   3.2330  -2.9303   0.00    0.0
2019/01/15 09:48:46.000   4280211.4246  -4034399.9005  -2458251.7573   5  11   5.7134   4.8196   4.6189  -4.4290   3.2325  -2.9295   0.00    0.0
2019/01/15 09:48:49.000   4280221.5316  -4034405.2452  -2458255.9262   5  11   5.7145   4.8192   4.6175  -4.4292   3.2310  -2.9273   0.00    0.0
2019/01/15 09:48:50.000   4280225.3520  -4034413.0426  -2458247.6463   5  11   5.7148   4.8190   4.6170  -4.4293   3.2305  -2.9265   0.00    0.0
2019/01/15 09:48:51.000   4280229.3301  -4034405.0400  -2458257.8071   5  11   5.7152   4.8189   4.6165  -4.4293   3.2300  -2.9257   0.00    0.0
2019/01/15 09:48:52.000   4280220.5672  -4034401.0186  -2458257.2150   5  11   5.7155   4.8188   4.6161  -4.4294   3.2295  -2.9250   0.00    0.0
2019/01/15 09:48:53.000   4280232.2905  -4034406.5452  -2458267.3878   5  11   5.7159   4.8187   4.6156  -4.4295   3.2290  -2.9242   0.00    0.0
2019/01/15 09:48:54.000   4280217.0095  -4034416.4497  -2458272.9143   5  11   5.7162   4.8185   4.6151  -4.4295   3.2285  -2.9235   0.00    0.0
2019/01/15 09:48:59.000   4280216.8680  -4034415.7850  -2458261.9568   5  11   5.7180   4.8179   4.6127  -4.4299   3.2261  -2.9197   0.00    0.0
2019/01/15 09:49:00.000   4280203.8988  -4034404.3108  -2458251.2855   5  11   5.7183   4.8178   4.6123  -4.4299   3.2256  -2.9190   0.00    0.0
2019/01/15 09:49:01.000   4280202.3464  -4034401.2481  -2458253.5673   5  11   5.7187   4.8177   4.6118  -4.4300   3.2251  -2.9182   0.00    0.0
2019/01/15 09:49:02.000   4280224.0832  -4034415.4828  -2458263.2841   5  11   5.7190   4.8176   4.6113  -4.4301   3.2246  -2.9175   0.00    0.0
2019/01/15 09:49:03.000   4280231.5050  -4034423.4611  -2458259.0240   5  11   5.7194   4.8174   4.6108  -4.4301   3.2241  -2.9167   0.00    0.0
2019/01/15 09:49:04.000   4280221.1890  -4034411.9103  -2458249.7059   5  11   5.7197   4.8173   4.6103  -4.4302   3.2237  -2.9160   0.00    0.0
2019/01/15 09:49:05.000   4280234.7227  -4034421.9251  -2458260.3779   5  11   5.7201   4.8172   4.6099  -4.4303   3.2232  -2.9152   0.00    0.0
2019/01/15 09:49:06.000   4280236.2773  -4034416.4948  -2458263.7122   5  11   5.7204   4.8171   4.6094  -4.4304   3.2227  -2.9144   0.00    0.0
2019/01/15 09:49:07.000   4280242.8544  -4034428.8691  -2458264.8631   5  11   5.7208   4.8169   4.6089  -4.4304   3.2222  -2.9137   0.00    0.0
2019/01/15 09:49:09.000   4280234.4131  -4034421.4805  -2458277.1913   5  11   5.7215   4.8167   4.6080  -4.4306   3.2212  -2.9122   0.00    0.0
2019/01/15 09:49:10.000   4280206.8180  -4034415.7280  -2458267.1574   5  11   5.7218   4.8166   4.6075  -4.4306   3.2207  -2.9114   0.00    0.0
2019/01/15 09:49:11.000   4280231.4758  -4034423.4570  -2458274.6871   5  11   5.7222   4.8164   4.6070  -4.4307   3.2202  -2.9107   0.00    0.0
2019/01/15 09:49:13.000   4280236.4584  -4034415.2182  -2458267.9959   5  11   5.7229   4.8162   4.6060  -4.4308   3.2193  -2.9092   0.00    0.0
2019/01/15 09:49:17.000   4280222.0389  -4034425.4651  -2458273.8125   5  11   5.7243   4.8157   4.6041  -4.4311   3.2173  -2.9062   0.00    0.0
2019/01/15 09:49:18.000   4280234.2859  -4034438.7807  -2458275.1416   5  11   5.7247   4.8156   4.6037  -4.4312   3.2168  -2.9054   0.00    0.0
2019/01/15 09:49:19.000   4280232.7935  -4034426.3004  -2458260.2918   5  11   5.7250   4.8155   4.6032  -4.4313   3.2163  -2.9046   0.00    0.0
2019/01/15 09:49:23.000   4280217.3631  -4034421.5564  -2458274.6608   5  11   5.7265   4.8150   4.6013  -4.4316   3.2144  -2.9016   0.00    0.0
2019/01/15 09:49:24.000   4280212.8118  -4034419.6917  -2458275.6453   5  11   5.7268   4.8149   4.6008  -4.4316   3.2139  -2.9009   0.00    0.0
2019/01/15 09:49:26.000   4280216.8651  -4034421.6051  -2458268.7428   5  11   5.7275   4.8146   4.5998  -4.4318   3.2129  -2.8994   0.00    0.0
2019/01/15 09:49:27.000   4280209.4375  -4034404.9798  -2458253.2566   5  11   5.7279   4.8145   4.5994  -4.4319   3.2124  -2.8986   0.00    0.0
2019/01/15 09:49:28.000   4280221.6714  -4034416.5193  -2458274.6660   5  11   5.7283   4.8144   4.5989  -4.4319   3.2120  -2.8979   0.00    0.0
2019/01/15 09:49:29.000   4280210.4712  -4034407.3550  -2458273.7031   5  11   5.7286   4.8143   4.5984  -4.4320   3.2115  -2.8971   0.00    0.0
2019/01/15 09:49:32.000   4280209.9935  -4034418.5107  -2458269.3444   5  11   5.7297   4.8139   4.5970  -4.4322   3.2100  -2.8949   0.00    0.0
2019/01/15 09:49:33.000   4280224.4504  -4034420.2258  -2458272.4718   5  11   5.7301   4.8138   4.5965  -4.4323   3.2095  -2.8941   0.00    0.0
2019/01/15 09:49:34.000   4280232.5595  -4034422.5005  -2458271.6642   5  11   5.7304   4.8137   4.5960  -4.4324   3.2090  -2.8933   0.00    0.0
2019/01/15 09:49:38.000   4280231.0834  -4034416.3542  -2458274.8903   5  11   5.7319   4.8132   4.5941  -4.4327   3.2071  -2.8903   0.00    0.0
2019/01/15 09:49:41.000   4280224.1308  -4034408.5988  -2458268.6595   5  11   5.7329   4.8129   4.5927  -4.4329   3.2056  -2.8881   0.00    0.0
2019/01/15 09:49:42.000   4280214.3417  -4034410.8985  -2458261.4672   5  11   5.7333   4.8128   4.5922  -4.4330   3.2051  -2.8873   0.00    0.0
2019/01/15 09:49:45.000   4280224.0640  -4034407.9659  -2458264.0718   5  11   5.7344   4.8124   4.5908  -4.4332   3.2037  -2.8851   0.00    0.0
2019/01/15 09:49:46.000   4280226.6287  -4034419.0476  -2458270.0044   5  11   5.7348   4.8123   4.5903  -4.4333   3.2032  -2.8843   0.00    0.0
2019/01/15 09:49:47.000   4280215.2135  -4034406.9521  -2458261.2224   5  11   5.7351   4.8122   4.5898  -4.4334   3.2027  -2.8836   0.00    0.0
2019/01/15 09:49:48.000   4280224.3588  -4034411.5837  -2458272.4467   5  11   5.7355   4.8121   4.5893  -4.4334   3.2022  -2.8828   0.00    0.0
2019/01/15 09:49:49.000   4280215.4092  -4034408.6071  -2458261.7730   5  11   5.7358   4.8119   4.5889  -4.4335   3.2018  -2.8820   0.00    0.0
2019/01/15 09:49:50.000   4280231.0636  -4034418.3274  -2458261.9255   5  11   5.7362   4.8118   4.5884  -4.4336   3.2013  -2.8813   0.00    0.0
2019/01/15 09:49:51.000   4280223.4194  -4034417.5752  -2458263.5115   5  11   5.7366   4.8117   4.5879  -4.4337   3.2008  -2.8805   0.00    0.0
2019/01/15 09:49:52.000   4280225.0154  -4034416.3638  -2458260.6232   5  11   5.7369   4.8116   4.5874  -4.4337   3.2003  -2.8798   0.00    0.0
2019/01/15 09:49:54.000   4280221.4837  -4034412.3538  -2458274.2978   5  11   5.7377   4.8114   4.5865  -4.4339   3.1993  -2.8783   0.00    0.0
2019/01/15 09:49:55.000   4280216.2999  -4034404.0075  -2458265.6814   5  11   5.7380   4.8113   4.5860  -4.4340   3.1988  -2.8775   0.00    0.0
2019/01/15 09:49:56.000   4280218.2624  -4034405.6015  -2458253.0720   5  11   5.7384   4.8111   4.5855  -4.4341   3.1984  -2.8768   0.00    0.0
2019/01/15 09:49:57.000   4280218.8103  -4034418.5912  -2458263.7678   5  11   5.7388   4.8110   4.5850  -4.4341   3.1979  -2.8760   0.00    0.0
2019/01/15 09:49:59.000   4280220.6147  -4034412.2772  -2458271.6863   5  11   5.7395   4.8108   4.5841  -4.4343   3.1969  -2.8745   0.00    0.0
2019/01/15 09:50:00.000   4280223.2558  -4034415.3592  -2458268.4299   5  11   5.7399   4.8107   4.5836  -4.4344   3.1964  -2.8738   0.00    0.0
2019/01/15 09:50:01.000   4280218.9557  -4034415.5474  -2458255.3235   5  11   5.7402   4.8106   4.5831  -4.4345   3.1959  -2.8730   0.00    0.0
2019/01/15 09:50:02.000   4280230.2412  -4034421.5793  -2458264.1720   5  11   5.7406   4.8104   4.5827  -4.4345   3.1954  -2.8722   0.00    0.0
2019/01/15 09:50:04.000   4280207.3447  -4034406.7870  -2458269.0847   5  11   5.7413   4.8102   4.5817  -4.4347   3.1945  -2.8707   0.00    0.0
2019/01/15 09:50:13.000   4280227.8694  -4034419.9617  -2458265.4782   5  11   5.7446   4.8092   4.5774  -4.4354   3.1901  -2.8640   0.00    0.0
2019/01/15 09:50:15.000   4280223.6658  -4034417.1145  -2458257.8644   5  11   5.7454   4.8090   4.5765  -4.4356   3.1892  -2.8625   0.00    0.0
2019/01/15 09:50:16.000   4280215.4805  -4034406.7690  -2458260.0929   5  11   5.7458   4.8089   4.5760  -4.4357   3.1887  -2.8617   0.00    0.0
2019/01/15 09:50:17.000   4280219.8186  -4034408.2331  -2458263.2739   5  11   5.7461   4.8088   4.5755  -4.4358   3.1882  -2.8609   0.00    0.0
2019/01/15 09:50:24.000   4280207.4108  -4034402.8943  -2458264.4908   5  11   5.7487   4.8080   4.5722  -4.4363   3.1848  -2.8557   0.00    0.0
2019/01/15 09:50:25.000   4280223.7613  -4034404.5000  -2458272.5664   5  11   5.7491   4.8079   4.5717  -4.4364   3.1843  -2.8549   0.00    0.0
2019/01/15 09:50:29.000   4280209.8343  -4034405.1827  -2458266.9736   5  11   5.7506   4.8074   4.5698  -4.4368   3.1824  -2.8519   0.00    0.0
2019/01/15 09:50:30.000   4280217.7011  -4034403.1488  -2458258.7383   5  11   5.7510   4.8073   4.5693  -4.4369   3.1819  -2.8512   0.00    0.0
2019/01/15 09:50:31.000   4280222.7053  -4034410.6392  -2458260.9436   5  11   5.7513   4.8072   4.5688  -4.4369   3.1814  -2.8504   0.00    0.0
2019/01/15 09:50:32.000   4280227.8004  -4034426.0091  -2458266.4682   5  11   5.7517   4.8071   4.5683  -4.4370   3.1810  -2.8496   0.00    0.0
2019/01/15 09:50:33.000   4280230.4799  -4034421.2481  -2458258.0606   5  11   5.7521   4.8070   4.5679  -4.4371   3.1805  -2.8489   0.00    0.0
2019/01/15 09:50:36.000   4280223.8164  -4034417.4356  -2458264.7990   5  11   5.7532   4.8067   4.5664  -4.4374   3.1790  -2.8466   0.00    0.0
2019/01/15 09:50:37.000   4280227.1966  -4034418.3259  -2458266.5319   5  11   5.7536   4.8066   4.5660  -4.4375   3.1785  -2.8459   0.00    0.0
2019/01/15 09:50:40.000   4280230.9449  -4034413.6801  -2458252.3021   5  11   5.7547   4.8062   4.5645  -4.4377   3.1771  -2.8436   0.00    0.0
2019/01/15 09:50:41.000   4280229.9654  -4034415.0201  -2458262.3415   5  11   5.7551   4.8061   4.5641  -4.4378   3.1766  -2.8429   0.00    0.0
2019/01/15 09:50:46.000   4280229.0644  -4034427.4016  -2458263.0433   5  11   5.7570   4.8056   4.5617  -4.4382   3.1742  -2.8391   0.00    0.0
2019/01/15 09:50:47.000   4280228.1965  -4034420.6421  -2458253.8527   5  11   5.7574   4.8055   4.5612  -4.4383   3.1737  -2.8383   0.00    0.0
2019/01/15 09:50:48.000   4280213.6101  -4034418.5816  -2458260.2449   5  11   5.7577   4.8054   4.5607  -4.4384   3.1733  -2.8376   0.00    0.0
2019/01/15 09:50:51.000   4280240.5240  -4034424.7218  -2458275.5614   5  11   5.7589   4.8051   4.5593  -4.4387   3.1718  -2.8353   0.00    0.0
2019/01/15 09:50:52.000   4280230.7390  -4034430.1369  -2458276.4302   5  11   5.7593   4.8050   4.5588  -4.4388   3.1713  -2.8346   0.00    0.0
2019/01/15 09:50:53.000   4280231.0043  -4034419.4014  -2458280.0826   5  11   5.7596   4.8049   4.5583  -4.4389   3.1708  -2.8338   0.00    0.0
2019/01/15 09:50:54.000   4280221.6454  -4034419.2096  -2458269.2333   5  11   5.7600   4.8048   4.5579  -4.4390   3.1704  -2.8331   0.00    0.0
2019/01/15 09:50:58.000   4280231.8427  -4034430.1559  -2458271.6596   5  11   5.7615   4.8043   4.5559  -4.4393   3.1684  -2.8301   0.00    0.0
2019/01/15 09:50:59.000   4280240.0815  -4034431.1783  -2458276.3059   5  11   5.7619   4.8042   4.5555  -4.4394   3.1680  -2.8293   0.00    0.0
2019/01/15 09:51:02.000   4280231.2222  -4034433.7125  -2458261.9192   5  11   5.7631   4.8039   4.5540  -4.4397   3.1665  -2.8270   0.00    0.0
2019/01/15 09:51:06.000   4280219.0851  -4034429.1836  -2458269.5085   5  11   5.7646   4.8035   4.5521  -4.4400   3.1646  -2.8240   0.00    0.0
2019/01/15 09:51:08.000   4280240.5424  -4034441.9805  -2458279.0436   5  11   5.7654   4.8033   4.5512  -4.4402   3.1637  -2.8225   0.00    0.0
2019/01/15 09:51:10.000   4280227.9191  -4034432.7179  -2458265.0462   5  11   5.7661   4.8031   4.5502  -4.4404   3.1627  -2.8210   0.00    0.0
2019/01/15 09:51:13.000   4280229.8714  -4034428.6779  -2458274.1346   5  11   5.7673   4.8028   4.5488  -4.4407   3.1613  -2.8188   0.00    0.0
2019/01/15 09:51:14.000   4280255.3473  -4034452.1854  -2458277.5592   5  11   5.7677   4.8027   4.5483  -4.4408   3.1608  -2.8180   0.00    0.0
