$GPGSV,3,1,11,07,45,161,34,08,22,108,25,09,57,080,37,23,28,060,27*75
$GPGSV,3,2,11,28,55,322,33,30,46,217,38,46,,,29,05,13,226,*47
$GPGSV,3,3,11,11,02,063,,17,03,354,,27,02,135,*49
$GLGSV,3,1,09,66,77,254,36,86,09,081,13,77,38,253,28,76,37,174,23*67
$GLGSV,3,2,09,65,33,015,25,67,25,209,30,75,03,136,,87,01,029,*63
$GLGSV,3,3,09,85,01,130,*52
$GPGGA,163738.0,2249.147762,S,04318.399655,W,1,06,0.9,-11.6,M,-3.0,M,,*56
$GNGNS,163738.0,2249.147762,S,04318.399655,W,AA,11,0.9,-11.6,-3.0,,*64
$GPVTG,245.6,T,245.6,M,0.0,N,0.0,K,A*23
$GPGSA,A,2,07,08,09,23,28,30,,,,,,,1.3,0.9,0.9*3F
$GNGSA,A,2,07,08,09,23,28,30,,,,,,,1.3,0.9,0.9*21
$GNGSA,A,2,65,66,67,76,77,,,,,,,,1.3,0.9,0.9*2C
$BDGSA,A,2,,,,,,,,,,,,,1.3,0.9,0.9*20
$GPRMC,163738.0,A,2249.147762,S,04318.399655,W,0.0,245.6,240817,0.0,E,A*08
$GPGSV,3,1,11,07,45,161,31,08,22,108,24,09,57,080,34,23,28,060,26*73
$GPGSV,3,2,11,28,55,322,31,30,46,217,37,46,,,29,05,13,226,*4A
$GPGSV,3,3,11,11,02,063,,17,03,354,,27,02,135,*49
$GLGSV,3,1,09,66,77,254,35,86,09,081,13,77,38,253,25,76,37,174,23*69
$GLGSV,3,2,09,65,33,015,23,67,25,209,27,75,03,136,,87,01,029,*63
$GLGSV,3,3,09,85,01,130,*52
$GPGGA,163739.0,2249.147762,S,04318.399653,W,1,06,0.9,-11.6,M,-3.0,M,,*51
$GNGNS,163739.0,2249.147762,S,04318.399653,W,AA,11,0.9,-11.6,-3.0,,*63
$GPVTG,245.6,T,245.6,M,0.0,N,0.0,K,A*23
$GPGSA,A,2,07,08,09,23,28,30,,,,,,,1.3,0.9,0.9*3F
$GNGSA,A,2,07,08,09,23,28,30,,,,,,,1.3,0.9,0.9*21
$GNGSA,A,2,65,66,67,76,77,,,,,,,,1.3,0.9,0.9*2C
$BDGSA,A,2,,,,,,,,,,,,,1.3,0.9,0.9*20
$GPRMC,163739.0,A,2249.147762,S,04318.399653,W,0.0,245.6,240817,0.0,E,A*0F
$GPGSV,3,1,11,07,45,161,29,08,22,108,24,09,57,080,32,23,28,060,27*7D
$GPGSV,3,2,11,28,55,322,32,30,46,217,37,46,,,29,05,13,226,*49
$GPGSV,3,3,11,11,02,063,,17,03,354,,27,02,135,*49
$GLGSV,3,1,09,66,77,254,35,86,09,081,12,77,38,253,25,76,37,174,28*63
$GLGSV,3,2,09,65,33,015,21,67,25,209,28,75,03,136,,87,01,029,*6E
$GLGSV,3,3,09,85,01,130,*52
$GPGGA,163740.0,2249.147761,S,04318.399649,W,1,06,0.9,-11.5,M,-3.0,M,,*54
$GNGNS,163740.0,2249.147761,S,04318.399649,W,AA,11,0.9,-11.5,-3.0,,*66
$GPVTG,245.6,T,245.6,M,0.0,N,0.0,K,A*23
$GPGSA,A,2,07,08,09,23,28,30,,,,,,,1.3,0.9,0.9*3F
$GNGSA,A,2,07,08,09,23,28,30,,,,,,,1.3,0.9,0.9*21
$GNGSA,A,2,65,66,67,76,77,,,,,,,,1.3,0.9,0.9*2C
$BDGSA,A,2,,,,,,,,,,,,,1.3,0.9,0.9*20
$GPRMC,163740.0,A,2249.147761,S,04318.399649,W,0.0,245.6,240817,0.0,E,A*09
$GPGSV,3,1,11,07,45,161,36,08,22,108,31,09,57,080,36,23,28,060,27*73
$GPGSV,3,2,11,28,55,322,32,30,46,217,36,46,,,29,05,13,226,*48
$GPGSV,3,3,11,11,02,063,,17,03,354,,27,02,135,*49
$GLGSV,3,1,09,66,77,254,36,86,09,081,12,77,38,253,24,76,37,174,28*61
$GLGSV,3,2,09,65,33,015,20,67,25,209,29,75,03,136,,87,01,029,*6E
$GLGSV,3,3,09,85,01,130,*52
$GPGGA,163741.0,2249.147760,S,04318.399650,W,1,06,0.9,-11.5,M,-3.0,M,,*5C
$GNGNS,163741.0,2249.147760,S,04318.399650,W,AA,11,0.9,-11.5,-3.0,,*6E
$GPVTG,245.6,T,245.6,M,0.0,N,0.0,K,A*23
$GPGSA,A,2,07,08,09,23,28,30,,,,,,,1.3,0.9,0.9*3F
$GNGSA,A,2,07,08,09,23,28,30,,,,,,,1.3,0.9,0.9*21
$GNGSA,A,2,65,66,67,76,77,,,,,,,,1.3,0.9,0.9*2C
$BDGSA,A,2,,,,,,,,,,,,,1.3,0.9,0.9*20
$GPRMC,163741.0,A,2249.147760,S,04318.399650,W,0.0,245.6,240817,0.0,E,A*01
$GPGSV,3,1,11,07,45,161,40,08,22,108,30,09,57,080,35,23,28,060,28*7F
$GPGSV,3,2,11,28,55,322,32,30,46,217,37,46,,,29,05,13,226,*49
$GPGSV,3,3,11,11,02,063,,17,03,354,,27,02,135,*49
$GLGSV,3,1,09,66,77,254,36,86,09,081,12,77,38,253,25,76,37,174,33*6A
$GLGSV,3,2,09,65,33,015,19,67,25,209,26,75,03,136,,87,01,029,*6B
$GLGSV,3,3,09,85,01,130,*52
$GPGGA,163742.0,2249.147757,S,04318.399646,W,1,06,0.9,-11.5,M,-3.0,M,,*5C
$GNGNS,163742.0,2249.147757,S,04318.399646,W,AA,11,0.9,-11.5,-3.0,,*6E
$GPVTG,245.6,T,245.6,M,0.0,N,0.0,K,A*23
$GPGSA,A,2,07,08,09,23,28,30,,,,,,,1.3,0.9,0.9*3F
$GNGSA,A,2,07,08,09,23,28,30,,,,,,,1.3,0.9,0.9*21
$GNGSA,A,2,65,66,67,76,77,,,,,,,,1.3,0.9,0.9*2C
$BDGSA,A,2,,,,,,,,,,,,,1.3,0.9,0.9*20
$GPRMC,163742.0,A,2249.147757,S,04318.399646,W,0.0,245.6,240817,0.0,E,A*01
$GPGSV,3,1,11,07,45,161,41,08,22,108,31,09,57,080,36,23,28,060,28*7C
$GPGSV,3,2,11,28,55,322,33,30,46,217,37,46,,,29,05,13,226,*48
$GPGSV,3,3,11,11,02,063,,17,03,354,,27,02,135,*49
$GLGSV,3,1,09,66,77,254,36,86,09,081,12,77,38,253,26,76,37,174,33*69
$GLGSV,3,2,09,65,33,015,19,67,25,209,30,75,03,136,,87,01,029,*6C
$GLGSV,3,3,09,85,01,130,*52
$GPGGA,163743.0,2249.147759,S,04318.399644,W,1,06,0.9,-11.5,M,-3.0,M,,*51
$GNGNS,163743.0,2249.147759,S,04318.399644,W,AA,11,0.9,-11.5,-3.0,,*63
$GPVTG,245.6,T,245.6,M,0.0,N,0.0,K,A*23
$GPGSA,A,2,07,08,09,23,28,30,,,,,,,1.3,0.9,0.9*3F
$GNGSA,A,2,07,08,09,23,28,30,,,,,,,1.3,0.9,0.9*21
$GNGSA,A,2,65,66,67,76,77,,,,,,,,1.3,0.9,0.9*2C
$BDGSA,A,2,,,,,,,,,,,,,1.3,0.9,0.9*20
$GPRMC,163743.0,A,2249.147759,S,04318.399644,W,0.0,245.6,240817,0.0,E,A*0C
$GPGSV,3,1,11,07,45,161,41,08,22,108,32,09,57,080,36,23,28,060,29*7E
$GPGSV,3,2,11,28,55,322,34,30,46,217,38,46,,,29,05,13,226,*40
$GPGSV,3,3,11,11,02,063,,17,03,354,,27,02,135,*49
$GLGSV,3,1,09,66,77,254,37,86,09,081,12,77,38,253,28,76,37,174,34*61
$GLGSV,3,2,09,65,33,015,20,67,25,209,29,75,03,136,,87,01,029,*6E
$GLGSV,3,3,09,85,01,130,*52
$GPGGA,163744.0,2249.147761,S,04318.399647,W,1,06,0.9,-11.5,M,-3.0,M,,*5E
$GNGNS,163744.0,2249.147761,S,04318.399647,W,AA,11,0.9,-11.5,-3.0,,*6C
$GPVTG,245.6,T,245.6,M,0.0,N,0.0,K,A*23
$GPGSA,A,2,07,08,09,23,28,30,,,,,,,1.3,0.9,0.9*3F
$GNGSA,A,2,07,08,09,23,28,30,,,,,,,1.3,0.9,0.9*21
$GNGSA,A,2,65,66,67,76,77,,,,,,,,1.3,0.9,0.9*2C
$BDGSA,A,2,,,,,,,,,,,,,1.3,0.9,0.9*20
$GPRMC,163744.0,A,2249.147761,S,04318.399647,W,0.0,245.6,240817,0.0,E,A*03
$GPGSV,3,1,11,07,45,161,41,08,22,108,32,09,57,080,36,23,28,060,28*7F
$GPGSV,3,2,11,28,55,322,34,30,46,217,38,46,,,29,05,13,226,*40
$GPGSV,3,3,11,11,02,063,,17,03,354,,27,02,135,*49
$GLGSV,3,1,09,66,77,254,37,86,09,081,12,77,38,253,28,76,37,174,34*61
$GLGSV,3,2,09,65,33,015,20,67,25,209,30,75,03,136,,87,01,029,*66
$GLGSV,3,3,09,85,01,130,*52
$GPGGA,163745.0,2249.147763,S,04318.399648,W,1,06,0.9,-11.4,M,-3.0,M,,*53
$GNGNS,163745.0,2249.147763,S,04318.399648,W,AA,11,0.9,-11.4,-3.0,,*61
$GPVTG,245.6,T,245.6,M,0.0,N,0.0,K,A*23
$GPGSA,A,2,07,08,09,23,28,30,,,,,,,1.3,0.9,0.9*3F
$GNGSA,A,2,07,08,09,23,28,30,,,,,,,1.3,0.9,0.9*21
$GNGSA,A,2,65,66,67,76,77,,,,,,,,1.3,0.9,0.9*2C
$BDGSA,A,2,,,,,,,,,,,,,1.3,0.9,0.9*20
$GPRMC,163745.0,A,2249.147763,S,04318.399648,W,0.0,245.6,240817,0.0,E,A*0F
$GPGSV,3,1,11,07,45,161,41,08,22,108,31,09,57,080,35,23,28,060,28*7F
$GPGSV,3,2,11,28,55,322,33,30,46,217,37,46,,,29,05,13,226,*48
$GPGSV,3,3,11,11,02,063,,17,03,354,,27,02,135,*49
$GLGSV,3,1,09,66,77,254,36,86,09,081,12,77,38,253,27,76,37,174,34*6F
$GLGSV,3,2,09,65,33,015,20,67,25,209,28,75,03,136,,87,01,029,*6F
$GLGSV,3,3,09,85,01,130,*52
$GPGGA,163746.0,2249.147765,S,04318.399649,W,1,06,0.9,-11.4,M,-3.0,M,,*57
$GNGNS,163746.0,2249.147765,S,04318.399649,W,AA,11,0.9,-11.4,-3.0,,*65
$GPVTG,245.6,T,245.6,M,0.0,N,0.0,K,A*23
$GPGSA,A,2,07,08,09,23,28,30,,,,,,,1.3,0.9,0.9*3F
$GNGSA,A,2,07,08,09,23,28,30,,,,,,,1.3,0.9,0.9*21
$GNGSA,A,2,65,66,67,76,77,,,,,,,,1.3,0.9,0.9*2C
$BDGSA,A,2,,,,,,,,,,,,,1.3,0.9,0.9*20
$GPRMC,163746.0,A,2249.147765,S,04318.399649,W,0.0,245.6,240817,0.0,E,A*0B
$GPGSV,3,1,11,07,45,161,41,08,22,108,32,09,57,080,36,23,28,060,28*7F
$GPGSV,3,2,11,28,55,322,34,30,46,217,37,46,,,29,05,13,226,*4F
$GPGSV,3,3,11,11,02,063,,17,03,354,,27,02,135,*49
$GLGSV,3,1,09,66,77,254,37,86,09,081,12,77,38,253,27,76,37,174,34*6E
$GLGSV,3,2,09,65,33,015,19,67,25,209,29,75,03,136,,87,01,029,*64
$GLGSV,3,3,09,85,01,130,*52
$GPGGA,163747.0,2249.147766,S,04318.399649,W,1,06,0.9,-11.4,M,-3.0,M,,*55
$GNGNS,163747.0,2249.147766,S,04318.399649,W,AA,11,0.9,-11.4,-3.0,,*67
$GPVTG,245.6,T,245.6,M,0.0,N,0.0,K,A*23
$GPGSA,A,2,07,08,09,23,28,30,,,,,,,1.3,0.9,0.9*3F
$GNGSA,A,2,07,08,09,23,28,30,,,,,,,1.3,0.9,0.9*21
$GNGSA,A,2,65,66,67,76,77,,,,,,,,1.3,0.9,0.9*2C
$BDGSA,A,2,,,,,,,,,,,,,1.3,0.9,0.9*20
$GPRMC,163747.0,A,2249.147766,S,04318.399649,W,0.0,245.6,240817,0.0,E,A*09
$GPGSV,3,1,11,07,45,161,41,08,22,108,32,09,57,080,37,23,28,060,28*7E
$GPGSV,3,2,11,28,55,322,34,30,46,217,38,46,,,29,05,13,226,*40
$GPGSV,3,3,11,11,02,063,,17,03,354,,27,02,135,*49
$GLGSV,3,1,09,66,77,254,37,86,09,081,12,77,38,253,28,76,37,174,34*61
$GLGSV,3,2,09,65,33,015,20,67,25,209,29,75,03,136,,87,01,029,*6E
$GLGSV,3,3,09,85,01,130,*52
$GPGGA,163748.0,2249.147770,S,04318.399652,W,1,06,0.9,-11.4,M,-3.0,M,,*57
$GNGNS,163748.0,2249.147770,S,04318.399652,W,AA,11,0.9,-11.4,-3.0,,*65
$GPVTG,245.6,T,245.6,M,0.0,N,0.0,K,A*23
$GPGSA,A,2,07,08,09,23,28,30,,,,,,,1.3,0.9,0.9*3F
$GNGSA,A,2,07,08,09,23,28,30,,,,,,,1.3,0.9,0.9*21
$GNGSA,A,2,65,66,67,76,77,,,,,,,,1.3,0.9,0.9*2C
$BDGSA,A,2,,,,,,,,,,,,,1.3,0.9,0.9*20
$GPRMC,163748.0,A,2249.147770,S,04318.399652,W,0.0,245.6,240817,0.0,E,A*0B
$GPGSV,3,1,11,07,45,161,41,08,22,108,33,09,57,080,37,23,28,060,28*7F
$GPGSV,3,2,11,28,55,322,34,30,46,217,38,46,,,29,05,13,226,*40
$GPGSV,3,3,11,11,02,063,,17,03,354,,27,02,135,*49
$GLGSV,3,1,09,66,77,254,37,86,09,081,12,77,38,253,28,76,37,174,34*61
$GLGSV,3,2,09,65,33,015,20,67,25,209,30,75,03,136,,87,01,029,*66
$GLGSV,3,3,09,85,01,130,*52
$GPGGA,163749.0,2249.147772,S,04318.399655,W,1,06,0.9,-11.3,M,-3.0,M,,*54
$GNGNS,163749.0,2249.147772,S,04318.399655,W,AA,11,0.9,-11.3,-3.0,,*66
$GPVTG,245.6,T,245.6,M,0.0,N,0.0,K,A*23
$GPGSA,A,2,07,08,09,23,28,30,,,,,,,1.3,0.9,0.9*3F
$GNGSA,A,2,07,08,09,23,28,30,,,,,,,1.3,0.9,0.9*21
$GNGSA,A,2,65,66,67,76,77,,,,,,,,1.3,0.9,0.9*2C
$BDGSA,A,2,,,,,,,,,,,,,1.3,0.9,0.9*20
$GPRMC,163749.0,A,2249.147772,S,04318.399655,W,0.0,245.6,240817,0.0,E,A*0F
$GPGSV,3,1,11,07,45,161,41,08,22,108,33,09,57,080,36,23,28,060,29*7F
$GPGSV,3,2,11,28,55,322,34,30,46,217,38,46,,,29,05,13,226,*40
$GPGSV,3,3,11,11,02,063,,17,03,354,,27,02,135,*49
$GLGSV,3,1,09,66,77,254,37,86,09,081,12,77,38,253,27,76,37,174,34*6E
$GLGSV,3,2,09,65,33,015,20,67,25,209,29,75,03,136,,87,01,029,*6E
$GLGSV,3,3,09,85,01,130,*52
$GPGGA,163750.0,2249.147774,S,04318.399656,W,1,06,0.9,-11.3,M,-3.0,M,,*59
$GNGNS,163750.0,2249.147774,S,04318.399656,W,AA,11,0.9,-11.3,-3.0,,*6B
$GPVTG,245.6,T,245.6,M,0.0,N,0.0,K,A*23
$GPGSA,A,2,07,08,09,23,28,30,,,,,,,1.3,0.9,0.9*3F
$GNGSA,A,2,07,08,09,23,28,30,,,,,,,1.3,0.9,0.9*21
$GNGSA,A,2,65,66,67,76,77,,,,,,,,1.3,0.9,0.9*2C
$BDGSA,A,2,,,,,,,,,,,,,1.3,0.9,0.9*20
$GPRMC,163750.0,A,2249.147774,S,04318.399656,W,0.0,245.6,240817,0.0,E,A*02
$GPGSV,3,1,11,07,45,161,41,08,22,108,33,09,57,080,37,23,28,060,29*7E
$GPGSV,3,2,11,28,55,322,34,30,46,217,38,46,,,29,05,13,226,*40
$GPGSV,3,3,11,11,02,063,,17,03,354,,27,02,135,*49
$GLGSV,3,1,09,66,77,254,37,86,09,081,12,77,38,253,28,76,37,174,34*61
$GLGSV,3,2,09,65,33,015,20,67,25,209,29,75,03,136,,87,01,029,*6E
$GLGSV,3,3,09,85,01,130,*52
$GPGGA,163751.0,2249.147776,S,04318.399656,W,1,06,0.9,-11.3,M,-3.0,M,,*5A
$GNGNS,163751.0,2249.147776,S,04318.399656,W,AA,11,0.9,-11.3,-3.0,,*68
$GPVTG,245.6,T,245.6,M,0.0,N,0.0,K,A*23
$GPGSA,A,2,07,08,09,23,28,30,,,,,,,1.3,0.9,0.9*3F
$GNGSA,A,2,07,08,09,23,28,30,,,,,,,1.3,0.9,0.9*21
$GNGSA,A,2,65,66,67,76,77,,,,,,,,1.3,0.9,0.9*2C
$BDGSA,A,2,,,,,,,,,,,,,1.3,0.9,0.9*20
$GPRMC,163751.0,A,2249.147776,S,04318.399656,W,0.0,245.6,240817,0.0,E,A*01
$GPGSV,3,1,11,07,45,161,41,08,22,108,33,09,57,080,37,23,28,060,29*7E
$GPGSV,3,2,11,28,55,322,34,30,46,217,38,46,,,29,05,13,226,*40
$GPGSV,3,3,11,11,02,063,,17,03,354,,27,02,135,*49
$GLGSV,3,1,09,66,77,254,37,86,09,081,12,77,38,253,28,76,37,174,34*61
$GLGSV,3,2,09,65,33,015,19,67,25,209,30,75,03,136,,87,01,029,*6C
$GLGSV,3,3,09,85,01,130,*52
$GPGGA,163752.0,2249.147780,S,04318.399657,W,1,06,0.9,-11.2,M,-3.0,M,,*50
$GNGNS,163752.0,2249.147780,S,04318.399657,W,AA,11,0.9,-11.2,-3.0,,*62
$GPVTG,245.6,T,245.6,M,0.0,N,0.0,K,A*23
$GPGSA,A,2,07,08,09,23,28,30,,,,,,,1.3,0.9,0.9*3F
$GNGSA,A,2,07,08,09,23,28,30,,,,,,,1.3,0.9,0.9*21
$GNGSA,A,2,65,66,67,76,77,,,,,,,,1.3,0.9,0.9*2C
$BDGSA,A,2,,,,,,,,,,,,,1.3,0.9,0.9*20
$GPRMC,163752.0,A,2249.147780,S,04318.399657,W,0.0,245.6,240817,0.0,E,A*0A
$GPGSV,3,1,11,07,45,161,41,08,22,108,34,09,57,080,37,23,28,060,29*79
$GPGSV,3,2,11,28,55,322,34,30,46,217,38,46,,,29,05,13,226,*40
$GPGSV,3,3,11,11,02,063,,17,03,354,,27,02,135,*49
$GLGSV,3,1,09,66,77,254,37,86,09,081,12,77,38,253,28,76,37,174,34*61
$GLGSV,3,2,09,65,33,015,19,67,25,209,29,75,03,136,,87,01,029,*64
$GLGSV,3,3,09,85,01,130,*52
$GPGGA,163753.0,2249.147782,S,04318.399658,W,1,06,0.9,-11.2,M,-3.0,M,,*5C
$GNGNS,163753.0,2249.147782,S,04318.399658,W,AA,11,0.9,-11.2,-3.0,,*6E
$GPVTG,245.6,T,245.6,M,0.0,N,0.0,K,A*23
$GPGSA,A,2,07,08,09,23,28,30,,,,,,,1.3,0.9,0.9*3F
$GNGSA,A,2,07,08,09,23,28,30,,,,,,,1.3,0.9,0.9*21
$GNGSA,A,2,65,66,67,76,77,,,,,,,,1.3,0.9,0.9*2C
$BDGSA,A,2,,,,,,,,,,,,,1.3,0.9,0.9*20
$GPRMC,163753.0,A,2249.147782,S,04318.399658,W,0.0,245.6,240817,0.0,E,A*06
$GPGSV,3,1,11,07,45,161,41,08,22,108,34,09,57,080,37,23,28,060,30*71
$GPGSV,3,2,11,28,55,322,34,30,46,217,38,46,,,29,05,13,226,*40
$GPGSV,3,3,11,11,02,063,,17,03,354,,27,02,135,*49
$GLGSV,3,1,09,66,77,254,37,86,09,081,12,77,38,253,28,76,37,174,35*60
$GLGSV,3,2,09,65,33,015,21,67,25,209,30,75,03,136,,87,01,029,*67
$GLGSV,3,3,09,85,01,130,*52
$GPGGA,163754.0,2249.147786,S,04318.399659,W,1,06,0.9,-11.2,M,-3.0,M,,*5E
$GNGNS,163754.0,2249.147786,S,04318.399659,W,AA,11,0.9,-11.2,-3.0,,*6C
$GPVTG,245.6,T,245.6,M,0.0,N,0.0,K,A*23
$GPGSA,A,2,07,08,09,23,28,30,,,,,,,1.3,0.9,0.9*3F
$GNGSA,A,2,07,08,09,23,28,30,,,,,,,1.3,0.9,0.9*21
$GNGSA,A,2,65,66,67,76,77,,,,,,,,1.3,0.9,0.9*2C
$BDGSA,A,2,,,,,,,,,,,,,1.3,0.9,0.9*20
$GPRMC,163754.0,A,2249.147786,S,04318.399659,W,0.0,245.6,240817,0.0,E,A*04
$GPGSV,3,1,11,07,45,161,41,08,22,108,34,09,57,080,37,23,28,060,29*79
$GPGSV,3,2,11,28,55,322,34,30,46,217,38,46,,,29,05,13,226,*40
$GPGSV,3,3,11,11,02,063,,17,03,354,,27,02,135,*49
$GLGSV,3,1,09,66,77,254,37,86,09,081,12,77,38,253,28,76,37,174,34*61
$GLGSV,3,2,09,65,33,015,20,67,25,209,30,75,03,136,,87,01,029,*66
$GLGSV,3,3,09,85,01,130,*52
$GPGGA,163755.0,2249.147792,S,04318.399664,W,1,06,0.9,-11.1,M,-3.0,M,,*57
$GNGNS,163755.0,2249.147792,S,04318.399664,W,AA,11,0.9,-11.1,-3.0,,*65
$GPVTG,245.6,T,245.6,M,0.0,N,0.0,K,A*23
$GPGSA,A,2,07,08,09,23,28,30,,,,,,,1.3,0.9,0.9*3F
$GNGSA,A,2,07,08,09,23,28,30,,,,,,,1.3,0.9,0.9*21
$GNGSA,A,2,65,66,67,76,77,,,,,,,,1.3,0.9,0.9*2C
$BDGSA,A,2,,,,,,,,,,,,,1.3,0.9,0.9*20
$GPRMC,163755.0,A,2249.147792,S,04318.399664,W,0.0,245.6,240817,0.0,E,A*0E
$GPGSV,3,1,11,07,45,161,41,08,22,108,34,09,57,080,37,23,28,060,30*71
$GPGSV,3,2,11,28,55,322,34,30,46,217,38,46,,,29,05,13,226,*40
$GPGSV,3,3,11,11,02,063,,17,03,354,,27,02,135,*49
$GLGSV,3,1,09,66,77,254,37,86,09,081,12,77,38,253,28,76,37,174,34*61
$GLGSV,3,2,09,65,33,015,19,67,25,209,30,75,03,136,,87,01,029,*6C
$GLGSV,3,3,09,85,01,130,*52
$GPGGA,163756.0,2249.147797,S,04318.399667,W,1,06,0.9,-11.0,M,-3.0,M,,*53
$GNGNS,163756.0,2249.147797,S,04318.399667,W,AA,11,0.9,-11.0,-3.0,,*61
$GPVTG,245.6,T,245.6,M,0.0,N,0.0,K,A*23
$GPGSA,A,2,07,08,09,23,28,30,,,,,,,1.3,0.9,0.9*3F
$GNGSA,A,2,07,08,09,23,28,30,,,,,,,1.3,0.9,0.9*21
$GNGSA,A,2,65,66,67,76,77,,,,,,,,1.3,0.9,0.9*2C
$BDGSA,A,2,,,,,,,,,,,,,1.3,0.9,0.9*20
$GPRMC,163756.0,A,2249.147797,S,04318.399667,W,0.0,245.6,240817,0.0,E,A*0B
$GPGSV,3,1,11,07,45,161,42,08,22,108,35,09,57,080,37,23,28,060,30*73
$GPGSV,3,2,11,28,55,322,34,30,46,217,38,46,,,29,05,13,226,*40
$GPGSV,3,3,11,11,02,063,,17,03,354,,27,02,135,*49
$GLGSV,3,1,09,66,77,254,38,86,09,081,12,77,38,253,28,76,37,174,35*6F
$GLGSV,3,2,09,65,33,015,21,67,25,209,30,75,03,136,,87,01,029,*67
$GLGSV,3,3,09,85,01,130,*52
$GPGGA,163757.0,2249.147801,S,04318.399672,W,1,06,0.9,-11.0,M,-3.0,M,,*56
$GNGNS,163757.0,2249.147801,S,04318.399672,W,AA,11,0.9,-11.0,-3.0,,*64
$GPVTG,245.6,T,245.6,M,0.0,N,0.0,K,A*23
$GPGSA,A,2,07,08,09,23,28,30,,,,,,,1.3,0.9,0.9*3F
$GNGSA,A,2,07,08,09,23,28,30,,,,,,,1.3,0.9,0.9*21
$GNGSA,A,2,65,66,67,76,77,,,,,,,,1.3,0.9,0.9*2C
$BDGSA,A,2,,,,,,,,,,,,,1.3,0.9,0.9*20
$GPRMC,163757.0,A,2249.147801,S,04318.399672,W,0.0,245.6,240817,0.0,E,A*0E
$GPGSV,3,1,11,07,45,161,42,08,22,108,35,09,57,080,37,23,28,060,30*73
$GPGSV,3,2,11,28,55,322,34,30,46,217,38,46,,,29,05,13,226,*40
$GPGSV,3,3,11,11,02,063,,17,03,354,,27,02,135,*49
$GLGSV,3,1,09,66,77,254,38,86,09,081,12,77,38,253,29,76,37,174,35*6E
$GLGSV,3,2,09,65,33,015,19,67,25,209,31,75,03,136,,87,01,029,*6D
$GLGSV,3,3,09,85,01,130,*52
$GPGGA,163758.0,2249.147806,S,04318.399672,W,1,06,0.9,-10.9,M,-3.0,M,,*56
$GNGNS,163758.0,2249.147806,S,04318.399672,W,AA,11,0.9,-10.9,-3.0,,*64
$GPVTG,245.6,T,245.6,M,0.0,N,0.0,K,A*23
$GPGSA,A,2,07,08,09,23,28,30,,,,,,,1.3,0.9,0.9*3F
$GNGSA,A,2,07,08,09,23,28,30,,,,,,,1.3,0.9,0.9*21
$GNGSA,A,2,65,66,67,76,77,,,,,,,,1.3,0.9,0.9*2C
$BDGSA,A,2,,,,,,,,,,,,,1.3,0.9,0.9*20
$GPRMC,163758.0,A,2249.147806,S,04318.399672,W,0.0,245.6,240817,0.0,E,A*06
$GPGSV,3,1,11,07,45,161,41,08,22,108,35,09,57,080,37,23,28,060,30*70
$GPGSV,3,2,11,28,55,322,34,30,46,217,38,46,,,29,05,13,226,*40
$GPGSV,3,3,11,11,02,063,,17,03,354,,27,02,135,*49
$GLGSV,3,1,09,66,77,254,38,86,09,081,12,77,38,253,28,76,37,174,35*6F
$GLGSV,3,2,09,65,33,015,21,67,25,209,30,75,03,136,,87,01,029,*67
$GLGSV,3,3,09,85,01,130,*52
$GPGGA,163759.0,2249.147808,S,04318.399674,W,1,06,0.9,-10.9,M,-3.0,M,,*5F
$GNGNS,163759.0,2249.147808,S,04318.399674,W,AA,11,0.9,-10.9,-3.0,,*6D
$GPVTG,245.6,T,245.6,M,0.0,N,0.0,K,A*23
$GPGSA,A,2,07,08,09,23,28,30,,,,,,,1.3,0.9,0.9*3F
$GNGSA,A,2,07,08,09,23,28,30,,,,,,,1.3,0.9,0.9*21
$GNGSA,A,2,65,66,67,76,77,,,,,,,,1.3,0.9,0.9*2C
$BDGSA,A,2,,,,,,,,,,,,,1.3,0.9,0.9*20
$GPRMC,163759.0,A,2249.147808,S,04318.399674,W,0.0,245.6,240817,0.0,E,A*0F
$GPGSV,3,1,11,07,45,161,41,08,22,108,35,09,57,080,37,23,28,060,30*70
$GPGSV,3,2,11,28,55,322,34,30,46,217,38,46,,,29,05,13,226,*40
$GPGSV,3,3,11,11,02,063,,17,03,354,,27,02,135,*49
$GLGSV,2,1,08,66,77,254,38,77,38,253,28,76,37,174,35,65,33,015,20*67
$GLGSV,2,2,08,67,25,209,30,75,03,136,,87,01,029,,85,01,130,*6D
$GPGGA,163800.0,2249.147812,S,04318.399673,W,1,06,0.9,-10.8,M,-3.0,M,,*51
$GNGNS,163800.0,2249.147812,S,04318.399673,W,AA,11,0.9,-10.8,-3.0,,*63
$GPVTG,245.6,T,245.6,M,0.0,N,0.0,K,A*23
$GPGSA,A,2,07,08,09,23,28,30,,,,,,,1.3,0.9,0.9*3F
$GNGSA,A,2,07,08,09,23,28,30,,,,,,,1.3,0.9,0.9*21
$GNGSA,A,2,65,66,67,76,77,,,,,,,,1.3,0.9,0.9*2C
$BDGSA,A,2,,,,,,,,,,,,,1.3,0.9,0.9*20
$GPRMC,163800.0,A,2249.147812,S,04318.399673,W,0.0,245.6,240817,0.0,E,A*00
$GPGSV,3,1,11,07,45,161,41,08,22,108,35,09,57,080,37,23,28,060,30*70
$GPGSV,3,2,11,28,55,322,34,30,46,217,38,46,,,29,05,13,226,*40
$GPGSV,3,3,11,11,02,063,,17,03,354,,27,02,135,*49
$GLGSV,3,1,09,66,77,254,38,77,38,253,28,76,37,174,35,65,33,015,19*6D
$GLGSV,3,2,09,67,25,209,30,86,09,081,,75,03,136,,87,01,029,*6D
$GLGSV,3,3,09,85,01,130,*52
$GPGGA,163801.0,2249.147813,S,04318.399671,W,1,06,0.9,-10.8,M,-3.0,M,,*53
$GNGNS,163801.0,2249.147813,S,04318.399671,W,AA,11,0.9,-10.8,-3.0,,*61
$GPVTG,245.6,T,245.6,M,0.0,N,0.0,K,A*23
$GPGSA,A,2,07,08,09,23,28,30,,,,,,,1.3,0.9,0.9*3F
$GNGSA,A,2,07,08,09,23,28,30,,,,,,,1.3,0.9,0.9*21
$GNGSA,A,2,65,66,67,76,77,,,,,,,,1.3,0.9,0.9*2C
$BDGSA,A,2,,,,,,,,,,,,,1.3,0.9,0.9*20
$GPRMC,163801.0,A,2249.147813,S,04318.399671,W,0.0,245.6,240817,0.0,E,A*02
$GPGSV,3,1,10,07,45,161,41,08,22,108,35,09,57,080,37,23,28,060,30*71
$GPGSV,3,2,10,28,55,322,34,30,46,217,38,05,13,226,,11,02,063,*7F
$GPGSV,3,3,10,17,03,354,,27,02,135,*7F
$GLGSV,3,1,09,66,77,254,38,77,38,253,27,76,37,174,35,65,33,015,18*63
$GLGSV,3,2,09,67,25,209,30,86,09,081,,75,03,136,,87,01,029,*6D
$GLGSV,3,3,09,85,01,130,*52
$GPGGA,163802.0,2249.147818,S,04318.399673,W,1,06,0.9,-10.7,M,-3.0,M,,*56
$GNGNS,163802.0,2249.147818,S,04318.399673,W,AA,11,0.9,-10.7,-3.0,,*64
$GPVTG,245.6,T,245.6,M,0.0,N,0.0,K,A*23
$GPGSA,A,2,07,08,09,23,28,30,,,,,,,1.3,0.9,0.9*3F
$GNGSA,A,2,07,08,09,23,28,30,,,,,,,1.3,0.9,0.9*21
$GNGSA,A,2,65,66,67,76,77,,,,,,,,1.3,0.9,0.9*2C
$BDGSA,A,2,,,,,,,,,,,,,1.3,0.9,0.9*20
$GPRMC,163802.0,A,2249.147818,S,04318.399673,W,0.0,245.6,240817,0.0,E,A*08
$GPGSV,3,1,10,07,45,161,40,08,22,108,33,09,57,080,36,23,28,060,29*7F
$GPGSV,3,2,10,28,55,322,33,30,46,217,37,05,13,226,,11,02,063,*77
$GPGSV,3,3,10,17,03,354,,27,02,135,*7F
$GLGSV,3,1,09,66,77,254,37,77,38,253,27,76,37,174,34,65,33,015,18*6D
$GLGSV,3,2,09,67,25,209,29,86,09,081,,75,03,136,,87,01,029,*65
$GLGSV,3,3,09,85,01,130,*52
$GPGGA,163803.0,2249.147820,S,04318.399674,W,1,06,0.9,-10.7,M,-3.0,M,,*5B
$GNGNS,163803.0,2249.147820,S,04318.399674,W,AA,11,0.9,-10.7,-3.0,,*69
$GPVTG,245.6,T,245.6,M,0.0,N,0.0,K,A*23
$GPGSA,A,2,07,08,09,23,28,30,,,,,,,1.3,0.9,0.9*3F
$GNGSA,A,2,07,08,09,23,28,30,,,,,,,1.3,0.9,0.9*21
$GNGSA,A,2,65,66,67,76,77,,,,,,,,1.3,0.9,0.9*2C
$BDGSA,A,2,,,,,,,,,,,,,1.3,0.9,0.9*20
$GPRMC,163803.0,A,2249.147820,S,04318.399674,W,0.0,245.6,240817,0.0,E,A*05
$GPGSV,3,1,10,07,45,161,41,08,22,108,34,09,57,080,37,23,28,060,30*70
$GPGSV,3,2,10,28,55,322,33,30,46,217,38,05,13,226,,11,02,063,*78
$GPGSV,3,3,10,17,03,354,,27,02,135,*7F
$GLGSV,3,1,09,66,77,254,38,77,38,253,28,76,37,174,35,65,33,015,20*67
$GLGSV,3,2,09,67,25,209,30,86,09,081,,75,03,136,,87,01,029,*6D
$GLGSV,3,3,09,85,01,130,*52
$GPGGA,163804.0,2249.147823,S,04318.399671,W,1,06,0.9,-10.6,M,-3.0,M,,*5B
$GNGNS,163804.0,2249.147823,S,04318.399671,W,AA,11,0.9,-10.6,-3.0,,*69
$GPVTG,245.6,T,245.6,M,0.0,N,0.0,K,A*23
$GPGSA,A,2,07,08,09,23,28,30,,,,,,,1.3,0.9,0.9*3F
$GNGSA,A,2,07,08,09,23,28,30,,,,,,,1.3,0.9,0.9*21
$GNGSA,A,2,65,66,67,76,77,,,,,,,,1.3,0.9,0.9*2C
$BDGSA,A,2,,,,,,,,,,,,,1.3,0.9,0.9*20
$GPRMC,163804.0,A,2249.147823,S,04318.399671,W,0.0,245.6,240817,0.0,E,A*04
$GPGSV,3,1,10,07,45,161,40,08,22,108,34,09,57,080,36,23,28,060,30*70
$GPGSV,3,2,10,28,55,322,33,30,46,217,38,05,13,226,,11,02,063,*78
$GPGSV,3,3,10,17,03,354,,27,02,135,*7F
$GLGSV,3,1,09,66,77,254,37,77,38,253,27,76,37,174,34,65,33,015,18*6D
$GLGSV,3,2,09,67,25,209,29,86,09,081,,75,03,136,,87,01,029,*65
$GLGSV,3,3,09,85,01,130,*52
$GPGGA,163805.0,2249.147830,S,04318.399674,W,1,06,0.9,-10.5,M,-3.0,M,,*5E
$GNGNS,163805.0,2249.147830,S,04318.399674,W,AA,11,0.9,-10.5,-3.0,,*6C
$GPVTG,245.6,T,245.6,M,0.0,N,0.0,K,A*23
$GPGSA,A,2,07,08,09,23,28,30,,,,,,,1.3,0.9,0.9*3F
$GNGSA,A,2,07,08,09,23,28,30,,,,,,,1.3,0.9,0.9*21
$GNGSA,A,2,65,66,67,76,77,,,,,,,,1.3,0.9,0.9*2C
$BDGSA,A,2,,,,,,,,,,,,,1.3,0.9,0.9*20
$GPRMC,163805.0,A,2249.147830,S,04318.399674,W,0.0,245.6,240817,0.0,E,A*02
$GPGSV,3,1,10,07,45,161,41,08,22,108,34,09,57,080,37,23,28,060,30*70
$GPGSV,3,2,10,28,55,322,34,30,46,217,38,05,13,226,,11,02,063,*7F
$GPGSV,3,3,10,17,03,354,,27,02,135,*7F
$GLGSV,3,1,09,66,77,254,38,77,38,253,26,76,37,174,34,65,33,015,18*63
$GLGSV,3,2,09,67,25,209,30,86,09,081,,75,03,136,,87,01,029,*6D
$GLGSV,3,3,09,85,01,130,*52
$GPGGA,163806.0,2249.147833,S,04318.399678,W,1,06,0.9,-10.5,M,-3.0,M,,*52
$GNGNS,163806.0,2249.147833,S,04318.399678,W,AA,11,0.9,-10.5,-3.0,,*60
$GPVTG,245.6,T,245.6,M,0.0,N,0.0,K,A*23
$GPGSA,A,2,07,08,09,23,28,30,,,,,,,1.3,0.9,0.9*3F
$GNGSA,A,2,07,08,09,23,28,30,,,,,,,1.3,0.9,0.9*21
$GNGSA,A,2,65,66,67,76,77,,,,,,,,1.3,0.9,0.9*2C
$BDGSA,A,2,,,,,,,,,,,,,1.3,0.9,0.9*20
$GPRMC,163806.0,A,2249.147833,S,04318.399678,W,0.0,245.6,240817,0.0,E,A*0E
$GPGSV,3,1,10,07,45,161,41,08,22,108,34,09,57,080,37,23,28,060,30*70
$GPGSV,3,2,10,28,55,322,33,30,46,217,38,05,13,226,,11,02,063,*78
$GPGSV,3,3,10,17,03,354,,27,02,135,*7F
$GLGSV,3,1,09,66,77,254,38,77,38,253,26,76,37,174,34,65,33,015,18*63
$GLGSV,3,2,09,67,25,209,30,86,09,081,,75,03,136,,87,01,029,*6D
$GLGSV,3,3,09,85,01,130,*52
$GPGGA,163807.0,2249.147836,S,04318.399676,W,1,06,0.9,-10.4,M,-3.0,M,,*59
$GNGNS,163807.0,2249.147836,S,04318.399676,W,AA,11,0.9,-10.4,-3.0,,*6B
$GPVTG,245.6,T,245.6,M,0.0,N,0.0,K,A*23
$GPGSA,A,2,07,08,09,23,28,30,,,,,,,1.3,0.9,0.9*3F
$GNGSA,A,2,07,08,09,23,28,30,,,,,,,1.3,0.9,0.9*21
$GNGSA,A,2,65,66,67,76,77,,,,,,,,1.3,0.9,0.9*2C
$BDGSA,A,2,,,,,,,,,,,,,1.3,0.9,0.9*20
$GPRMC,163807.0,A,2249.147836,S,04318.399676,W,0.0,245.6,240817,0.0,E,A*04
$GPGSV,3,1,10,07,45,161,40,08,22,108,33,09,57,080,36,23,28,060,30*77
$GPGSV,3,2,10,28,55,322,33,30,46,217,37,05,13,226,,11,02,063,*77
$GPGSV,3,3,10,17,03,354,,27,02,135,*7F
$GLGSV,3,1,09,66,77,254,38,77,38,253,25,76,37,174,34,65,33,015,18*60
$GLGSV,3,2,09,67,25,209,29,86,09,081,,75,03,136,,87,01,029,*65
$GLGSV,3,3,09,85,01,130,*52
$GPGGA,163808.0,2249.147838,S,04318.399675,W,1,06,0.9,-10.4,M,-3.0,M,,*5B
$GNGNS,163808.0,2249.147838,S,04318.399675,W,AA,11,0.9,-10.4,-3.0,,*69
$GPVTG,245.6,T,245.6,M,0.0,N,0.0,K,A*23
$GPGSA,A,2,07,08,09,23,28,30,,,,,,,1.3,0.9,0.9*3F
$GNGSA,A,2,07,08,09,23,28,30,,,,,,,1.3,0.9,0.9*21
$GNGSA,A,2,65,66,67,76,77,,,,,,,,1.3,0.9,0.9*2C
$BDGSA,A,2,,,,,,,,,,,,,1.3,0.9,0.9*20
$GPRMC,163808.0,A,2249.147838,S,04318.399675,W,0.0,245.6,240817,0.0,E,A*06
$GPGSV,3,1,10,07,45,161,41,08,22,108,33,09,57,080,36,23,28,060,30*76
$GPGSV,3,2,10,28,55,322,33,30,46,217,37,05,13,226,,11,02,063,*77
$GPGSV,3,3,10,17,03,354,,27,02,135,*7F
$GLGSV,3,1,09,66,77,254,38,77,38,253,25,76,37,174,34,65,33,015,18*60
$GLGSV,3,2,09,67,25,209,30,86,09,081,,75,03,136,,87,01,029,*6D
$GLGSV,3,3,09,85,01,130,*52
$GPGGA,163809.0,2249.147841,S,04318.399675,W,1,06,0.9,-10.3,M,-3.0,M,,*53
$GNGNS,163809.0,2249.147841,S,04318.399675,W,AA,11,0.9,-10.3,-3.0,,*61
$GPVTG,245.6,T,245.6,M,0.0,N,0.0,K,A*23
$GPGSA,A,2,07,08,09,23,28,30,,,,,,,1.3,0.9,0.9*3F
$GNGSA,A,2,07,08,09,23,28,30,,,,,,,1.3,0.9,0.9*21
$GNGSA,A,2,65,66,67,76,77,,,,,,,,1.3,0.9,0.9*2C
$BDGSA,A,2,,,,,,,,,,,,,1.3,0.9,0.9*20
$GPRMC,163809.0,A,2249.147841,S,04318.399675,W,0.0,245.6,240817,0.0,E,A*09
$GPGSV,3,1,10,07,45,161,41,08,22,108,33,09,57,080,37,23,28,060,30*77
$GPGSV,3,2,10,28,55,322,33,30,46,217,38,05,13,226,,11,02,063,*78
$GPGSV,3,3,10,17,03,354,,27,02,135,*7F
$GLGSV,3,1,09,66,77,254,38,77,38,253,25,76,37,174,34,65,33,015,18*60
$GLGSV,3,2,09,67,25,209,30,86,09,081,,75,03,136,,87,01,029,*6D
$GLGSV,3,3,09,85,01,130,*52
$GPGGA,163810.0,2249.147844,S,04318.399673,W,1,06,0.9,-10.3,M,-3.0,M,,*58
$GNGNS,163810.0,2249.147844,S,04318.399673,W,AA,11,0.9,-10.3,-3.0,,*6A
$GPVTG,245.6,T,245.6,M,0.0,N,0.0,K,A*23
$GPGSA,A,2,07,08,09,23,28,30,,,,,,,1.3,0.9,0.9*3F
$GNGSA,A,2,07,08,09,23,28,30,,,,,,,1.3,0.9,0.9*21
$GNGSA,A,2,65,66,67,76,77,,,,,,,,1.3,0.9,0.9*2C
$BDGSA,A,2,,,,,,,,,,,,,1.3,0.9,0.9*20
$GPRMC,163810.0,A,2249.147844,S,04318.399673,W,0.0,245.6,240817,0.0,E,A*02
$GPGSV,3,1,10,07,45,161,41,08,22,108,33,09,57,080,37,23,28,060,31*76
$GPGSV,3,2,10,28,55,322,34,30,46,217,38,05,13,226,,11,02,063,*7F
$GPGSV,3,3,10,17,03,354,,27,02,135,*7F
$GLGSV,3,1,09,66,77,254,38,77,38,253,25,76,37,174,34,65,33,015,19*61
$GLGSV,3,2,09,67,25,209,30,86,09,081,,75,03,136,,87,01,029,*6D
$GLGSV,3,3,09,85,01,130,*52
$GPGGA,163811.0,2249.147846,S,04318.399674,W,1,06,1.1,-10.3,M,-3.0,M,,*55
$GNGNS,163811.0,2249.147846,S,04318.399674,W,AA,10,1.1,-10.3,-3.0,,*66
$GPVTG,245.6,T,245.6,M,0.0,N,0.0,K,A*23
$GPGSA,A,2,07,08,09,23,28,30,,,,,,,1.4,1.1,0.9*31
$GNGSA,A,2,07,08,09,23,28,30,,,,,,,1.4,1.1,0.9*2F
$GNGSA,A,2,66,67,76,77,,,,,,,,,1.4,1.1,0.9*21
$BDGSA,A,2,,,,,,,,,,,,,1.4,1.1,0.9*2E
$GPRMC,163811.0,A,2249.147846,S,04318.399674,W,0.0,245.6,240817,0.0,E,A*06
$GPGSV,3,1,10,07,45,161,42,08,22,108,33,09,57,080,37,23,28,060,31*75
$GPGSV,3,2,10,28,55,322,34,30,46,217,38,05,13,226,,11,02,063,*7F
$GPGSV,3,3,10,17,03,354,,27,02,135,*7F
$GLGSV,3,1,09,66,77,254,39,77,38,253,26,76,37,174,35,65,33,015,20*68
$GLGSV,3,2,09,67,25,209,30,86,09,081,,75,03,136,,87,01,029,*6D
$GLGSV,3,3,09,85,01,130,*52
$GPGGA,163812.0,2249.147847,S,04318.399672,W,1,06,1.1,-10.3,M,-3.0,M,,*51
$GNGNS,163812.0,2249.147847,S,04318.399672,W,AA,10,1.1,-10.3,-3.0,,*62
$GPVTG,245.6,T,245.6,M,0.0,N,0.0,K,A*23
$GPGSA,A,2,07,08,09,23,28,30,,,,,,,1.4,1.1,0.9*31
$GNGSA,A,2,07,08,09,23,28,30,,,,,,,1.4,1.1,0.9*2F
$GNGSA,A,2,66,67,76,77,,,,,,,,,1.4,1.1,0.9*21
$BDGSA,A,2,,,,,,,,,,,,,1.4,1.1,0.9*2E
$GPRMC,163812.0,A,2249.147847,S,04318.399672,W,0.0,245.6,240817,0.0,E,A*02
$GPGSV,3,1,10,07,45,161,41,08,22,108,33,09,57,080,37,23,28,060,30*77
$GPGSV,3,2,10,28,55,322,33,30,46,217,38,05,13,226,,11,02,063,*78
$GPGSV,3,3,10,17,03,354,,27,02,135,*7F
$GLGSV,3,1,09,66,77,254,38,77,38,253,25,76,37,174,34,65,33,015,20*6B
$GLGSV,3,2,09,67,25,209,30,86,09,081,,75,03,136,,87,01,029,*6D
$GLGSV,3,3,09,85,01,130,*52
$GPGGA,163813.0,2249.147848,S,04318.399672,W,1,06,0.9,-10.2,M,-3.0,M,,*57
$GNGNS,163813.0,2249.147848,S,04318.399672,W,AA,11,0.9,-10.2,-3.0,,*65
$GPVTG,245.6,T,245.6,M,0.0,N,0.0,K,A*23
$GPGSA,A,2,07,08,09,23,28,30,,,,,,,1.3,0.9,0.9*3F
$GNGSA,A,2,07,08,09,23,28,30,,,,,,,1.3,0.9,0.9*21
$GNGSA,A,2,65,66,67,76,77,,,,,,,,1.3,0.9,0.9*2C
$BDGSA,A,2,,,,,,,,,,,,,1.3,0.9,0.9*20
$GPRMC,163813.0,A,2249.147848,S,04318.399672,W,0.0,245.6,240817,0.0,E,A*0C
$GPGSV,3,1,10,07,45,161,41,08,22,108,32,09,57,080,37,23,28,060,30*76
$GPGSV,3,2,10,28,55,322,33,30,46,217,38,05,13,226,,11,02,063,*78
$GPGSV,3,3,10,17,03,354,,27,02,135,*7F
$GLGSV,3,1,09,66,77,254,38,77,38,253,26,76,37,174,34,65,33,015,19*62
$GLGSV,3,2,09,67,25,209,30,86,09,081,,75,03,136,,87,01,029,*6D
$GLGSV,3,3,09,85,01,130,*52
$GPGGA,163814.0,2249.147848,S,04318.399673,W,1,06,0.9,-10.2,M,-3.0,M,,*51
$GNGNS,163814.0,2249.147848,S,04318.399673,W,AA,11,0.9,-10.2,-3.0,,*63
$GPVTG,245.6,T,245.6,M,0.0,N,0.0,K,A*23
$GPGSA,A,2,07,08,09,23,28,30,,,,,,,1.3,0.9,0.9*3F
$GNGSA,A,2,07,08,09,23,28,30,,,,,,,1.3,0.9,0.9*21
$GNGSA,A,2,65,66,67,76,77,,,,,,,,1.3,0.9,0.9*2C
$BDGSA,A,2,,,,,,,,,,,,,1.3,0.9,0.9*20
$GPRMC,163814.0,A,2249.147848,S,04318.399673,W,0.0,245.6,240817,0.0,E,A*0A
$GPGSV,3,1,10,07,45,161,41,08,22,108,32,09,57,080,36,23,28,060,30*77
$GPGSV,3,2,10,28,55,322,33,30,46,217,38,05,13,226,,11,02,063,*78
$GPGSV,3,3,10,17,03,354,,27,02,135,*7F
$GLGSV,3,1,09,66,77,254,38,77,38,253,25,76,37,174,34,65,33,015,21*6A
$GLGSV,3,2,09,67,25,209,29,86,09,081,,75,03,136,,87,01,029,*65
$GLGSV,3,3,09,85,01,130,*52
$GPGGA,163815.0,2249.147846,S,04318.399673,W,1,06,0.9,-10.2,M,-3.0,M,,*5E
$GNGNS,163815.0,2249.147846,S,04318.399673,W,AA,11,0.9,-10.2,-3.0,,*6C
$GPVTG,245.6,T,245.6,M,0.0,N,0.0,K,A*23
$GPGSA,A,2,07,08,09,23,28,30,,,,,,,1.3,0.9,0.9*3F
$GNGSA,A,2,07,08,09,23,28,30,,,,,,,1.3,0.9,0.9*21
$GNGSA,A,2,65,66,67,76,77,,,,,,,,1.3,0.9,0.9*2C
$BDGSA,A,2,,,,,,,,,,,,,1.3,0.9,0.9*20
$GPRMC,163815.0,A,2249.147846,S,04318.399673,W,0.0,245.6,240817,0.0,E,A*05
$GPGSV,3,1,10,07,45,161,42,08,22,108,32,09,57,080,36,23,28,060,30*74
$GPGSV,3,2,10,28,55,322,33,30,46,217,38,05,13,226,,11,02,063,*78
$GPGSV,3,3,10,17,03,354,,27,02,135,*7F
$GLGSV,3,1,09,66,77,254,38,77,38,253,26,76,37,174,34,65,33,015,20*68
$GLGSV,3,2,09,67,25,209,29,86,09,081,,75,03,136,,87,01,029,*65
$GLGSV,3,3,09,85,01,130,*52
$GPGGA,163816.0,2249.147846,S,04318.399674,W,1,06,0.9,-10.2,M,-3.0,M,,*5A
$GNGNS,163816.0,2249.147846,S,04318.399674,W,AA,11,0.9,-10.2,-3.0,,*68
$GPVTG,245.6,T,245.6,M,0.0,N,0.0,K,A*23
$GPGSA,A,2,07,08,09,23,28,30,,,,,,,1.3,0.9,0.9*3F
$GNGSA,A,2,07,08,09,23,28,30,,,,,,,1.3,0.9,0.9*21
$GNGSA,A,2,65,66,67,76,77,,,,,,,,1.3,0.9,0.9*2C
$BDGSA,A,2,,,,,,,,,,,,,1.3,0.9,0.9*20
$GPRMC,163816.0,A,2249.147846,S,04318.399674,W,0.0,245.6,240817,0.0,E,A*01
$GPGSV,3,1,10,07,45,161,41,08,22,108,31,09,57,080,35,23,28,060,29*7F
$GPGSV,3,2,10,28,55,322,32,30,46,217,37,05,13,226,,11,02,063,*76
$GPGSV,3,3,10,17,03,354,,27,02,135,*7F
$GLGSV,3,1,09,66,77,254,37,77,38,253,25,76,37,174,33,65,33,015,21*62
$GLGSV,3,2,09,67,25,209,28,86,09,081,,75,03,136,,87,01,029,*64
$GLGSV,3,3,09,85,01,130,*52
$GPGGA,163817.0,2249.147845,S,04318.399674,W,1,06,0.9,-10.2,M,-3.0,M,,*58
$GNGNS,163817.0,2249.147845,S,04318.399674,W,AA,11,0.9,-10.2,-3.0,,*6A
$GPVTG,245.6,T,245.6,M,0.0,N,0.0,K,A*23
$GPGSA,A,2,07,08,09,23,28,30,,,,,,,1.3,0.9,0.9*3F
$GNGSA,A,2,07,08,09,23,28,30,,,,,,,1.3,0.9,0.9*21
$GNGSA,A,2,65,66,67,76,77,,,,,,,,1.3,0.9,0.9*2C
$BDGSA,A,2,,,,,,,,,,,,,1.3,0.9,0.9*20
$GPRMC,163817.0,A,2249.147845,S,04318.399674,W,0.0,245.6,240817,0.0,E,A*03
$GPGSV,3,1,10,07,45,161,41,08,22,108,32,09,57,080,36,23,28,060,30*77
$GPGSV,3,2,10,28,55,322,33,30,46,217,37,05,13,226,,11,02,063,*77
$GPGSV,3,3,10,17,03,354,,27,02,135,*7F
$GLGSV,3,1,09,66,77,254,38,77,38,253,25,76,37,174,34,65,33,015,20*6B
$GLGSV,3,2,09,67,25,209,29,86,09,081,,75,03,136,,87,01,029,*65
$GLGSV,3,3,09,85,01,130,*52
$GPGGA,163818.0,2249.147848,S,04318.399675,W,1,06,0.9,-10.2,M,-3.0,M,,*5B
$GNGNS,163818.0,2249.147848,S,04318.399675,W,AA,11,0.9,-10.2,-3.0,,*69
$GPVTG,245.6,T,245.6,M,0.0,N,0.0,K,A*23
$GPGSA,A,2,07,08,09,23,28,30,,,,,,,1.3,0.9,0.9*3F
$GNGSA,A,2,07,08,09,23,28,30,,,,,,,1.3,0.9,0.9*21
$GNGSA,A,2,65,66,67,76,77,,,,,,,,1.3,0.9,0.9*2C
$BDGSA,A,2,,,,,,,,,,,,,1.3,0.9,0.9*20
$GPRMC,163818.0,A,2249.147848,S,04318.399675,W,0.0,245.6,240817,0.0,E,A*00
$GPGSV,3,1,10,07,45,161,41,08,22,108,31,09,57,080,36,23,28,060,30*74
$GPGSV,3,2,10,28,55,322,32,30,46,217,37,05,13,226,,11,02,063,*76
$GPGSV,3,3,10,17,03,354,,27,02,135,*7F
$GLGSV,3,1,09,66,77,254,37,77,38,253,26,76,37,174,33,65,33,015,22*62
$GLGSV,3,2,09,67,25,209,29,86,09,081,,75,03,136,,87,01,029,*65
$GLGSV,3,3,09,85,01,130,*52
$GPGGA,163819.0,2249.147845,S,04318.399673,W,1,06,0.9,-10.2,M,-3.0,M,,*51
$GNGNS,163819.0,2249.147845,S,04318.399673,W,AA,11,0.9,-10.2,-3.0,,*63
$GPVTG,245.6,T,245.6,M,0.0,N,0.0,K,A*23
$GPGSA,A,2,07,08,09,23,28,30,,,,,,,1.3,0.9,0.9*3F
$GNGSA,A,2,07,08,09,23,28,30,,,,,,,1.3,0.9,0.9*21
$GNGSA,A,2,65,66,67,76,77,,,,,,,,1.3,0.9,0.9*2C
$BDGSA,A,2,,,,,,,,,,,,,1.3,0.9,0.9*20
$GPRMC,163819.0,A,2249.147845,S,04318.399673,W,0.0,245.6,240817,0.0,E,A*0A
$GPGSV,3,1,10,07,45,161,41,08,22,108,31,09,57,080,35,23,28,060,29*7F
$GPGSV,3,2,10,28,55,322,32,30,46,217,37,05,13,226,,11,02,063,*76
$GPGSV,3,3,10,17,03,354,,27,02,135,*7F
$GLGSV,3,1,09,66,77,254,37,77,38,253,27,76,37,174,33,65,33,015,21*60
$GLGSV,3,2,09,67,25,209,28,86,09,081,,75,03,136,,87,01,029,*64
$GLGSV,3,3,09,85,01,130,*52
$GPGGA,163820.0,2249.147844,S,04318.399672,W,1,06,0.9,-10.2,M,-3.0,M,,*5B
$GNGNS,163820.0,2249.147844,S,04318.399672,W,AA,11,0.9,-10.2,-3.0,,*69
$GPVTG,245.6,T,245.6,M,0.0,N,0.0,K,A*23
$GPGSA,A,2,07,08,09,23,28,30,,,,,,,1.3,0.9,0.9*3F
$GNGSA,A,2,07,08,09,23,28,30,,,,,,,1.3,0.9,0.9*21
$GNGSA,A,2,65,66,67,76,77,,,,,,,,1.3,0.9,0.9*2C
$BDGSA,A,2,,,,,,,,,,,,,1.3,0.9,0.9*20
$GPRMC,163820.0,A,2249.147844,S,04318.399672,W,0.0,245.6,240817,0.0,E,A*00
$GPGSV,3,1,10,07,45,161,41,08,22,108,31,09,57,080,36,23,28,060,30*74
$GPGSV,3,2,10,28,55,322,33,30,46,217,38,05,13,226,,11,02,063,*78
$GPGSV,3,3,10,17,03,354,,27,02,135,*7F
$GLGSV,3,1,09,66,77,254,37,77,38,253,27,76,37,174,33,65,33,015,23*62
$GLGSV,3,2,09,67,25,209,28,86,09,081,,75,03,136,,87,01,029,*64
$GLGSV,3,3,09,85,01,130,*52
$GPGGA,163821.0,2249.147842,S,04318.399670,W,1,06,0.9,-10.2,M,-3.0,M,,*5E
$GNGNS,163821.0,2249.147842,S,04318.399670,W,AA,11,0.9,-10.2,-3.0,,*6C
$GPVTG,245.6,T,245.6,M,0.0,N,0.0,K,A*23
$GPGSA,A,2,07,08,09,23,28,30,,,,,,,1.3,0.9,0.9*3F
$GNGSA,A,2,07,08,09,23,28,30,,,,,,,1.3,0.9,0.9*21
$GNGSA,A,2,65,66,67,76,77,,,,,,,,1.3,0.9,0.9*2C
$BDGSA,A,2,,,,,,,,,,,,,1.3,0.9,0.9*20
$GPRMC,163821.0,A,2249.147842,S,04318.399670,W,0.0,245.6,240817,0.0,E,A*05
$GPGSV,3,1,10,07,45,161,41,08,22,108,30,09,57,080,35,23,28,060,30*76
$GPGSV,3,2,10,28,55,322,32,30,46,217,37,05,13,226,,11,02,063,*76
$GPGSV,3,3,10,17,03,354,,27,02,135,*7F
$GLGSV,3,1,09,66,77,254,37,86,09,081,12,77,38,253,27,76,37,174,33*69
$GLGSV,3,2,09,65,33,015,23,67,25,209,28,75,03,136,,87,01,029,*6C
$GLGSV,3,3,09,85,01,130,*52
$GPGGA,163822.0,2249.147840,S,04318.399667,W,1,06,0.9,-10.2,M,-3.0,M,,*59
$GNGNS,163822.0,2249.147840,S,04318.399667,W,AA,11,0.9,-10.2,-3.0,,*6B
$GPVTG,245.6,T,245.6,M,0.0,N,0.0,K,A*23
$GPGSA,A,2,07,08,09,23,28,30,,,,,,,1.3,0.9,0.9*3F
$GNGSA,A,2,07,08,09,23,28,30,,,,,,,1.3,0.9,0.9*21
$GNGSA,A,2,65,66,67,76,77,,,,,,,,1.3,0.9,0.9*2C
$BDGSA,A,2,,,,,,,,,,,,,1.3,0.9,0.9*20
$GPRMC,163822.0,A,2249.147840,S,04318.399667,W,0.0,245.6,240817,0.0,E,A*02
$GPGSV,3,1,10,07,45,161,41,08,22,108,30,09,57,080,36,23,28,060,30*75
$GPGSV,3,2,10,28,55,322,33,30,46,217,38,05,13,226,,11,02,063,*78
$GPGSV,3,3,10,17,03,354,,27,02,135,*7F
$GLGSV,3,1,09,66,77,254,37,86,09,081,13,77,38,253,27,76,37,174,34*6F
$GLGSV,3,2,09,65,33,015,24,67,25,209,28,75,03,136,,87,01,029,*6B
$GLGSV,3,3,09,85,01,130,*52
$GPGGA,163823.0,2249.147837,S,04318.399662,W,1,06,0.9,-10.2,M,-3.0,M,,*5D
$GNGNS,163823.0,2249.147837,S,04318.399662,W,AA,11,0.9,-10.2,-3.0,,*6F
$GPVTG,245.6,T,245.6,M,0.0,N,0.0,K,A*23
$GPGSA,A,2,07,08,09,23,28,30,,,,,,,1.3,0.9,0.9*3F
$GNGSA,A,2,07,08,09,23,28,30,,,,,,,1.3,0.9,0.9*21
$GNGSA,A,2,65,66,67,76,77,,,,,,,,1.3,0.9,0.9*2C
$BDGSA,A,2,,,,,,,,,,,,,1.3,0.9,0.9*20
$GPRMC,163823.0,A,2249.147837,S,04318.399662,W,0.0,245.6,240817,0.0,E,A*06
$GPGSV,3,1,10,07,45,161,41,08,22,108,30,09,57,080,36,23,28,060,30*75
$GPGSV,3,2,10,28,55,322,33,30,46,217,38,05,13,226,,11,02,063,*78
$GPGSV,3,3,10,17,03,354,,27,02,135,*7F
$GLGSV,3,1,09,66,77,254,37,86,09,081,13,77,38,253,27,76,37,174,33*68
$GLGSV,3,2,09,65,33,015,24,67,25,209,28,75,03,136,,87,01,029,*6B
$GLGSV,3,3,09,85,01,130,*52
$GPGGA,163824.0,2249.147836,S,04318.399661,W,1,06,0.9,-10.2,M,-3.0,M,,*58
$GNGNS,163824.0,2249.147836,S,04318.399661,W,AA,11,0.9,-10.2,-3.0,,*6A
$GPVTG,245.6,T,245.6,M,0.0,N,0.0,K,A*23
$GPGSA,A,2,07,08,09,23,28,30,,,,,,,1.3,0.9,0.9*3F
$GNGSA,A,2,07,08,09,23,28,30,,,,,,,1.3,0.9,0.9*21
$GNGSA,A,2,65,66,67,76,77,,,,,,,,1.3,0.9,0.9*2C
$BDGSA,A,2,,,,,,,,,,,,,1.3,0.9,0.9*20
$GPRMC,163824.0,A,2249.147836,S,04318.399661,W,0.0,245.6,240817,0.0,E,A*03
$GPGSV,3,1,10,07,45,161,41,08,22,108,29,09,57,080,35,23,28,060,29*76
$GPGSV,3,2,10,28,55,322,33,30,46,217,38,05,13,226,,11,02,063,*78
$GPGSV,3,3,10,17,03,354,,27,02,135,*7F
$GLGSV,3,1,09,66,77,254,37,86,09,081,11,77,38,253,27,76,37,174,34*6D
$GLGSV,3,2,09,65,33,015,24,67,25,209,27,75,03,136,,87,01,029,*64
$GLGSV,3,3,09,85,01,130,*52
$GPGGA,163825.0,2249.147835,S,04318.399660,W,1,06,0.9,-10.2,M,-3.0,M,,*5B
$GNGNS,163825.0,2249.147835,S,04318.399660,W,AA,11,0.9,-10.2,-3.0,,*69
$GPVTG,245.6,T,245.6,M,0.0,N,0.0,K,A*23
$GPGSA,A,2,07,08,09,23,28,30,,,,,,,1.3,0.9,0.9*3F
$GNGSA,A,2,07,08,09,23,28,30,,,,,,,1.3,0.9,0.9*21
$GNGSA,A,2,65,66,67,76,77,,,,,,,,1.3,0.9,0.9*2C
$BDGSA,A,2,,,,,,,,,,,,,1.3,0.9,0.9*20
$GPRMC,163825.0,A,2249.147835,S,04318.399660,W,0.0,245.6,240817,0.0,E,A*00
$GPGSV,3,1,10,07,45,161,41,08,22,108,29,09,57,080,36,23,28,060,29*75
$GPGSV,3,2,10,28,55,322,33,30,46,217,38,05,13,226,,11,02,063,*78
$GPGSV,3,3,10,17,03,354,,27,02,135,*7F
$GLGSV,3,1,09,66,77,254,37,86,09,081,11,77,38,253,27,76,37,174,34*6D
$GLGSV,3,2,09,65,33,015,24,67,25,209,28,75,03,136,,87,01,029,*6B
$GLGSV,3,3,09,85,01,130,*52
$GPGGA,163826.0,2249.147834,S,04318.399659,W,1,06,0.9,-10.2,M,-3.0,M,,*53
$GNGNS,163826.0,2249.147834,S,04318.399659,W,AA,11,0.9,-10.2,-3.0,,*61
$GPVTG,245.6,T,245.6,M,0.0,N,0.0,K,A*23
$GPGSA,A,2,07,08,09,23,28,30,,,,,,,1.3,0.9,0.9*3F
$GNGSA,A,2,07,08,09,23,28,30,,,,,,,1.3,0.9,0.9*21
$GNGSA,A,2,65,66,67,76,77,,,,,,,,1.3,0.9,0.9*2C
$BDGSA,A,2,,,,,,,,,,,,,1.3,0.9,0.9*20
$GPRMC,163826.0,A,2249.147834,S,04318.399659,W,0.0,245.6,240817,0.0,E,A*08
$GPGSV,3,1,10,07,45,161,41,08,22,108,29,09,57,080,36,23,28,060,29*75
$GPGSV,3,2,10,28,55,322,33,30,46,217,37,05,13,226,,11,02,063,*77
$GPGSV,3,3,10,17,03,354,,27,02,135,*7F
$GLGSV,3,1,09,66,77,254,36,86,09,081,11,77,38,253,27,76,37,174,34*6C
$GLGSV,3,2,09,65,33,015,25,67,25,209,27,75,03,136,,87,01,029,*65
$GLGSV,3,3,09,85,01,130,*52
$GPGGA,163827.0,2249.147834,S,04318.399656,W,1,06,0.9,-10.2,M,-3.0,M,,*5D
$GNGNS,163827.0,2249.147834,S,04318.399656,W,AA,11,0.9,-10.2,-3.0,,*6F
$GPVTG,245.6,T,245.6,M,0.0,N,0.0,K,A*23
$GPGSA,A,2,07,08,09,23,28,30,,,,,,,1.3,0.9,0.9*3F
$GNGSA,A,2,07,08,09,23,28,30,,,,,,,1.3,0.9,0.9*21
$GNGSA,A,2,65,66,67,76,77,,,,,,,,1.3,0.9,0.9*2C
$BDGSA,A,2,,,,,,,,,,,,,1.3,0.9,0.9*20
$GPRMC,163827.0,A,2249.147834,S,04318.399656,W,0.0,245.6,240817,0.0,E,A*06
$GPGSV,3,1,10,07,45,161,40,08,22,108,28,09,57,080,35,23,28,060,29*76
$GPGSV,3,2,10,28,55,322,33,30,46,217,37,05,13,226,,11,02,063,*77
$GPGSV,3,3,10,17,03,354,,27,02,135,*7F
$GLGSV,3,1,09,66,77,254,36,86,09,081,11,77,38,253,26,76,37,174,33*6A
$GLGSV,3,2,09,65,33,015,24,67,25,209,27,75,03,136,,87,01,029,*64
$GLGSV,3,3,09,85,01,130,*52
$GPGGA,163828.0,2249.147834,S,04318.399653,W,1,06,0.9,-10.1,M,-3.0,M,,*54
$GNGNS,163828.0,2249.147834,S,04318.399653,W,AA,11,0.9,-10.1,-3.0,,*66
$GPVTG,245.6,T,245.6,M,0.0,N,0.0,K,A*23
$GPGSA,A,2,07,08,09,23,28,30,,,,,,,1.3,0.9,0.9*3F
$GNGSA,A,2,07,08,09,23,28,30,,,,,,,1.3,0.9,0.9*21
$GNGSA,A,2,65,66,67,76,77,,,,,,,,1.3,0.9,0.9*2C
$BDGSA,A,2,,,,,,,,,,,,,1.3,0.9,0.9*20
$GPRMC,163828.0,A,2249.147834,S,04318.399653,W,0.0,245.6,240817,0.0,E,A*0C
$GPGSV,3,1,10,07,45,161,40,08,22,108,28,09,57,080,35,23,28,060,29*76
$GPGSV,3,2,10,28,55,322,33,30,46,217,37,05,13,226,,11,02,063,*77
$GPGSV,3,3,10,17,03,354,,27,02,135,*7F
$GLGSV,3,1,09,66,77,254,36,86,09,081,11,77,38,253,26,76,37,174,33*6A
$GLGSV,3,2,09,65,33,015,25,67,25,209,28,75,03,136,,87,01,029,*6A
$GLGSV,3,3,09,85,01,130,*52
$GPGGA,163829.0,2249.147834,S,04318.399651,W,1,06,0.9,-10.1,M,-3.0,M,,*57
$GNGNS,163829.0,2249.147834,S,04318.399651,W,AA,11,0.9,-10.1,-3.0,,*65
$GPVTG,245.6,T,245.6,M,0.0,N,0.0,K,A*23
$GPGSA,A,2,07,08,09,23,28,30,,,,,,,1.3,0.9,0.9*3F
$GNGSA,A,2,07,08,09,23,28,30,,,,,,,1.3,0.9,0.9*21
$GNGSA,A,2,65,66,67,76,77,,,,,,,,1.3,0.9,0.9*2C
$BDGSA,A,2,,,,,,,,,,,,,1.3,0.9,0.9*20
$GPRMC,163829.0,A,2249.147834,S,04318.399651,W,0.0,245.6,240817,0.0,E,A*0F
$GPGSV,3,1,10,07,45,161,40,08,22,108,28,09,57,080,35,23,28,060,29*76
$GPGSV,3,2,10,28,55,322,33,30,46,217,36,05,13,226,,11,02,063,*76
$GPGSV,3,3,10,17,03,354,,27,02,135,*7F
$GLGSV,3,1,09,66,77,254,36,86,09,081,11,77,38,253,25,76,37,174,33*69
$GLGSV,3,2,09,65,33,015,24,67,25,209,27,75,03,136,,87,01,029,*64
$GLGSV,3,3,09,85,01,130,*52
$GPGGA,163830.0,2249.147833,S,04318.399647,W,1,06,0.9,-10.1,M,-3.0,M,,*5F
$GNGNS,163830.0,2249.147833,S,04318.399647,W,AA,11,0.9,-10.1,-3.0,,*6D
$GPVTG,245.6,T,245.6,M,0.0,N,0.0,K,A*23
$GPGSA,A,2,07,08,09,23,28,30,,,,,,,1.3,0.9,0.9*3F
$GNGSA,A,2,07,08,09,23,28,30,,,,,,,1.3,0.9,0.9*21
$GNGSA,A,2,65,66,67,76,77,,,,,,,,1.3,0.9,0.9*2C
$BDGSA,A,2,,,,,,,,,,,,,1.3,0.9,0.9*20
$GPRMC,163830.0,A,2249.147833,S,04318.399647,W,0.0,245.6,240817,0.0,E,A*07
$GPGSV,3,1,10,07,45,161,40,08,22,108,29,09,57,080,34,23,28,060,29*76
$GPGSV,3,2,10,28,55,322,33,30,46,217,36,05,13,226,,11,02,063,*76
$GPGSV,3,3,10,17,03,354,,27,02,135,*7F
$GLGSV,3,1,09,66,77,254,36,86,09,081,11,77,38,253,25,76,37,174,33*69
$GLGSV,3,2,09,65,33,015,23,67,25,209,27,75,03,136,,87,01,029,*63
$GLGSV,3,3,09,85,01,130,*52
$GPGGA,163831.0,2249.147833,S,04318.399643,W,1,06,0.9,-10.1,M,-3.0,M,,*5A
$GNGNS,163831.0,2249.147833,S,04318.399643,W,AA,11,0.9,-10.1,-3.0,,*68
$GPVTG,245.6,T,245.6,M,0.0,N,0.0,K,A*23
$GPGSA,A,2,07,08,09,23,28,30,,,,,,,1.3,0.9,0.9*3F
$GNGSA,A,2,07,08,09,23,28,30,,,,,,,1.3,0.9,0.9*21
$GNGSA,A,2,65,66,67,76,77,,,,,,,,1.3,0.9,0.9*2C
$BDGSA,A,2,,,,,,,,,,,,,1.3,0.9,0.9*20
$GPRMC,163831.0,A,2249.147833,S,04318.399643,W,0.0,245.6,240817,0.0,E,A*02
$GPGSV,3,1,10,07,45,161,41,08,22,108,30,09,57,080,35,23,28,060,29*7E
$GPGSV,3,2,10,28,55,322,34,30,46,217,37,05,13,226,,11,02,063,*70
$GPGSV,3,3,10,17,03,354,,27,02,135,*7F
$GLGSV,3,1,09,66,77,254,37,86,09,081,11,77,38,253,27,76,37,174,34*6D
$GLGSV,3,2,09,65,33,015,24,67,25,209,28,75,03,136,,87,01,029,*6B
$GLGSV,3,3,09,85,01,130,*52
$GPGGA,163832.0,2249.147834,S,04318.399640,W,1,06,0.9,-10.1,M,-3.0,M,,*5D
$GNGNS,163832.0,2249.147834,S,04318.399640,W,AA,11,0.9,-10.1,-3.0,,*6F
$GPVTG,245.6,T,245.6,M,0.0,N,0.0,K,A*23
$GPGSA,A,2,07,08,09,23,28,30,,,,,,,1.3,0.9,0.9*3F
$GNGSA,A,2,07,08,09,23,28,30,,,,,,,1.3,0.9,0.9*21
$GNGSA,A,2,65,66,67,76,77,,,,,,,,1.3,0.9,0.9*2C
$BDGSA,A,2,,,,,,,,,,,,,1.3,0.9,0.9*20
$GPRMC,163832.0,A,2249.147834,S,04318.399640,W,0.0,245.6,240817,0.0,E,A*05
$GPGSV,3,1,10,07,45,161,41,08,22,108,30,09,57,080,35,23,28,060,29*7E
$GPGSV,3,2,10,28,55,322,34,30,46,217,37,05,13,226,,11,02,063,*70
$GPGSV,3,3,10,17,03,354,,27,02,135,*7F
$GLGSV,3,1,09,66,77,254,37,86,09,081,11,77,38,253,26,76,37,174,34*6C
$GLGSV,3,2,09,65,33,015,23,67,25,209,28,75,03,136,,87,01,029,*6C
$GLGSV,3,3,09,85,01,130,*52
$GPGGA,163833.0,2249.147835,S,04318.399638,W,1,06,0.9,-10.1,M,-3.0,M,,*52
$GNGNS,163833.0,2249.147835,S,04318.399638,W,AA,11,0.9,-10.1,-3.0,,*60
$GPVTG,245.6,T,245.6,M,0.0,N,0.0,K,A*23
$GPGSA,A,2,07,08,09,23,28,30,,,,,,,1.3,0.9,0.9*3F
$GNGSA,A,2,07,08,09,23,28,30,,,,,,,1.3,0.9,0.9*21
$GNGSA,A,2,65,66,67,76,77,,,,,,,,1.3,0.9,0.9*2C
$BDGSA,A,2,,,,,,,,,,,,,1.3,0.9,0.9*20
$GPRMC,163833.0,A,2249.147835,S,04318.399638,W,0.0,245.6,240817,0.0,E,A*0A
$GPGSV,3,1,10,07,45,161,41,08,22,108,31,09,57,080,35,23,28,060,29*7F
$GPGSV,3,2,10,28,55,322,34,30,46,217,37,05,13,226,,11,02,063,*70
$GPGSV,3,3,10,17,03,354,,27,02,135,*7F
$GLGSV,3,1,09,66,77,254,37,86,09,081,11,77,38,253,27,76,37,174,33*6A
$GLGSV,3,2,09,65,33,015,24,67,25,209,28,75,03,136,,87,01,029,*6B
$GLGSV,3,3,09,85,01,130,*52
$GPGGA,163834.0,2249.147834,S,04318.399635,W,1,06,0.9,-10.1,M,-3.0,M,,*59
$GNGNS,163834.0,2249.147834,S,04318.399635,W,AA,11,0.9,-10.1,-3.0,,*6B
$GPVTG,245.6,T,245.6,M,0.0,N,0.0,K,A*23
$GPGSA,A,2,07,08,09,23,28,30,,,,,,,1.3,0.9,0.9*3F
$GNGSA,A,2,07,08,09,23,28,30,,,,,,,1.3,0.9,0.9*21
$GNGSA,A,2,65,66,67,76,77,,,,,,,,1.3,0.9,0.9*2C
$BDGSA,A,2,,,,,,,,,,,,,1.3,0.9,0.9*20
$GPRMC,163834.0,A,2249.147834,S,04318.399635,W,0.0,245.6,240817,0.0,E,A*01
$GPGSV,3,1,10,07,45,161,41,08,22,108,31,09,57,080,36,23,28,060,30*74
$GPGSV,3,2,10,28,55,322,34,30,46,217,38,05,13,226,,11,02,063,*7F
$GPGSV,3,3,10,17,03,354,,27,02,135,*7F
$GLGSV,3,1,09,66,77,254,38,86,09,081,11,77,38,253,27,76,37,174,34*62
$GLGSV,3,2,09,65,33,015,24,67,25,209,29,75,03,136,,87,01,029,*6A
$GLGSV,3,3,09,85,01,130,*52
$GPGGA,163835.0,2249.147836,S,04318.399634,W,1,06,0.9,-10.1,M,-3.0,M,,*5B
$GNGNS,163835.0,2249.147836,S,04318.399634,W,AA,11,0.9,-10.1,-3.0,,*69
$GPVTG,245.6,T,245.6,M,0.0,N,0.0,K,A*23
$GPGSA,A,2,07,08,09,23,28,30,,,,,,,1.3,0.9,0.9*3F
$GNGSA,A,2,07,08,09,23,28,30,,,,,,,1.3,0.9,0.9*21
$GNGSA,A,2,65,66,67,76,77,,,,,,,,1.3,0.9,0.9*2C
$BDGSA,A,2,,,,,,,,,,,,,1.3,0.9,0.9*20
$GPRMC,163835.0,A,2249.147836,S,04318.399634,W,0.0,245.6,240817,0.0,E,A*03
$GPGSV,3,1,10,07,45,161,40,08,22,108,31,09,57,080,36,23,28,060,29*7D
$GPGSV,3,2,10,28,55,322,34,30,46,217,37,05,13,226,,11,02,063,*70
$GPGSV,3,3,10,17,03,354,,27,02,135,*7F
$GLGSV,3,1,09,66,77,254,37,86,09,081,11,77,38,253,26,76,37,174,33*6B
$GLGSV,3,2,09,65,33,015,23,67,25,209,28,75,03,136,,87,01,029,*6C
$GLGSV,3,3,09,85,01,130,*52
$GPGGA,163836.0,2249.147839,S,04318.399634,W,1,06,0.9,-10.1,M,-3.0,M,,*57
$GNGNS,163836.0,2249.147839,S,04318.399634,W,AA,11,0.9,-10.1,-3.0,,*65
$GPVTG,245.6,T,245.6,M,0.0,N,0.0,K,A*23
$GPGSA,A,2,07,08,09,23,28,30,,,,,,,1.3,0.9,0.9*3F
$GNGSA,A,2,07,08,09,23,28,30,,,,,,,1.3,0.9,0.9*21
$GNGSA,A,2,65,66,67,76,77,,,,,,,,1.3,0.9,0.9*2C
$BDGSA,A,2,,,,,,,,,,,,,1.3,0.9,0.9*20
$GPRMC,163836.0,A,2249.147839,S,04318.399634,W,0.0,245.6,240817,0.0,E,A*0F
$GPGSV,3,1,10,07,45,161,40,08,22,108,32,09,57,080,35,23,28,060,29*7D
$GPGSV,3,2,10,28,55,322,34,30,46,217,37,05,13,226,,11,02,063,*70
$GPGSV,3,3,10,17,03,354,,27,02,135,*7F
$GLGSV,3,1,09,66,77,254,37,86,09,081,11,77,38,253,27,76,37,174,33*6A
$GLGSV,3,2,09,65,33,015,23,67,25,209,28,75,03,136,,87,01,029,*6C
$GLGSV,3,3,09,85,01,130,*52
$GPGGA,163837.0,2249.147841,S,04318.399634,W,1,06,0.9,-10.1,M,-3.0,M,,*59
$GNGNS,163837.0,2249.147841,S,04318.399634,W,AA,11,0.9,-10.1,-3.0,,*6B
$GPVTG,245.6,T,245.6,M,0.0,N,0.0,K,A*23
$GPGSA,A,2,07,08,09,23,28,30,,,,,,,1.3,0.9,0.9*3F
$GNGSA,A,2,07,08,09,23,28,30,,,,,,,1.3,0.9,0.9*21
$GNGSA,A,2,65,66,67,76,77,,,,,,,,1.3,0.9,0.9*2C
$BDGSA,A,2,,,,,,,,,,,,,1.3,0.9,0.9*20
$GPRMC,163837.0,A,2249.147841,S,04318.399634,W,0.0,245.6,240817,0.0,E,A*01
$GPGSV,3,1,10,07,45,161,41,08,22,108,33,09,57,080,36,23,28,060,30*76
$GPGSV,3,2,10,28,55,322,34,30,46,217,38,05,13,226,,11,02,063,*7F
$GPGSV,3,3,10,17,03,354,,27,02,135,*7F
$GLGSV,3,1,09,66,77,254,37,86,09,081,11,77,38,253,27,76,37,174,34*6D
$GLGSV,3,2,09,65,33,015,23,67,25,209,29,75,03,136,,87,01,029,*6D
$GLGSV,3,3,09,85,01,130,*52
$GPGGA,163838.0,2249.147843,S,04318.399635,W,1,06,0.9,-10.1,M,-3.0,M,,*55
$GNGNS,163838.0,2249.147843,S,04318.399635,W,AA,11,0.9,-10.1,-3.0,,*67
$GPVTG,245.6,T,245.6,M,0.0,N,0.0,K,A*23
$GPGSA,A,2,07,08,09,23,28,30,,,,,,,1.3,0.9,0.9*3F
$GNGSA,A,2,07,08,09,23,28,30,,,,,,,1.3,0.9,0.9*21
$GNGSA,A,2,65,66,67,76,77,,,,,,,,1.3,0.9,0.9*2C
$BDGSA,A,2,,,,,,,,,,,,,1.3,0.9,0.9*20
$GPRMC,163838.0,A,2249.147843,S,04318.399635,W,0.0,245.6,240817,0.0,E,A*0D
$GPGSV,3,1,10,07,45,161,40,08,22,108,33,09,57,080,36,23,28,060,29*7F
$GPGSV,3,2,10,28,55,322,33,30,46,217,37,05,13,226,,11,02,063,*77
$GPGSV,3,3,10,17,03,354,,27,02,135,*7F
$GLGSV,3,1,09,66,77,254,37,86,09,081,11,77,38,253,28,76,37,174,33*65
$GLGSV,3,2,09,65,33,015,24,67,25,209,28,75,03,136,,87,01,029,*6B
$GLGSV,3,3,09,85,01,130,*52
$GPGGA,163839.0,2249.147847,S,04318.399639,W,1,06,0.9,-10.0,M,-3.0,M,,*5D
$GNGNS,163839.0,2249.147847,S,04318.399639,W,AA,11,0.9,-10.0,-3.0,,*6F
$GPVTG,245.6,T,245.6,M,0.0,N,0.0,K,A*23
$GPGSA,A,2,07,08,09,23,28,30,,,,,,,1.3,0.9,0.9*3F
$GNGSA,A,2,07,08,09,23,28,30,,,,,,,1.3,0.9,0.9*21
$GNGSA,A,2,65,66,67,76,77,,,,,,,,1.3,0.9,0.9*2C
$BDGSA,A,2,,,,,,,,,,,,,1.3,0.9,0.9*20
$GPRMC,163839.0,A,2249.147847,S,04318.399639,W,0.0,245.6,240817,0.0,E,A*04
$GPGSV,3,1,10,07,45,161,41,08,22,108,33,09,57,080,36,23,28,060,30*76
$GPGSV,3,2,10,28,55,322,33,30,46,217,38,05,13,226,,11,02,063,*78
$GPGSV,3,3,10,17,03,354,,27,02,135,*7F
$GLGSV,3,1,09,66,77,254,37,86,09,081,11,77,38,253,27,76,37,174,34*6D
$GLGSV,3,2,09,65,33,015,24,67,25,209,29,75,03,136,,87,01,029,*6A
$GLGSV,3,3,09,85,01,130,*52
$GPGGA,163840.0,2249.147849,S,04318.399641,W,1,06,0.9,-10.0,M,-3.0,M,,*52
$GNGNS,163840.0,2249.147849,S,04318.399641,W,AA,11,0.9,-10.0,-3.0,,*60
$GPVTG,245.6,T,245.6,M,0.0,N,0.0,K,A*23
$GPGSA,A,2,07,08,09,23,28,30,,,,,,,1.3,0.9,0.9*3F
$GNGSA,A,2,07,08,09,23,28,30,,,,,,,1.3,0.9,0.9*21
$GNGSA,A,2,65,66,67,76,77,,,,,,,,1.3,0.9,0.9*2C
$BDGSA,A,2,,,,,,,,,,,,,1.3,0.9,0.9*20
$GPRMC,163840.0,A,2249.147849,S,04318.399641,W,0.0,245.6,240817,0.0,E,A*0B
$GPGSV,3,1,10,07,45,161,41,08,22,108,34,09,57,080,37,23,28,060,31*71
$GPGSV,3,2,10,28,55,322,34,30,46,217,38,05,13,226,,11,02,063,*7F
$GPGSV,3,3,10,17,03,354,,27,02,135,*7F
$GLGSV,3,1,09,66,77,254,38,86,09,081,11,77,38,253,28,76,37,174,34*6D
$GLGSV,3,2,09,65,33,015,24,67,25,209,29,75,03,136,,87,01,029,*6A
$GLGSV,3,3,09,85,01,130,*52
$GPGGA,163841.0,2249.147856,S,04318.399644,W,1,06,0.9,-9.9,M,-3.0,M,,*69
$GNGNS,163841.0,2249.147856,S,04318.399644,W,AA,11,0.9,-9.9,-3.0,,*5B
$GPVTG,245.6,T,245.6,M,0.0,N,0.0,K,A*23
$GPGSA,A,2,07,08,09,23,28,30,,,,,,,1.3,0.9,0.9*3F
$GNGSA,A,2,07,08,09,23,28,30,,,,,,,1.3,0.9,0.9*21
$GNGSA,A,2,65,66,67,76,77,,,,,,,,1.3,0.9,0.9*2C
$BDGSA,A,2,,,,,,,,,,,,,1.3,0.9,0.9*20
$GPRMC,163841.0,A,2249.147856,S,04318.399644,W,0.0,245.6,240817,0.0,E,A*01
$GPGSV,3,1,10,07,45,161,40,08,22,108,32,09,57,080,36,23,28,060,29*7E
$GPGSV,3,2,10,28,55,322,33,30,46,217,37,05,13,226,,11,02,063,*77
$GPGSV,3,3,10,17,03,354,,27,02,135,*7F
$GLGSV,3,1,09,66,77,254,37,86,09,081,11,77,38,253,27,76,37,174,33*6A
$GLGSV,3,2,09,65,33,015,23,67,25,209,28,75,03,136,,87,01,029,*6C
$GLGSV,3,3,09,85,01,130,*52
$GPGGA,163842.0,2249.147861,S,04318.399650,W,1,06,0.9,-9.9,M,-3.0,M,,*6B
$GNGNS,163842.0,2249.147861,S,04318.399650,W,AA,11,0.9,-9.9,-3.0,,*59
$GPVTG,245.6,T,245.6,M,0.0,N,0.0,K,A*23
$GPGSA,A,2,07,08,09,23,28,30,,,,,,,1.3,0.9,0.9*3F
$GNGSA,A,2,07,08,09,23,28,30,,,,,,,1.3,0.9,0.9*21
$GNGSA,A,2,65,66,67,76,77,,,,,,,,1.3,0.9,0.9*2C
$BDGSA,A,2,,,,,,,,,,,,,1.3,0.9,0.9*20
$GPRMC,163842.0,A,2249.147861,S,04318.399650,W,0.0,245.6,240817,0.0,E,A*03
$GPGSV,3,1,10,07,45,161,38,08,22,108,31,09,57,080,34,23,28,060,27*7E
$GPGSV,3,2,10,28,55,322,31,30,46,217,36,05,13,226,,11,02,063,*74
$GPGSV,3,3,10,17,03,354,,27,02,135,*7F
$GLGSV,3,1,09,66,77,254,35,86,09,081,11,77,38,253,26,76,37,174,32*68
$GLGSV,3,2,09,65,33,015,22,67,25,209,26,75,03,136,,87,01,029,*63
$GLGSV,3,3,09,85,01,130,*52
$GPGGA,163843.0,2249.147866,S,04318.399652,W,1,06,0.9,-9.8,M,-3.0,M,,*6E
$GNGNS,163843.0,2249.147866,S,04318.399652,W,AA,11,0.9,-9.8,-3.0,,*5C
$GPVTG,245.6,T,245.6,M,0.0,N,0.0,K,A*23
$GPGSA,A,2,07,08,09,23,28,30,,,,,,,1.3,0.9,0.9*3F
$GNGSA,A,2,07,08,09,23,28,30,,,,,,,1.3,0.9,0.9*21
$GNGSA,A,2,65,66,67,76,77,,,,,,,,1.3,0.9,0.9*2C
$BDGSA,A,2,,,,,,,,,,,,,1.3,0.9,0.9*20
$GPRMC,163843.0,A,2249.147866,S,04318.399652,W,0.0,245.6,240817,0.0,E,A*07
$GPGSV,3,1,10,07,45,161,40,08,22,108,33,09,57,080,36,23,28,060,29*7F
$GPGSV,3,2,10,28,55,322,33,30,46,217,37,05,13,226,,11,02,063,*77
$GPGSV,3,3,10,17,03,354,,27,02,135,*7F
$GLGSV,3,1,09,66,77,254,37,77,38,253,28,76,37,174,33,65,33,015,24*6A
$GLGSV,3,2,09,67,25,209,27,,09,081,,75,03,136,,87,01,029,*65
$GLGSV,3,3,09,85,01,130,*52
$GPGGA,163844.0,2249.147869,S,04318.399655,W,1,06,0.9,-9.8,M,-3.0,M,,*61
$GNGNS,163844.0,2249.147869,S,04318.399655,W,AA,11,0.9,-9.8,-3.0,,*53
$GPVTG,245.6,T,245.6,M,0.0,N,0.0,K,A*23
$GPGSA,A,2,07,08,09,23,28,30,,,,,,,1.3,0.9,0.9*3F
$GNGSA,A,2,07,08,09,23,28,30,,,,,,,1.3,0.9,0.9*21
$GNGSA,A,2,65,66,67,76,77,,,,,,,,1.3,0.9,0.9*2C
$BDGSA,A,2,,,,,,,,,,,,,1.3,0.9,0.9*20
$GPRMC,163844.0,A,2249.147869,S,04318.399655,W,0.0,245.6,240817,0.0,E,A*08
$GPGSV,3,1,10,07,45,161,40,08,22,108,33,09,57,080,36,23,28,060,30*77
$GPGSV,3,2,10,28,55,322,33,30,46,217,38,05,13,226,,11,02,063,*78
$GPGSV,3,3,10,17,03,354,,27,02,135,*7F
$GLGSV,3,1,09,66,77,254,37,77,38,253,28,76,37,174,34,65,33,015,24*6D
$GLGSV,3,2,09,67,25,209,28,86,09,081,,75,03,136,,87,01,029,*64
$GLGSV,3,3,09,85,01,130,*52
$GPGGA,163845.0,2249.147872,S,04318.399658,W,1,06,0.9,-9.8,M,-3.0,M,,*67
$GNGNS,163845.0,2249.147872,S,04318.399658,W,AA,11,0.9,-9.8,-3.0,,*55
$GPVTG,245.6,T,245.6,M,0.0,N,0.0,K,A*23
$GPGSA,A,2,07,08,09,23,28,30,,,,,,,1.3,0.9,0.9*3F
$GNGSA,A,2,07,08,09,23,28,30,,,,,,,1.3,0.9,0.9*21
$GNGSA,A,2,65,66,67,76,77,,,,,,,,1.3,0.9,0.9*2C
$BDGSA,A,2,,,,,,,,,,,,,1.3,0.9,0.9*20
$GPRMC,163845.0,A,2249.147872,S,04318.399658,W,0.0,245.6,240817,0.0,E,A*0E
$GPGSV,3,1,10,07,45,161,40,08,22,108,33,09,57,080,36,23,28,060,29*7F
$GPGSV,3,2,10,28,55,322,33,30,46,217,37,05,13,226,,11,02,063,*77
$GPGSV,3,3,10,17,03,354,,27,02,135,*7F
$GLGSV,3,1,09,66,77,254,37,77,38,253,28,76,37,174,33,65,33,015,23*6D
$GLGSV,3,2,09,67,25,209,27,86,09,081,,75,03,136,,87,01,029,*6B
$GLGSV,3,3,09,85,01,130,*52
$GPGGA,163846.0,2249.147873,S,04318.399659,W,1,06,0.9,-9.7,M,-3.0,M,,*6B
$GNGNS,163846.0,2249.147873,S,04318.399659,W,AA,11,0.9,-9.7,-3.0,,*59
$GPVTG,245.6,T,245.6,M,0.0,N,0.0,K,A*23
$GPGSA,A,2,07,08,09,23,28,30,,,,,,,1.3,0.9,0.9*3F
$GNGSA,A,2,07,08,09,23,28,30,,,,,,,1.3,0.9,0.9*21
$GNGSA,A,2,65,66,67,76,77,,,,,,,,1.3,0.9,0.9*2C
$BDGSA,A,2,,,,,,,,,,,,,1.3,0.9,0.9*20
$GPRMC,163846.0,A,2249.147873,S,04318.399659,W,0.0,245.6,240817,0.0,E,A*0D
$GPGSV,3,1,10,07,45,161,40,08,22,108,33,09,57,080,37,23,28,060,29*7E
$GPGSV,3,2,10,28,55,322,34,30,46,217,38,05,13,226,,11,02,063,*7F
$GPGSV,3,3,10,17,03,354,,27,02,135,*7F
$GLGSV,3,1,09,66,77,254,37,77,38,253,28,76,37,174,34,65,33,015,24*6D
$GLGSV,3,2,09,67,25,209,28,86,09,081,,75,03,136,,87,01,029,*64
$GLGSV,3,3,09,85,01,130,*52
$GPGGA,163847.0,2249.147876,S,04318.399661,W,1,06,0.9,-9.7,M,-3.0,M,,*64
$GNGNS,163847.0,2249.147876,S,04318.399661,W,AA,11,0.9,-9.7,-3.0,,*56
$GPVTG,245.6,T,245.6,M,0.0,N,0.0,K,A*23
$GPGSA,A,2,07,08,09,23,28,30,,,,,,,1.3,0.9,0.9*3F
$GNGSA,A,2,07,08,09,23,28,30,,,,,,,1.3,0.9,0.9*21
$GNGSA,A,2,65,66,67,76,77,,,,,,,,1.3,0.9,0.9*2C
$BDGSA,A,2,,,,,,,,,,,,,1.3,0.9,0.9*20
$GPRMC,163847.0,A,2249.147876,S,04318.399661,W,0.0,245.6,240817,0.0,E,A*02
$GPGSV,3,1,10,07,45,161,41,08,22,108,33,09,57,080,37,23,28,060,30*77
$GPGSV,3,2,10,28,55,322,34,30,46,217,39,05,13,226,,11,02,063,*7E
$GPGSV,3,3,10,17,03,354,,27,02,135,*7F
$GLGSV,3,1,09,66,77,254,38,86,09,081,15,77,38,253,28,76,37,174,34*69
$GLGSV,3,2,09,65,33,015,25,67,25,209,28,75,03,136,,87,01,029,*6A
$GLGSV,3,3,09,85,01,130,*52
$GPGGA,163848.0,2249.147879,S,04318.399661,W,1,06,0.9,-9.7,M,-3.0,M,,*64
$GNGNS,163848.0,2249.147879,S,04318.399661,W,AA,11,0.9,-9.7,-3.0,,*56
$GPVTG,245.6,T,245.6,M,0.0,N,0.0,K,A*23
$GPGSA,A,2,07,08,09,23,28,30,,,,,,,1.3,0.9,0.9*3F
$GNGSA,A,2,07,08,09,23,28,30,,,,,,,1.3,0.9,0.9*21
$GNGSA,A,2,65,66,67,76,77,,,,,,,,1.3,0.9,0.9*2C
$BDGSA,A,2,,,,,,,,,,,,,1.3,0.9,0.9*20
$GPRMC,163848.0,A,2249.147879,S,04318.399661,W,0.0,245.6,240817,0.0,E,A*02
$GPGSV,3,1,10,07,45,161,40,08,22,108,33,09,57,080,36,23,28,060,29*7F
$GPGSV,3,2,10,28,55,322,33,30,46,217,38,05,13,226,,11,02,063,*78
$GPGSV,3,3,10,17,03,354,,27,02,135,*7F
$GLGSV,3,1,09,66,77,254,37,86,09,081,15,77,38,253,28,76,37,174,33*61
$GLGSV,3,2,09,65,33,015,23,67,25,209,27,75,03,136,,87,01,029,*63
$GLGSV,3,3,09,85,01,130,*52
$GPGGA,163849.0,2249.147880,S,04318.399660,W,1,06,0.9,-9.7,M,-3.0,M,,*62
$GNGNS,163849.0,2249.147880,S,04318.399660,W,AA,11,0.9,-9.7,-3.0,,*50
$GPVTG,245.6,T,245.6,M,0.0,N,0.0,K,A*23
$GPGSA,A,2,07,08,09,23,28,30,,,,,,,1.3,0.9,0.9*3F
$GNGSA,A,2,07,08,09,23,28,30,,,,,,,1.3,0.9,0.9*21
$GNGSA,A,2,65,66,67,76,77,,,,,,,,1.3,0.9,0.9*2C
$BDGSA,A,2,,,,,,,,,,,,,1.3,0.9,0.9*20
$GPRMC,163849.0,A,2249.147880,S,04318.399660,W,0.0,245.6,240817,0.0,E,A*04
$GPGSV,3,1,10,07,45,161,41,08,22,108,33,09,57,080,36,23,28,060,29*7E
$GPGSV,3,2,10,28,55,322,34,30,46,217,38,05,13,226,,11,02,063,*7F
$GPGSV,3,3,10,17,03,354,,27,02,135,*7F
$GLGSV,3,1,09,66,77,254,37,86,09,081,16,77,38,253,28,76,37,174,34*65
$GLGSV,3,2,09,65,33,015,24,67,25,209,28,75,03,136,,87,01,029,*6B
$GLGSV,3,3,09,85,01,130,*52
$GPGGA,163850.0,2249.147880,S,04318.399660,W,1,06,0.9,-9.6,M,-3.0,M,,*6B
$GNGNS,163850.0,2249.147880,S,04318.399660,W,AA,11,0.9,-9.6,-3.0,,*59
$GPVTG,245.6,T,245.6,M,0.0,N,0.0,K,A*23
$GPGSA,A,2,07,08,09,23,28,30,,,,,,,1.3,0.9,0.9*3F
$GNGSA,A,2,07,08,09,23,28,30,,,,,,,1.3,0.9,0.9*21
$GNGSA,A,2,65,66,67,76,77,,,,,,,,1.3,0.9,0.9*2C
$BDGSA,A,2,,,,,,,,,,,,,1.3,0.9,0.9*20
$GPRMC,163850.0,A,2249.147880,S,04318.399660,W,0.0,245.6,240817,0.0,E,A*0C
$GPGSV,3,1,10,07,45,161,41,08,22,108,33,09,57,080,36,23,28,060,29*7E
$GPGSV,3,2,10,28,55,322,34,30,46,217,38,05,13,226,,11,02,063,*7F
$GPGSV,3,3,10,17,03,354,,27,02,135,*7F
$GLGSV,3,1,09,66,77,254,37,86,09,081,16,77,38,253,28,76,37,174,34*65
$GLGSV,3,2,09,65,33,015,24,67,25,209,28,75,03,136,,87,01,029,*6B
$GLGSV,3,3,09,85,01,130,*52
$GPGGA,163851.0,2249.147882,S,04318.399659,W,1,06,0.9,-9.6,M,-3.0,M,,*62
$GNGNS,163851.0,2249.147882,S,04318.399659,W,AA,11,0.9,-9.6,-3.0,,*50
$GPVTG,245.6,T,245.6,M,0.0,N,0.0,K,A*23
$GPGSA,A,2,07,08,09,23,28,30,,,,,,,1.3,0.9,0.9*3F
$GNGSA,A,2,07,08,09,23,28,30,,,,,,,1.3,0.9,0.9*21
$GNGSA,A,2,65,66,67,76,77,,,,,,,,1.3,0.9,0.9*2C
$BDGSA,A,2,,,,,,,,,,,,,1.3,0.9,0.9*20
$GPRMC,163851.0,A,2249.147882,S,04318.399659,W,0.0,245.6,240817,0.0,E,A*05
$GPGSV,3,1,10,07,45,161,41,08,22,108,33,09,57,080,37,23,28,060,29*7F
$GPGSV,3,2,10,28,55,322,35,30,46,217,39,05,13,226,,11,02,063,*7F
$GPGSV,3,3,10,17,03,354,,27,02,135,*7F
$GLGSV,3,1,09,66,77,254,37,86,09,081,16,77,38,253,28,76,37,174,34*65
$GLGSV,3,2,09,65,33,015,24,67,25,209,28,75,03,136,,87,01,029,*6B
$GLGSV,3,3,09,85,01,130,*52
$GPGGA,163852.0,2249.147882,S,04318.399657,W,1,06,0.9,-9.6,M,-3.0,M,,*6F
$GNGNS,163852.0,2249.147882,S,04318.399657,W,AA,11,0.9,-9.6,-3.0,,*5D
$GPVTG,245.6,T,245.6,M,0.0,N,0.0,K,A*23
$GPGSA,A,2,07,08,09,23,28,30,,,,,,,1.3,0.9,0.9*3F
$GNGSA,A,2,07,08,09,23,28,30,,,,,,,1.3,0.9,0.9*21
$GNGSA,A,2,65,66,67,76,77,,,,,,,,1.3,0.9,0.9*2C
$BDGSA,A,2,,,,,,,,,,,,,1.3,0.9,0.9*20
$GPRMC,163852.0,A,2249.147882,S,04318.399657,W,0.0,245.6,240817,0.0,E,A*08
$GPGSV,3,1,10,07,45,161,41,08,22,108,32,09,57,080,36,23,28,060,29*7F
$GPGSV,3,2,10,28,55,322,34,30,46,217,38,05,13,226,,11,02,063,*7F
$GPGSV,3,3,10,17,03,354,,27,02,135,*7F
$GLGSV,3,1,09,66,77,254,37,86,09,081,17,77,38,253,28,76,37,174,34*64
$GLGSV,3,2,09,65,33,015,24,67,25,209,27,75,03,136,,87,01,029,*64
$GLGSV,3,3,09,85,01,130,*52
$GPGGA,163853.0,2249.147882,S,04318.399654,W,1,06,0.9,-9.6,M,-3.0,M,,*6D
$GNGNS,163853.0,2249.147882,S,04318.399654,W,AA,11,0.9,-9.6,-3.0,,*5F
$GPVTG,245.6,T,245.6,M,0.0,N,0.0,K,A*23
$GPGSA,A,2,07,08,09,23,28,30,,,,,,,1.3,0.9,0.9*3F
$GNGSA,A,2,07,08,09,23,28,30,,,,,,,1.3,0.9,0.9*21
$GNGSA,A,2,65,66,67,76,77,,,,,,,,1.3,0.9,0.9*2C
$BDGSA,A,2,,,,,,,,,,,,,1.3,0.9,0.9*20
$GPRMC,163853.0,A,2249.147882,S,04318.399654,W,0.0,245.6,240817,0.0,E,A*0A
$GPGSV,3,1,10,07,45,161,40,08,22,108,31,09,57,080,36,23,28,060,28*7C
$GPGSV,3,2,10,28,55,322,33,30,46,217,37,05,13,226,,11,02,063,*77
$GPGSV,3,3,10,17,03,354,,27,02,135,*7F
$GLGSV,3,1,09,66,77,254,36,86,09,081,17,77,38,253,27,76,37,174,33*6D
$GLGSV,3,2,09,65,33,015,22,67,25,209,27,75,03,136,,87,01,029,*62
$GLGSV,3,3,09,85,01,130,*52
$GPGGA,163854.0,2249.147882,S,04318.399651,W,1,06,0.9,-9.5,M,-3.0,M,,*6C
$GNGNS,163854.0,2249.147882,S,04318.399651,W,AA,11,0.9,-9.5,-3.0,,*5E
$GPVTG,245.6,T,245.6,M,0.0,N,0.0,K,A*23
