$GPGGA,154432.00,2249.145976,S,04318.399651,W,1,23,0.3,13.1,M,-5.2,M,,*47
$GPGSV,3,1,10,25,77,010,38,29,49,175,34,21,42,272,31,12,41,035,38*7E
$GPGSV,3,2,10,05,32,128,37,20,21,338,35,31,15,251,21,15,11,043,33*7D
$GPGSV,3,3,10,26,02,218,,02,02,129,*7F
$GLGSV,2,1,08,88,36,184,25,65,36,087,31,77,32,344,31,81,23,239,19*62
$GLGSV,2,2,08,79,20,218,16,87,18,135,36,66,18,021,30,72,16,133,36*66
$GAGSV,2,1,08,125,59,263,27,111,51,187,24,124,46,357,39,104,25,073,31*6C
$GAGSV,2,2,08,112,20,130,28,109,17,018,30,102,16,220,,119,06,125,14*64
$GPGSA,A,3,05,12,15,20,21,25,29,31,,,,,1.7,0.8,1.5*35
$GNGSA,A,3,05,12,15,20,21,25,29,31,,,,,1.7,0.8,1.5*2B
$GNGSA,A,3,65,66,72,77,79,81,87,88,,,,,1.7,0.8,1.5*28
$QZGSA,A,3,,,,,,,,,,,,,1.7,0.8,1.5*24
$IMGSA,A,3,,,,,,,,,,,,,1.7,0.8,1.5*2B
$BDGSA,A,3,,,,,,,,,,,,,1.7,0.8,1.5*29
$GAGSA,A,3,104,109,111,112,124,125,,,,,,,1.7,0.8,1.5*26
$GPRMC,154432.00,A,2249.145976,S,04318.399651,W,000.0,,140119,,,A*7C
$GPGGA,154433.00,2249.145985,S,04318.399668,W,1,22,0.3,13.1,M,-5.2,M,,*41
$GPGSV,3,1,10,25,77,010,37,29,49,175,34,21,42,272,30,12,41,035,38*70
$GPGSV,3,2,10,05,32,128,37,20,21,338,35,31,15,251,20,15,11,043,33*7C
$GPGSV,3,3,10,26,02,218,,02,02,129,*7F
$GLGSV,2,1,08,88,36,184,24,65,36,087,31,77,32,344,31,81,23,239,18*62
$GLGSV,2,2,08,79,20,218,15,87,18,135,36,66,18,021,30,72,16,133,36*65
$GAGSV,2,1,08,125,59,263,27,111,51,187,23,124,46,357,39,104,25,073,30*6A
$GAGSV,2,2,08,112,20,130,27,109,17,018,30,102,16,220,14,119,06,125,13*69
$GPGSA,A,3,05,12,15,20,21,25,29,31,,,,,1.7,0.7,1.5*3A
$GNGSA,A,3,05,12,15,20,21,25,29,31,,,,,1.7,0.7,1.5*24
$GNGSA,A,3,65,66,72,77,79,87,88,,,,,,1.7,0.7,1.5*2E
$QZGSA,A,3,,,,,,,,,,,,,1.7,0.7,1.5*2B
$IMGSA,A,3,,,,,,,,,,,,,1.7,0.7,1.5*24
$BDGSA,A,3,,,,,,,,,,,,,1.7,0.7,1.5*26
$GAGSA,A,3,102,104,109,111,112,124,125,,,,,,1.7,0.7,1.5*1A
$GPRMC,154433.00,A,2249.145985,S,04318.399668,W,000.1,,140119,,,A*7A
$GPGGA,154434.00,2249.145999,S,04318.399691,W,1,22,0.3,13.1,M,-5.2,M,,*4D
$GPGSV,3,1,10,25,77,010,37,29,49,175,33,21,42,272,30,12,41,035,38*77
$GPGSV,3,2,10,05,32,128,36,20,21,338,35,31,15,251,20,15,11,043,32*7C
$GPGSV,3,3,10,26,02,218,,02,02,129,*7F
$GLGSV,2,1,08,88,36,184,23,65,36,087,31,77,32,344,31,81,23,239,18*65
$GLGSV,2,2,08,79,20,218,15,87,18,135,35,66,18,021,30,72,16,133,35*65
$GAGSV,2,1,08,125,59,264,27,111,51,187,22,124,46,357,39,104,25,073,30*6C
$GAGSV,2,2,08,112,20,130,27,109,17,018,30,102,16,220,18,119,06,125,13*65
$GPGSA,A,3,05,12,15,20,21,25,29,31,,,,,1.8,0.8,1.6*39
$GNGSA,A,3,05,12,15,20,21,25,29,31,,,,,1.8,0.8,1.6*27
$GNGSA,A,3,65,66,72,77,79,87,88,,,,,,1.8,0.8,1.6*2D
$QZGSA,A,3,,,,,,,,,,,,,1.8,0.8,1.6*28
$IMGSA,A,3,,,,,,,,,,,,,1.8,0.8,1.6*27
$BDGSA,A,3,,,,,,,,,,,,,1.8,0.8,1.6*25
$GAGSA,A,3,102,104,109,111,112,124,125,,,,,,1.8,0.8,1.6*19
$GPRMC,154434.00,A,2249.145999,S,04318.399691,W,000.0,,140119,,,A*77
$GPGGA,154435.00,2249.146005,S,04318.399696,W,1,22,0.3,13.1,M,-5.2,M,,*44
$GPGSV,3,1,10,25,77,010,37,29,49,175,33,21,42,272,29,12,41,035,38*7F
$GPGSV,3,2,10,05,32,128,36,20,21,338,34,31,15,251,20,15,11,043,32*7D
$GPGSV,3,3,10,26,02,218,,02,02,129,*7F
$GLGSV,2,1,08,88,36,184,23,65,36,087,31,77,32,344,31,81,23,239,18*65
$GLGSV,2,2,08,79,20,218,15,87,18,135,34,66,18,021,30,72,16,133,35*64
$GAGSV,2,1,08,125,59,264,26,111,51,187,22,124,46,357,39,104,25,073,30*6D
$GAGSV,2,2,08,112,20,130,26,109,17,018,29,102,16,220,17,119,06,125,13*63
$GPGSA,A,3,05,12,15,20,21,25,29,31,,,,,1.8,0.8,1.6*39
$GNGSA,A,3,05,12,15,20,21,25,29,31,,,,,1.8,0.8,1.6*27
$GNGSA,A,3,65,66,72,77,81,87,88,,,,,,1.8,0.8,1.6*2A
$QZGSA,A,3,,,,,,,,,,,,,1.8,0.8,1.6*28
$IMGSA,A,3,,,,,,,,,,,,,1.8,0.8,1.6*27
$BDGSA,A,3,,,,,,,,,,,,,1.8,0.8,1.6*25
$GAGSA,A,3,102,104,109,111,112,124,125,,,,,,1.8,0.8,1.6*19
$GPRMC,154435.00,A,2249.146005,S,04318.399696,W,000.0,,140119,,,A*7E
$GPGGA,154436.00,2249.146011,S,04318.399712,W,1,22,0.3,13.1,M,-5.2,M,,*4F
$GPGSV,3,1,10,25,77,010,37,29,49,175,32,21,42,272,32,12,41,035,38*74
$GPGSV,3,2,10,05,32,128,35,20,21,338,34,31,15,251,20,15,11,043,32*7E
$GPGSV,3,3,10,26,02,218,,02,02,129,*7F
$GLGSV,2,1,08,88,36,184,23,65,36,087,31,77,32,344,31,81,23,239,19*64
$GLGSV,2,2,08,79,20,218,14,87,18,135,34,66,18,021,29,72,16,133,34*6C
$GAGSV,2,1,08,125,59,264,26,111,51,187,22,124,46,357,38,104,25,073,29*64
$GAGSV,2,2,08,112,20,130,26,109,17,018,29,102,16,220,17,119,06,125,12*62
$GPGSA,A,3,05,12,15,20,21,25,29,31,,,,,1.9,0.9,1.6*39
$GNGSA,A,3,05,12,15,20,21,25,29,31,,,,,1.9,0.9,1.6*27
$GNGSA,A,3,65,66,72,77,81,87,88,,,,,,1.9,0.9,1.6*2A
$QZGSA,A,3,,,,,,,,,,,,,1.9,0.9,1.6*28
$IMGSA,A,3,,,,,,,,,,,,,1.9,0.9,1.6*27
$BDGSA,A,3,,,,,,,,,,,,,1.9,0.9,1.6*25
$GAGSA,A,3,102,104,109,111,112,124,125,,,,,,1.9,0.9,1.6*19
$GPRMC,154436.00,A,2249.146011,S,04318.399712,W,000.1,,140119,,,A*74
$GPGGA,154437.00,2249.146015,S,04318.399694,W,1,22,0.3,13.1,M,-5.2,M,,*45
$GPGSV,3,1,10,25,77,010,37,29,49,175,32,21,42,272,34,12,41,035,38*72
$GPGSV,3,2,10,05,32,128,34,20,21,338,33,31,15,251,19,15,11,043,31*71
$GPGSV,3,3,10,26,02,218,,02,02,129,*7F
$GLGSV,2,1,08,88,36,184,25,65,36,087,30,77,32,344,31,81,23,239,21*68
$GLGSV,2,2,08,79,20,218,14,87,18,135,32,66,18,021,29,72,16,133,34*6A
$GAGSV,2,1,08,125,59,264,26,111,51,187,23,124,46,357,38,104,25,073,29*65
$GAGSV,2,2,08,112,20,130,25,109,17,018,29,102,16,220,,119,06,125,12*67
$GPGSA,A,3,05,12,15,20,21,25,29,31,,,,,1.7,0.8,1.5*35
$GNGSA,A,3,05,12,15,20,21,25,29,31,,,,,1.7,0.8,1.5*2B
$GNGSA,A,3,65,66,72,77,81,87,88,,,,,,1.7,0.8,1.5*26
$QZGSA,A,3,,,,,,,,,,,,,1.7,0.8,1.5*24
$IMGSA,A,3,,,,,,,,,,,,,1.7,0.8,1.5*2B
$BDGSA,A,3,,,,,,,,,,,,,1.7,0.8,1.5*29
$GAGSA,A,3,104,109,111,112,124,125,,,,,,,1.7,0.8,1.5*26
$GPRMC,154437.00,A,2249.146015,S,04318.399694,W,000.0,,140119,,,A*7F
$GPGGA,154438.00,2249.146014,S,04318.399704,W,1,20,0.3,13.1,M,-5.2,M,,*41
$GPGSV,3,1,10,25,77,010,37,29,49,175,32,21,42,272,34,12,41,035,38*72
$GPGSV,3,2,10,05,32,128,33,20,21,338,33,31,15,251,18,15,11,043,31*77
$GPGSV,3,3,10,26,02,218,,02,02,129,*7F
$GLGSV,2,1,08,88,36,184,25,65,36,087,30,77,32,344,31,81,23,239,21*68
$GLGSV,2,2,08,79,20,218,14,87,18,135,31,66,18,021,28,72,16,133,33*6F
$GAGSV,2,1,08,125,59,264,26,111,51,187,26,124,46,357,37,104,25,073,28*6E
$GAGSV,2,2,08,112,20,130,24,109,17,018,29,102,16,220,,119,06,125,12*66
$GPGSA,A,3,05,12,15,20,21,25,29,,,,,,1.7,0.9,1.4*37
$GNGSA,A,3,05,12,15,20,21,25,29,,,,,,1.7,0.9,1.4*29
$GNGSA,A,3,65,66,72,77,81,87,88,,,,,,1.7,0.9,1.4*26
$QZGSA,A,3,,,,,,,,,,,,,1.7,0.9,1.4*24
$IMGSA,A,3,,,,,,,,,,,,,1.7,0.9,1.4*2B
$BDGSA,A,3,,,,,,,,,,,,,1.7,0.9,1.4*29
$GAGSA,A,3,104,109,111,112,124,125,,,,,,,1.7,0.9,1.4*26
$GPRMC,154438.00,A,2249.146014,S,04318.399704,W,000.1,,140119,,,A*78
$GPGGA,154439.00,2249.146012,S,04318.399731,W,1,22,0.3,13.1,M,-5.2,M,,*42
$GPGSV,3,1,10,25,77,010,37,29,49,175,32,21,42,272,33,12,41,035,40*7A
$GPGSV,3,2,10,05,32,128,33,20,21,338,32,31,15,251,25,15,11,043,31*78
$GPGSV,3,3,10,26,02,218,,02,02,129,*7F
$GLGSV,2,1,08,88,36,184,25,65,36,087,30,77,32,344,31,81,23,239,25*6C
$GLGSV,2,2,08,79,20,218,14,87,18,135,36,66,18,021,32,72,16,133,33*63
$GAGSV,2,1,08,125,59,264,25,111,51,187,26,124,46,357,37,104,25,073,30*64
$GAGSV,2,2,08,112,20,130,24,109,17,018,30,102,16,220,,119,06,125,12*6E
$GPGSA,A,3,05,12,15,20,21,25,29,31,,,,,1.6,0.8,1.3*32
$GNGSA,A,3,05,12,15,20,21,25,29,31,,,,,1.6,0.8,1.3*2C
$GNGSA,A,3,65,66,72,77,79,81,87,88,,,,,1.6,0.8,1.3*2F
$QZGSA,A,3,,,,,,,,,,,,,1.6,0.8,1.3*23
$IMGSA,A,3,,,,,,,,,,,,,1.6,0.8,1.3*2C
$BDGSA,A,3,,,,,,,,,,,,,1.6,0.8,1.3*2E
$GAGSA,A,3,104,109,111,112,124,125,,,,,,,1.6,0.8,1.3*21
$GPRMC,154439.00,A,2249.146012,S,04318.399731,W,000.1,,140119,,,A*79
$GPGGA,154440.00,2249.146008,S,04318.399753,W,1,22,0.3,13.1,M,-5.2,M,,*43
$GPGSV,3,1,10,25,77,010,37,29,49,175,33,21,42,272,33,12,41,035,40*7B
$GPGSV,3,2,10,05,32,128,32,20,21,338,33,31,15,251,25,15,11,043,33*7A
$GPGSV,3,3,10,26,02,218,,02,02,129,*7F
$GLGSV,2,1,08,88,36,184,26,65,36,087,30,77,32,344,31,81,23,239,25*6F
$GLGSV,2,2,08,79,20,218,14,87,18,135,36,66,18,021,31,72,16,133,35*66
$GAGSV,2,1,08,125,59,264,25,111,51,187,26,124,46,357,37,104,25,073,30*64
$GAGSV,2,2,08,112,20,130,23,109,17,018,29,102,16,220,,119,06,125,12*61
$GPGSA,A,3,05,12,15,20,21,25,29,31,,,,,1.6,0.8,1.3*32
$GNGSA,A,3,05,12,15,20,21,25,29,31,,,,,1.6,0.8,1.3*2C
$GNGSA,A,3,65,66,72,77,79,81,87,88,,,,,1.6,0.8,1.3*2F
$QZGSA,A,3,,,,,,,,,,,,,1.6,0.8,1.3*23
$IMGSA,A,3,,,,,,,,,,,,,1.6,0.8,1.3*2C
$BDGSA,A,3,,,,,,,,,,,,,1.6,0.8,1.3*2E
$GAGSA,A,3,104,109,111,112,124,125,,,,,,,1.6,0.8,1.3*21
$GPRMC,154440.00,A,2249.146008,S,04318.399753,W,000.1,,140119,,,A*78
$GPGGA,154441.00,2249.145994,S,04318.399766,W,1,22,0.3,13.1,M,-5.2,M,,*4B
$GPGSV,3,1,10,25,77,010,37,29,49,175,37,21,42,272,34,12,41,035,44*7C
$GPGSV,3,2,10,05,32,128,37,20,21,338,38,31,15,251,24,15,11,043,39*7F
$GPGSV,3,3,10,26,02,218,,02,02,129,*7F
$GLGSV,2,1,08,88,36,184,26,65,36,087,34,77,32,344,35,81,23,239,25*6F
$GLGSV,2,2,08,79,20,218,15,87,18,135,36,66,18,021,38,72,16,133,37*6C
$GAGSV,2,1,08,125,59,264,31,111,51,187,26,124,46,357,38,104,25,073,36*68
$GAGSV,2,2,08,112,20,130,27,109,17,018,34,102,16,220,,119,06,125,11*6A
$GPGSA,A,3,05,12,15,20,21,25,29,31,,,,,2.1,1.2,1.8*36
$GNGSA,A,3,05,12,15,20,21,25,29,31,,,,,2.1,1.2,1.8*28
$GNGSA,A,3,65,66,72,77,79,81,87,88,,,,,2.1,1.2,1.8*2B
$QZGSA,A,3,,,,,,,,,,,,,2.1,1.2,1.8*27
$IMGSA,A,3,,,,,,,,,,,,,2.1,1.2,1.8*28
$BDGSA,A,3,,,,,,,,,,,,,2.1,1.2,1.8*2A
$GAGSA,A,3,104,109,111,112,124,125,,,,,,,2.1,1.2,1.8*25
$GPRMC,154441.00,A,2249.145994,S,04318.399766,W,000.0,,140119,,,A*71
$GPGGA,154442.00,2249.145999,S,04318.399735,W,1,23,0.3,13.1,M,-5.2,M,,*42
$GPGSV,3,1,10,25,77,010,36,29,49,175,36,21,42,272,35,12,41,035,43*7A
$GPGSV,3,2,10,05,32,128,37,20,21,338,38,31,15,251,23,15,11,043,38*79
$GPGSV,3,3,10,26,02,218,,02,02,129,*7F
$GLGSV,2,1,08,88,36,184,25,65,36,087,33,77,32,344,34,81,23,239,26*69
$GLGSV,2,2,08,79,20,218,15,87,18,135,35,66,18,021,38,72,16,133,36*6E
$GAGSV,2,1,08,125,59,264,31,111,51,187,26,124,46,357,37,104,25,073,35*64
$GAGSV,2,2,08,112,20,130,26,109,17,018,33,102,16,220,,119,06,125,11*6C
$GPGSA,A,3,05,12,15,20,21,25,29,31,,,,,1.7,0.8,1.5*35
$GNGSA,A,3,05,12,15,20,21,25,29,31,,,,,1.7,0.8,1.5*2B
$GNGSA,A,3,65,66,72,77,79,81,87,88,,,,,1.7,0.8,1.5*28
$QZGSA,A,3,,,,,,,,,,,,,1.7,0.8,1.5*24
$IMGSA,A,3,,,,,,,,,,,,,1.7,0.8,1.5*2B
$BDGSA,A,3,,,,,,,,,,,,,1.7,0.8,1.5*29
$GAGSA,A,3,104,109,111,112,124,125,,,,,,,1.7,0.8,1.5*26
$GPRMC,154442.00,A,2249.145999,S,04318.399735,W,000.1,,140119,,,A*78
$GPGGA,154443.00,2249.145929,S,04318.399613,W,1,22,0.3,13.1,M,-5.2,M,,*4C
$GPGSV,3,1,10,25,77,010,35,29,49,175,35,21,42,272,37,12,41,035,42*79
$GPGSV,3,2,10,05,32,128,36,20,21,338,37,31,15,251,22,15,11,043,38*76
$GPGSV,3,3,10,26,02,218,,02,02,129,*7F
$GLGSV,2,1,08,88,36,184,24,65,36,087,33,77,32,344,34,81,23,239,28*66
$GLGSV,2,2,08,79,20,218,15,87,18,135,34,66,18,021,36,72,16,133,35*62
$GAGSV,2,1,08,125,59,264,33,111,51,187,25,124,46,357,37,104,25,073,34*64
$GAGSV,2,2,08,112,20,130,25,109,17,018,32,102,16,220,,119,06,125,11*6E
$GPGSA,A,3,05,12,15,20,21,25,29,31,,,,,1.7,0.8,1.5*35
$GNGSA,A,3,05,12,15,20,21,25,29,31,,,,,1.7,0.8,1.5*2B
$GNGSA,A,3,65,66,72,77,79,81,87,88,,,,,1.7,0.8,1.5*28
$QZGSA,A,3,,,,,,,,,,,,,1.7,0.8,1.5*24
$IMGSA,A,3,,,,,,,,,,,,,1.7,0.8,1.5*2B
$BDGSA,A,3,,,,,,,,,,,,,1.7,0.8,1.5*29
$GAGSA,A,3,104,109,111,112,124,125,,,,,,,1.7,0.8,1.5*26
$GPRMC,154443.00,A,2249.145929,S,04318.399613,W,000.1,,140119,,,A*77
$GPGGA,154444.00,2249.145873,S,04318.399564,W,1,21,0.3,13.1,M,-5.2,M,,*45
$GPGSV,3,1,10,25,77,010,35,29,49,175,34,21,42,272,39,12,41,035,41*75
$GPGSV,3,2,10,05,32,128,35,20,21,338,36,31,15,251,22,15,11,043,37*7B
$GPGSV,3,3,10,26,02,218,,02,02,129,*7F
$GLGSV,2,1,08,88,36,184,23,65,36,087,33,77,32,344,33,81,23,239,30*6F
$GLGSV,2,2,08,79,20,218,15,87,18,135,33,66,18,021,35,72,16,133,33*60
$GAGSV,2,1,08,125,59,264,37,111,51,187,24,124,46,357,37,104,25,073,34*61
$GAGSV,2,2,08,112,20,130,24,109,17,018,31,102,16,220,,119,06,125,10*6D
$GPGSA,A,3,05,12,15,20,21,25,29,31,,,,,1.6,0.8,1.4*35
$GNGSA,A,3,05,12,15,20,21,25,29,31,,,,,1.6,0.8,1.4*2B
$GNGSA,A,3,65,66,72,77,79,81,87,,,,,,1.6,0.8,1.4*28
$QZGSA,A,3,,,,,,,,,,,,,1.6,0.8,1.4*24
$IMGSA,A,3,,,,,,,,,,,,,1.6,0.8,1.4*2B
$BDGSA,A,3,,,,,,,,,,,,,1.6,0.8,1.4*29
$GAGSA,A,3,104,109,111,112,124,125,,,,,,,1.6,0.8,1.4*26
$GPRMC,154444.00,A,2249.145873,S,04318.399564,W,000.2,,140119,,,A*7E
$GPGGA,154445.00,2249.145871,S,04318.399468,W,1,22,0.3,13.1,M,-5.2,M,,*48
$GPGSV,3,1,10,25,77,010,35,29,49,175,32,21,42,272,39,12,41,035,41*73
$GPGSV,3,2,10,05,32,128,34,20,21,338,36,31,15,251,21,15,11,043,37*79
$GPGSV,3,3,10,26,02,218,,02,02,129,*7F
$GLGSV,2,1,08,88,36,184,22,65,36,087,32,77,32,344,33,81,23,239,31*6E
$GLGSV,2,2,08,79,20,218,15,87,18,135,32,66,18,021,34,72,16,133,31*62
$GAGSV,2,1,08,125,59,264,38,111,51,187,24,124,46,357,37,104,25,073,33*69
$GAGSV,2,2,08,112,20,130,23,109,17,018,30,102,16,220,,119,06,125,*6A
$GPGSA,A,3,05,12,15,20,21,25,29,31,,,,,1.6,0.8,1.4*35
$GNGSA,A,3,05,12,15,20,21,25,29,31,,,,,1.6,0.8,1.4*2B
$GNGSA,A,3,65,66,72,77,79,81,87,88,,,,,1.6,0.8,1.4*28
$QZGSA,A,3,,,,,,,,,,,,,1.6,0.8,1.4*24
$IMGSA,A,3,,,,,,,,,,,,,1.6,0.8,1.4*2B
$BDGSA,A,3,,,,,,,,,,,,,1.6,0.8,1.4*29
$GAGSA,A,3,104,109,111,112,124,125,,,,,,,1.6,0.8,1.4*26
$GPRMC,154445.00,A,2249.145871,S,04318.399468,W,000.0,,140119,,,A*72
$GPGGA,154446.00,2249.145884,S,04318.399448,W,1,21,0.3,13.1,M,-5.2,M,,*40
$GPGSV,3,1,10,25,77,010,34,29,49,175,31,21,42,272,39,12,41,035,40*70
$GPGSV,3,2,10,05,32,128,33,20,21,338,35,31,15,251,20,15,12,043,37*7F
$GPGSV,3,3,10,26,02,218,,02,02,129,*7F
$GLGSV,2,1,08,88,36,184,22,65,36,087,32,77,32,344,32,81,23,239,31*6F
$GLGSV,2,2,08,79,20,218,17,87,18,135,32,66,18,021,33,72,16,133,30*66
$GAGSV,2,1,08,125,59,264,38,111,51,187,24,124,46,357,37,104,25,073,33*69
$GAGSV,2,2,08,112,20,130,23,109,17,018,28,102,16,220,,119,06,125,*63
$GPGSA,A,3,05,12,15,20,21,25,29,,,,,,1.7,0.8,1.4*36
$GNGSA,A,3,05,12,15,20,21,25,29,,,,,,1.7,0.8,1.4*28
$GNGSA,A,3,65,66,72,77,79,81,87,88,,,,,1.7,0.8,1.4*29
$QZGSA,A,3,,,,,,,,,,,,,1.7,0.8,1.4*25
$IMGSA,A,3,,,,,,,,,,,,,1.7,0.8,1.4*2A
$BDGSA,A,3,,,,,,,,,,,,,1.7,0.8,1.4*28
$GAGSA,A,3,104,109,111,112,124,125,,,,,,,1.7,0.8,1.4*27
$GPRMC,154446.00,A,2249.145884,S,04318.399448,W,000.1,,140119,,,A*78
$GPGGA,154447.00,2249.145906,S,04318.399411,W,1,21,0.3,13.1,M,-5.2,M,,*46
$GPGSV,3,1,10,25,77,010,34,29,49,175,31,21,42,272,39,12,41,035,39*7E
$GPGSV,3,2,10,05,32,128,32,20,21,338,34,31,15,251,20,15,12,043,37*7F
$GPGSV,3,3,10,26,02,218,,02,02,129,*7F
$GLGSV,2,1,08,88,36,184,21,65,36,087,32,77,32,344,32,81,23,239,31*6C
$GLGSV,2,2,08,79,20,218,21,87,18,135,31,66,18,021,32,72,16,133,29*69
$GAGSV,2,1,08,125,59,264,38,111,51,187,23,124,46,357,36,104,25,073,32*6E
$GAGSV,2,2,08,112,20,130,22,109,17,018,26,102,16,220,,119,06,125,*6C
$GPGSA,A,3,05,12,15,20,21,25,29,31,,,,,1.6,0.8,1.4*35
$GNGSA,A,3,05,12,15,20,21,25,29,31,,,,,1.6,0.8,1.4*2B
$GNGSA,A,3,65,66,72,77,79,81,87,88,,,,,1.6,0.8,1.4*28
$QZGSA,A,3,,,,,,,,,,,,,1.6,0.8,1.4*24
$IMGSA,A,3,,,,,,,,,,,,,1.6,0.8,1.4*2B
$BDGSA,A,3,,,,,,,,,,,,,1.6,0.8,1.4*29
$GAGSA,A,3,104,111,112,124,125,,,,,,,,1.6,0.8,1.4*1E
$GPRMC,154447.00,A,2249.145906,S,04318.399411,W,000.2,,140119,,,A*7D
$GPGGA,154448.00,2249.145859,S,04318.399385,W,1,23,0.3,13.1,M,-5.2,M,,*4A
$GPGSV,3,1,10,25,77,010,34,29,49,175,30,21,42,272,39,12,41,035,39*7F
$GPGSV,3,2,10,05,32,128,32,20,21,338,33,31,15,251,19,15,12,043,36*73
$GPGSV,3,3,10,26,02,218,,02,02,129,*7F
$GLGSV,2,1,08,88,36,184,21,65,36,087,31,77,32,344,31,81,23,239,31*6C
$GLGSV,2,2,08,79,20,218,21,87,18,135,30,66,18,021,32,72,16,133,27*66
$GAGSV,2,1,08,125,59,264,38,111,51,187,23,124,46,357,36,104,25,073,32*6E
$GAGSV,2,2,08,112,20,130,21,109,17,018,25,102,16,220,,119,06,125,*6C
$GPGSA,A,3,05,12,15,20,21,25,29,31,,,,,1.6,0.8,1.4*35
$GNGSA,A,3,05,12,15,20,21,25,29,31,,,,,1.6,0.8,1.4*2B
$GNGSA,A,3,65,66,72,77,79,81,87,88,,,,,1.6,0.8,1.4*28
$QZGSA,A,3,,,,,,,,,,,,,1.6,0.8,1.4*24
$IMGSA,A,3,,,,,,,,,,,,,1.6,0.8,1.4*2B
$BDGSA,A,3,,,,,,,,,,,,,1.6,0.8,1.4*29
$GAGSA,A,3,104,109,111,112,124,125,,,,,,,1.6,0.8,1.4*26
$GPRMC,154448.00,A,2249.145859,S,04318.399385,W,000.2,,140119,,,A*73
$GPGGA,154449.00,2249.145829,S,04318.399396,W,1,21,0.3,13.1,M,-5.2,M,,*4C
$GPGSV,3,1,10,25,77,010,34,29,49,175,29,21,42,272,39,12,41,035,38*76
$GPGSV,3,2,10,05,32,128,31,20,21,338,33,31,15,251,19,15,12,043,36*70
$GPGSV,3,3,10,26,02,218,,02,02,129,*7F
$GLGSV,2,1,08,88,36,184,20,65,36,087,31,77,32,344,31,81,23,239,31*6D
$GLGSV,2,2,08,79,20,218,20,87,18,135,30,66,18,021,31,72,16,133,26*65
$GAGSV,2,1,08,125,59,264,38,111,51,187,22,124,46,357,36,104,25,073,31*6C
$GAGSV,2,2,08,112,20,130,20,109,17,018,24,102,16,220,,119,06,125,*6C
$GPGSA,A,3,05,12,15,20,21,25,29,31,,,,,1.5,0.7,1.4*39
$GNGSA,A,3,05,12,15,20,21,25,29,31,,,,,1.5,0.7,1.4*27
$GNGSA,A,3,65,66,72,77,79,81,87,88,,,,,1.5,0.7,1.4*24
$QZGSA,A,3,,,,,,,,,,,,,1.5,0.7,1.4*28
$IMGSA,A,3,,,,,,,,,,,,,1.5,0.7,1.4*27
$BDGSA,A,3,,,,,,,,,,,,,1.5,0.7,1.4*25
$GAGSA,A,3,104,109,111,124,125,,,,,,,,1.5,0.7,1.4*18
$GPRMC,154449.00,A,2249.145829,S,04318.399396,W,000.1,,140119,,,A*74
$GPGGA,154450.00,2249.145859,S,04318.399416,W,1,21,0.3,13.1,M,-5.2,M,,*4C
$GPGSV,3,1,10,25,77,010,33,29,49,175,29,21,42,272,39,12,41,035,38*71
$GPGSV,3,2,10,05,32,128,30,20,21,338,33,31,15,251,19,15,12,043,36*71
$GPGSV,3,3,10,26,02,218,,02,02,129,*7F
$GLGSV,2,1,08,88,36,184,20,65,36,087,31,77,32,344,31,81,23,239,31*6D
$GLGSV,2,2,08,79,20,218,20,87,18,135,28,66,18,021,30,72,16,133,25*6E
$GAGSV,2,1,08,125,59,264,37,111,51,187,22,124,46,357,36,104,25,073,31*63
$GAGSV,2,2,08,112,20,130,19,109,17,019,24,102,16,220,,119,06,125,*67
$GPGSA,A,3,05,12,15,20,21,25,29,31,,,,,1.7,0.8,1.5*35
$GNGSA,A,3,05,12,15,20,21,25,29,31,,,,,1.7,0.8,1.5*2B
$GNGSA,A,3,65,66,72,77,79,81,87,88,,,,,1.7,0.8,1.5*28
$QZGSA,A,3,,,,,,,,,,,,,1.7,0.8,1.5*24
$IMGSA,A,3,,,,,,,,,,,,,1.7,0.8,1.5*2B
$BDGSA,A,3,,,,,,,,,,,,,1.7,0.8,1.5*29
$GAGSA,A,3,104,109,111,124,125,,,,,,,,1.7,0.8,1.5*14
$GPRMC,154450.00,A,2249.145859,S,04318.399416,W,000.1,,140119,,,A*74
$GPGGA,154451.00,2249.145924,S,04318.399415,W,1,21,0.3,13.2,M,-5.2,M,,*46
$GPGSV,3,1,10,25,77,010,33,29,49,175,33,21,42,272,39,12,41,035,37*75
$GPGSV,3,2,10,05,32,128,30,20,21,338,33,31,15,251,18,15,12,044,35*74
$GPGSV,3,3,10,26,02,218,,02,02,129,*7F
$GLGSV,2,1,08,88,36,184,27,65,36,087,31,77,32,344,30,81,23,239,30*6A
$GLGSV,2,2,08,79,20,218,23,87,18,135,28,66,18,021,30,72,16,133,29*61
$GAGSV,2,1,08,125,59,264,37,111,51,187,23,124,46,357,36,104,25,073,31*62
$GAGSV,2,2,08,112,20,130,18,109,17,019,26,102,16,220,,119,06,125,11*64
$GPGSA,A,3,05,12,15,20,21,25,29,31,,,,,1.8,0.8,1.6*39
$GNGSA,A,3,05,12,15,20,21,25,29,31,,,,,1.8,0.8,1.6*27
$GNGSA,A,3,65,66,72,77,79,81,87,88,,,,,1.8,0.8,1.6*24
$QZGSA,A,3,,,,,,,,,,,,,1.8,0.8,1.6*28
$IMGSA,A,3,,,,,,,,,,,,,1.8,0.8,1.6*27
$BDGSA,A,3,,,,,,,,,,,,,1.8,0.8,1.6*25
$GAGSA,A,3,104,109,111,124,125,,,,,,,,1.8,0.8,1.6*18
$GPRMC,154451.00,A,2249.145924,S,04318.399415,W,000.0,,140119,,,A*7C
$GPGGA,154452.00,2249.145915,S,04318.399414,W,1,21,0.3,13.2,M,-5.2,M,,*46
$GPGSV,3,1,10,25,77,010,36,29,49,175,34,21,42,272,39,12,41,035,36*76
$GPGSV,3,2,10,05,32,128,30,20,21,338,32,31,15,251,20,15,12,044,35*7E
$GPGSV,3,3,10,26,02,218,,02,02,129,*7F
$GLGSV,2,1,08,88,36,184,26,65,36,087,30,77,32,344,30,81,23,239,36*6C
$GLGSV,2,2,08,79,20,218,25,87,18,135,28,66,18,021,29,72,16,133,28*6E
$GAGSV,2,1,08,125,59,264,38,111,51,187,26,124,45,357,35,104,25,073,30*69
$GAGSV,2,2,08,112,20,130,17,109,17,019,26,102,16,220,,119,06,125,11*6B
$GPGSA,A,3,05,12,15,20,21,25,29,31,,,,,2.0,0.9,1.8*3D
$GNGSA,A,3,05,12,15,20,21,25,29,31,,,,,2.0,0.9,1.8*23
$GNGSA,A,3,65,66,72,77,79,81,87,88,,,,,2.0,0.9,1.8*20
$QZGSA,A,3,,,,,,,,,,,,,2.0,0.9,1.8*2C
$IMGSA,A,3,,,,,,,,,,,,,2.0,0.9,1.8*23
$BDGSA,A,3,,,,,,,,,,,,,2.0,0.9,1.8*21
$GAGSA,A,3,104,109,111,124,125,,,,,,,,2.0,0.9,1.8*1C
$GPRMC,154452.00,A,2249.145915,S,04318.399414,W,000.1,,140119,,,A*7D
$GPGGA,154453.00,2249.145892,S,04318.399422,W,1,21,0.3,13.2,M,-5.2,M,,*4C
$GPGSV,3,1,10,25,77,010,35,29,49,175,33,21,42,272,38,12,41,035,36*73
$GPGSV,3,2,10,05,32,128,29,20,21,338,32,31,15,251,20,15,12,044,34*77
$GPGSV,3,3,10,26,02,218,,02,02,129,*7F
$GLGSV,2,1,08,88,36,184,26,65,36,087,30,77,32,344,30,81,23,239,36*6C
$GLGSV,2,2,08,79,20,218,26,87,18,135,27,66,18,021,29,72,16,133,28*62
$GAGSV,2,1,08,125,59,264,37,111,51,187,28,124,45,357,35,104,25,073,30*68
$GAGSV,2,2,08,112,20,130,16,109,17,019,26,102,16,220,,119,06,125,10*6B
$GPGSA,A,3,05,12,15,20,21,25,29,31,,,,,2.0,0.9,1.8*3D
$GNGSA,A,3,05,12,15,20,21,25,29,31,,,,,2.0,0.9,1.8*23
$GNGSA,A,3,65,66,72,77,79,81,87,88,,,,,2.0,0.9,1.8*20
$QZGSA,A,3,,,,,,,,,,,,,2.0,0.9,1.8*2C
$IMGSA,A,3,,,,,,,,,,,,,2.0,0.9,1.8*23
$BDGSA,A,3,,,,,,,,,,,,,2.0,0.9,1.8*21
$GAGSA,A,3,104,109,111,124,125,,,,,,,,2.0,0.9,1.8*1C
$GPRMC,154453.00,A,2249.145892,S,04318.399422,W,000.2,,140119,,,A*74
$GPGGA,154454.00,2249.145925,S,04318.399446,W,1,21,0.3,13.3,M,-5.2,M,,*45
$GPGSV,3,1,10,25,77,010,35,29,49,175,33,21,42,272,38,12,41,035,36*73
$GPGSV,3,2,10,05,32,128,28,20,21,338,32,31,15,251,22,15,12,044,34*74
$GPGSV,3,3,10,26,02,218,,02,02,129,*7F
$GLGSV,2,1,08,88,36,184,26,65,36,087,30,77,32,344,29,81,23,239,36*64
$GLGSV,2,2,08,79,20,218,27,87,18,135,27,66,18,021,28,72,16,134,27*6A
$GAGSV,2,1,08,125,59,264,37,111,51,187,28,124,45,357,35,104,25,073,30*68
$GAGSV,2,2,08,112,20,130,16,109,17,019,26,102,16,220,,119,06,125,10*6B
$GPGSA,A,3,05,12,15,20,21,25,29,31,,,,,1.7,0.8,1.5*35
$GNGSA,A,3,05,12,15,20,21,25,29,31,,,,,1.7,0.8,1.5*2B
$GNGSA,A,3,65,66,72,77,79,81,87,88,,,,,1.7,0.8,1.5*28
$QZGSA,A,3,,,,,,,,,,,,,1.7,0.8,1.5*24
$IMGSA,A,3,,,,,,,,,,,,,1.7,0.8,1.5*2B
$BDGSA,A,3,,,,,,,,,,,,,1.7,0.8,1.5*29
$GAGSA,A,3,104,109,111,124,125,,,,,,,,1.7,0.8,1.5*14
$GPRMC,154454.00,A,2249.145925,S,04318.399446,W,000.2,,140119,,,A*7C
$GPGGA,154455.00,2249.145860,S,04318.399393,W,1,21,0.3,13.3,M,-5.2,M,,*4B
$GPGSV,3,1,10,25,77,010,35,29,49,175,32,21,42,272,38,12,41,035,37*73
$GPGSV,3,2,10,05,32,128,27,20,21,338,31,31,15,251,22,15,12,044,34*78
$GPGSV,3,3,10,26,02,218,,02,02,129,*7F
$GLGSV,2,1,08,88,36,184,26,65,36,087,29,77,32,344,29,81,23,239,36*6C
$GLGSV,2,2,08,79,20,218,27,87,18,135,26,66,18,021,30,72,16,134,26*63
$GAGSV,2,1,08,125,59,264,37,111,51,187,28,124,45,357,35,104,25,073,30*68
$GAGSV,2,2,08,112,20,130,15,109,17,019,28,102,16,220,,119,06,125,10*66
$GPGSA,A,3,05,12,15,20,21,25,29,31,,,,,1.5,0.8,1.3*31
$GNGSA,A,3,05,12,15,20,21,25,29,31,,,,,1.5,0.8,1.3*2F
$GNGSA,A,3,65,66,72,77,79,81,87,88,,,,,1.5,0.8,1.3*2C
$QZGSA,A,3,,,,,,,,,,,,,1.5,0.8,1.3*20
$IMGSA,A,3,,,,,,,,,,,,,1.5,0.8,1.3*2F
$BDGSA,A,3,,,,,,,,,,,,,1.5,0.8,1.3*2D
$GAGSA,A,3,104,109,111,124,125,,,,,,,,1.5,0.8,1.3*10
$GPRMC,154455.00,A,2249.145860,S,04318.399393,W,000.1,,140119,,,A*71
$GPGGA,154456.00,2249.145804,S,04318.399348,W,1,22,0.3,13.3,M,-5.2,M,,*4F
$GPGSV,3,1,10,25,77,010,36,29,49,175,32,21,42,272,39,12,41,035,37*71
$GPGSV,3,2,10,05,32,128,26,20,21,338,31,31,15,251,23,15,12,044,33*7F
$GPGSV,3,3,10,26,02,218,,02,02,129,*7F
$GLGSV,2,1,08,88,36,184,26,65,36,087,29,77,32,344,29,81,23,239,36*6C
$GLGSV,2,2,08,79,20,218,28,87,18,135,26,66,18,021,29,72,16,134,26*64
$GAGSV,2,1,08,125,59,264,37,111,51,187,28,124,45,357,34,104,25,073,29*61
$GAGSV,2,2,08,112,20,130,15,109,17,019,27,102,16,220,,119,06,125,*68
$GPGSA,A,3,05,12,15,20,21,25,29,31,,,,,1.7,0.9,1.4*35
$GNGSA,A,3,05,12,15,20,21,25,29,31,,,,,1.7,0.9,1.4*2B
$GNGSA,A,3,65,66,72,77,79,81,87,88,,,,,1.7,0.9,1.4*28
$QZGSA,A,3,,,,,,,,,,,,,1.7,0.9,1.4*24
$IMGSA,A,3,,,,,,,,,,,,,1.7,0.9,1.4*2B
$BDGSA,A,3,,,,,,,,,,,,,1.7,0.9,1.4*29
$GAGSA,A,3,104,109,111,112,124,125,,,,,,,1.7,0.9,1.4*26
$GPRMC,154456.00,A,2249.145804,S,04318.399348,W,000.1,,140119,,,A*76
$GPGGA,154457.00,2249.145827,S,04318.399190,W,1,23,0.3,13.3,M,-5.2,M,,*49
$GPGSV,3,1,10,25,77,010,37,29,49,175,37,21,42,272,39,12,41,035,37*75
$GPGSV,3,2,10,05,32,128,25,20,21,338,31,31,15,251,23,15,12,044,33*7C
$GPGSV,3,3,10,26,02,218,,02,02,129,*7F
$GLGSV,2,1,08,88,36,184,27,65,36,087,29,77,32,344,29,81,23,239,36*6D
$GLGSV,2,2,08,79,20,218,27,87,18,135,25,66,18,021,29,72,16,134,25*6B
$GAGSV,2,1,08,125,59,264,38,111,51,187,32,124,45,357,34,104,25,073,29*65
$GAGSV,2,2,08,112,20,130,15,109,17,019,27,102,16,220,,119,06,125,*68
$GPGSA,A,3,05,12,15,20,21,25,29,31,,,,,1.7,0.9,1.5*34
$GNGSA,A,3,05,12,15,20,21,25,29,31,,,,,1.7,0.9,1.5*2A
$GNGSA,A,3,65,66,72,77,79,81,87,88,,,,,1.7,0.9,1.5*29
$QZGSA,A,3,,,,,,,,,,,,,1.7,0.9,1.5*25
$IMGSA,A,3,,,,,,,,,,,,,1.7,0.9,1.5*2A
$BDGSA,A,3,,,,,,,,,,,,,1.7,0.9,1.5*28
$GAGSA,A,3,104,109,111,112,124,125,,,,,,,1.7,0.9,1.5*27
$GPRMC,154457.00,A,2249.145827,S,04318.399190,W,000.1,,140119,,,A*71
$GPGGA,154458.00,2249.145721,S,04318.399119,W,1,22,0.3,13.3,M,-5.2,M,,*4F
$GPGSV,3,1,10,25,77,010,37,29,49,175,39,21,42,272,39,12,41,035,36*7A
$GPGSV,3,2,10,05,32,128,24,20,21,338,30,31,15,251,23,15,12,044,33*7C
$GPGSV,3,3,10,26,02,218,,02,02,129,*7F
$GLGSV,2,1,08,88,36,184,30,65,36,087,30,77,32,344,28,81,23,239,36*62
$GLGSV,2,2,08,79,20,218,27,87,18,135,24,66,18,021,29,72,16,134,25*6A
$GAGSV,2,1,08,125,59,264,39,111,51,187,34,124,45,357,34,104,25,073,29*62
$GAGSV,2,2,08,112,20,130,15,109,18,019,26,102,16,220,,119,06,125,09*6F
$GPGSA,A,3,05,12,15,20,21,25,29,31,,,,,1.6,0.9,1.3*33
$GNGSA,A,3,05,12,15,20,21,25,29,31,,,,,1.6,0.9,1.3*2D
$GNGSA,A,3,65,66,72,77,79,81,87,88,,,,,1.6,0.9,1.3*2E
$QZGSA,A,3,,,,,,,,,,,,,1.6,0.9,1.3*22
$IMGSA,A,3,,,,,,,,,,,,,1.6,0.9,1.3*2D
$BDGSA,A,3,,,,,,,,,,,,,1.6,0.9,1.3*2F
$GAGSA,A,3,104,109,111,112,124,125,,,,,,,1.6,0.9,1.3*20
$GPRMC,154458.00,A,2249.145721,S,04318.399119,W,000.1,,140119,,,A*76
$GPGGA,154459.00,2249.145610,S,04318.399086,W,1,21,0.3,13.3,M,-5.2,M,,*49
$GPGSV,3,1,10,25,77,010,37,29,49,175,38,21,42,272,39,12,41,035,36*7B
$GPGSV,3,2,10,05,32,128,24,20,21,338,30,31,15,251,23,15,12,044,32*7D
$GPGSV,3,3,10,26,02,218,,02,02,129,*7F
$GLGSV,2,1,08,88,36,184,30,65,36,087,30,77,32,344,28,81,23,239,36*62
$GLGSV,2,2,08,79,20,218,28,87,18,135,23,66,18,021,28,72,16,134,25*63
$GAGSV,2,1,08,125,59,264,39,111,51,187,34,124,45,357,34,104,25,073,29*62
$GAGSV,2,2,08,112,20,130,15,109,18,019,25,102,16,220,,119,06,125,12*66
$GPGSA,A,3,05,12,15,20,21,25,29,31,,,,,1.6,0.8,1.4*35
$GNGSA,A,3,05,12,15,20,21,25,29,31,,,,,1.6,0.8,1.4*2B
$GNGSA,A,3,65,66,72,77,79,81,88,,,,,,1.6,0.8,1.4*27
$QZGSA,A,3,,,,,,,,,,,,,1.6,0.8,1.4*24
$IMGSA,A,3,,,,,,,,,,,,,1.6,0.8,1.4*2B
$BDGSA,A,3,,,,,,,,,,,,,1.6,0.8,1.4*29
$GAGSA,A,3,104,109,111,112,124,125,,,,,,,1.6,0.8,1.4*26
$GPRMC,154459.00,A,2249.145610,S,04318.399086,W,000.2,,140119,,,A*70
$GPGGA,154500.00,2249.145466,S,04318.399047,W,1,21,0.3,13.3,M,-5.2,M,,*4A
$GPGSV,3,1,10,25,77,010,37,29,49,175,38,21,42,272,38,12,41,035,36*7A
$GPGSV,3,2,10,05,32,128,23,20,21,338,31,31,15,251,22,15,12,044,32*7A
$GPGSV,3,3,10,26,02,218,,02,02,129,*7F
$GLGSV,2,1,08,88,36,184,30,65,36,087,30,77,32,344,28,81,23,239,36*62
$GLGSV,2,2,08,79,20,218,28,87,18,135,21,66,18,021,28,72,16,134,26*62
$GAGSV,2,1,08,125,59,264,39,111,51,187,34,124,45,357,34,104,25,073,29*62
$GAGSV,2,2,08,112,20,130,15,109,18,019,25,102,16,220,,119,06,125,12*66
$GPGSA,A,3,05,12,15,20,21,25,29,31,,,,,1.6,0.8,1.4*35
$GNGSA,A,3,05,12,15,20,21,25,29,31,,,,,1.6,0.8,1.4*2B
$GNGSA,A,3,65,66,72,77,79,81,88,,,,,,1.6,0.8,1.4*27
$QZGSA,A,3,,,,,,,,,,,,,1.6,0.8,1.4*24
$IMGSA,A,3,,,,,,,,,,,,,1.6,0.8,1.4*2B
$BDGSA,A,3,,,,,,,,,,,,,1.6,0.8,1.4*29
$GAGSA,A,3,104,109,111,112,124,125,,,,,,,1.6,0.8,1.4*26
$GPRMC,154500.00,A,2249.145466,S,04318.399047,W,000.2,,140119,,,A*73
$GPGGA,154501.00,2249.145349,S,04318.399046,W,1,22,0.3,13.3,M,-5.2,M,,*43
$GPGSV,3,1,10,25,77,010,37,29,49,175,38,21,42,272,38,12,41,035,36*7A
$GPGSV,3,2,10,05,32,128,23,20,21,338,31,31,15,251,21,15,12,044,32*79
$GPGSV,3,3,10,26,02,218,,02,02,129,*7F
$GLGSV,2,1,08,88,36,184,30,65,36,087,30,77,32,344,28,81,23,239,36*62
$GLGSV,2,2,08,79,20,218,28,87,18,135,20,66,18,021,28,72,16,134,26*63
$GAGSV,2,1,08,125,59,264,39,111,51,187,34,124,45,357,34,104,25,073,29*62
$GAGSV,2,2,08,112,20,130,15,109,18,019,24,102,16,220,,119,06,125,12*67
$GPGSA,A,3,05,12,15,20,21,25,29,31,,,,,1.7,1.0,1.4*3D
$GNGSA,A,3,05,12,15,20,21,25,29,31,,,,,1.7,1.0,1.4*23
$GNGSA,A,3,65,66,72,77,79,81,88,,,,,,1.7,1.0,1.4*2F
$QZGSA,A,3,,,,,,,,,,,,,1.7,1.0,1.4*2C
$IMGSA,A,3,,,,,,,,,,,,,1.7,1.0,1.4*23
$BDGSA,A,3,,,,,,,,,,,,,1.7,1.0,1.4*21
$GAGSA,A,3,104,109,111,112,124,125,,,,,,,1.7,1.0,1.4*2E
$GPRMC,154501.00,A,2249.145349,S,04318.399046,W,000.2,,140119,,,A*79
$GPGGA,154502.00,2249.145318,S,04318.399022,W,1,21,0.3,13.3,M,-5.2,M,,*45
$GPGSV,3,1,10,25,77,010,37,29,49,175,38,21,42,272,38,12,41,035,35*79
$GPGSV,3,2,10,05,32,128,23,20,21,338,30,31,15,251,21,15,12,044,32*78
$GPGSV,3,3,10,26,02,218,,02,02,129,*7F
$GLGSV,2,1,08,88,36,184,30,65,36,088,30,77,32,344,28,81,23,239,36*6D
$GLGSV,2,2,08,79,20,218,28,87,18,135,19,66,18,021,28,72,16,134,26*69
$GAGSV,2,1,08,125,59,264,39,111,51,187,34,124,45,357,34,104,25,073,29*62
$GAGSV,2,2,08,112,20,130,14,109,18,019,24,102,16,220,,119,06,125,12*66
$GPGSA,A,3,05,12,15,20,21,25,29,31,,,,,1.7,1.0,1.4*3D
$GNGSA,A,3,05,12,15,20,21,25,29,31,,,,,1.7,1.0,1.4*23
$GNGSA,A,3,65,66,72,77,79,81,88,,,,,,1.7,1.0,1.4*2F
$QZGSA,A,3,,,,,,,,,,,,,1.7,1.0,1.4*2C
$IMGSA,A,3,,,,,,,,,,,,,1.7,1.0,1.4*23
$BDGSA,A,3,,,,,,,,,,,,,1.7,1.0,1.4*21
$GAGSA,A,3,104,109,111,112,124,125,,,,,,,1.7,1.0,1.4*2E
$GPRMC,154502.00,A,2249.145318,S,04318.399022,W,000.1,,140119,,,A*7F
$GPGGA,154503.00,2249.145323,S,04318.398987,W,1,21,0.3,13.3,M,-5.2,M,,*4B
$GPGSV,3,1,10,25,77,010,37,29,49,175,38,21,42,272,38,12,41,035,35*79
$GPGSV,3,2,10,05,32,128,23,20,21,338,30,31,15,251,21,15,12,044,32*78
$GPGSV,3,3,10,26,02,218,,02,02,129,*7F
$GLGSV,2,1,08,88,36,184,30,65,36,088,30,77,32,344,28,81,23,239,36*6D
$GLGSV,2,2,08,79,20,218,28,87,18,135,,66,18,021,27,72,16,134,25*6D
$GAGSV,2,1,08,125,59,264,39,111,51,187,34,124,45,357,34,104,25,073,29*62
$GAGSV,2,2,08,112,20,130,14,109,18,019,23,102,16,220,,119,06,125,12*61
$GPGSA,A,3,05,12,15,20,21,25,29,31,,,,,1.7,0.9,1.4*35
$GNGSA,A,3,05,12,15,20,21,25,29,31,,,,,1.7,0.9,1.4*2B
$GNGSA,A,3,65,66,72,77,79,81,88,,,,,,1.7,0.9,1.4*27
$QZGSA,A,3,,,,,,,,,,,,,1.7,0.9,1.4*24
$IMGSA,A,3,,,,,,,,,,,,,1.7,0.9,1.4*2B
$BDGSA,A,3,,,,,,,,,,,,,1.7,0.9,1.4*29
$GAGSA,A,3,104,109,111,112,124,125,,,,,,,1.7,0.9,1.4*26
$GPRMC,154503.00,A,2249.145323,S,04318.398987,W,000.0,,140119,,,A*70
$GPGGA,154504.00,2249.145322,S,04318.398972,W,1,21,0.3,13.3,M,-5.2,M,,*47
$GPGSV,3,1,10,25,77,010,37,29,49,175,38,21,42,272,38,12,41,035,35*79
$GPGSV,3,2,10,05,32,128,23,20,21,338,30,31,15,251,20,15,12,044,32*79
$GPGSV,3,3,10,26,02,218,,02,02,129,*7F
$GLGSV,2,1,08,88,36,184,30,65,36,088,30,77,32,344,28,81,23,239,36*6D
$GLGSV,2,2,08,79,20,218,28,87,18,135,17,66,18,021,27,72,16,134,26*68
$GAGSV,2,1,08,125,59,264,39,111,51,187,34,124,45,357,34,104,25,073,29*62
$GAGSV,2,2,08,112,20,130,14,109,18,019,23,102,16,220,,119,06,125,11*62
$GPGSA,A,3,05,12,15,20,21,25,29,31,,,,,1.8,0.9,1.6*38
$GNGSA,A,3,05,12,15,20,21,25,29,31,,,,,1.8,0.9,1.6*26
$GNGSA,A,3,65,66,72,77,79,81,88,,,,,,1.8,0.9,1.6*2A
$QZGSA,A,3,,,,,,,,,,,,,1.8,0.9,1.6*29
$IMGSA,A,3,,,,,,,,,,,,,1.8,0.9,1.6*26
$BDGSA,A,3,,,,,,,,,,,,,1.8,0.9,1.6*24
$GAGSA,A,3,104,109,111,112,124,125,,,,,,,1.8,0.9,1.6*2B
$GPRMC,154504.00,A,2249.145322,S,04318.398972,W,000.0,,140119,,,A*7C
$GPGGA,154505.00,2249.145315,S,04318.398987,W,1,22,0.3,13.3,M,-5.2,M,,*4B
$GPGSV,3,1,10,25,77,010,37,29,49,175,38,21,42,272,40,12,41,035,35*76
$GPGSV,3,2,10,05,32,128,22,20,21,338,31,31,15,251,20,15,12,044,32*79
$GPGSV,3,3,10,26,02,218,,02,02,129,*7F
$GLGSV,2,1,08,88,36,184,29,65,36,088,30,77,32,344,28,81,23,239,37*64
$GLGSV,2,2,08,79,20,218,28,87,18,135,19,66,18,021,27,72,16,134,26*66
$GAGSV,2,1,08,125,59,264,39,111,51,186,34,124,45,357,34,104,25,073,29*63
$GAGSV,2,2,08,112,20,130,14,109,18,019,22,102,16,220,,119,06,125,12*60
$GPGSA,A,3,05,12,15,20,21,25,29,31,,,,,2.0,0.9,1.7*32
$GNGSA,A,3,05,12,15,20,21,25,29,31,,,,,2.0,0.9,1.7*2C
$GNGSA,A,3,65,66,72,77,79,81,87,88,,,,,2.0,0.9,1.7*2F
$QZGSA,A,3,,,,,,,,,,,,,2.0,0.9,1.7*23
$IMGSA,A,3,,,,,,,,,,,,,2.0,0.9,1.7*2C
$BDGSA,A,3,,,,,,,,,,,,,2.0,0.9,1.7*2E
$GAGSA,A,3,104,109,111,112,124,125,,,,,,,2.0,0.9,1.7*21
$GPRMC,154505.00,A,2249.145315,S,04318.398987,W,000.2,,140119,,,A*71
$GPGGA,154506.00,2249.145359,S,04318.398973,W,1,22,0.3,13.3,M,-5.2,M,,*4B
$GPGSV,3,1,10,25,77,010,37,29,49,175,37,21,42,272,39,12,41,035,39*7B
$GPGSV,3,2,10,05,32,128,22,20,21,338,31,31,15,251,20,15,12,044,33*78
$GPGSV,3,3,10,26,02,218,,02,02,129,*7F
$GLGSV,2,1,08,88,36,184,29,65,36,088,30,77,32,344,28,81,23,239,37*64
$GLGSV,2,2,08,79,20,218,28,87,18,135,19,66,18,021,27,72,16,134,25*65
$GAGSV,2,1,08,125,59,264,38,111,51,186,33,124,45,357,33,104,25,073,29*62
$GAGSV,2,2,08,112,20,130,14,109,18,019,24,102,16,220,,119,06,125,12*66
$GPGSA,A,3,05,12,15,20,21,25,29,31,,,,,1.8,1.0,1.5*33
$GNGSA,A,3,05,12,15,20,21,25,29,31,,,,,1.8,1.0,1.5*2D
$GNGSA,A,3,65,66,72,77,79,81,87,88,,,,,1.8,1.0,1.5*2E
$QZGSA,A,3,,,,,,,,,,,,,1.8,1.0,1.5*22
$IMGSA,A,3,,,,,,,,,,,,,1.8,1.0,1.5*2D
$BDGSA,A,3,,,,,,,,,,,,,1.8,1.0,1.5*2F
$GAGSA,A,3,104,109,111,112,124,125,,,,,,,1.8,1.0,1.5*20
$GPRMC,154506.00,A,2249.145359,S,04318.398973,W,000.2,,140119,,,A*71
$GPGGA,154507.00,2249.145469,S,04318.398986,W,1,22,0.3,13.3,M,-5.2,M,,*44
$GPGSV,3,1,10,25,77,010,36,29,49,175,36,21,42,272,39,12,41,035,39*7B
$GPGSV,3,2,10,05,32,128,22,20,21,338,31,31,15,251,21,15,12,044,33*79
$GPGSV,3,3,10,26,02,218,,02,02,129,*7F
$GLGSV,2,1,08,88,36,184,29,65,36,088,29,77,32,344,28,81,23,239,36*6D
$GLGSV,2,2,08,79,20,218,29,87,18,135,22,66,18,021,27,72,16,134,25*6C
$GAGSV,2,1,08,125,59,264,38,111,51,186,33,124,45,357,33,104,25,073,29*62
$GAGSV,2,2,08,112,20,130,14,109,18,019,24,102,16,220,,119,06,125,12*66
$GPGSA,A,3,05,12,15,20,21,25,29,31,,,,,1.8,0.9,1.6*38
$GNGSA,A,3,05,12,15,20,21,25,29,31,,,,,1.8,0.9,1.6*26
$GNGSA,A,3,65,66,72,77,79,81,87,88,,,,,1.8,0.9,1.6*25
$QZGSA,A,3,,,,,,,,,,,,,1.8,0.9,1.6*29
$IMGSA,A,3,,,,,,,,,,,,,1.8,0.9,1.6*26
$BDGSA,A,3,,,,,,,,,,,,,1.8,0.9,1.6*24
$GAGSA,A,3,104,109,111,112,124,125,,,,,,,1.8,0.9,1.6*2B
$GPRMC,154507.00,A,2249.145469,S,04318.398986,W,000.0,,140119,,,A*7C
$GPGGA,154508.00,2249.145499,S,04318.399003,W,1,22,0.3,13.3,M,-5.2,M,,*41
$GPGSV,3,1,10,25,77,010,36,29,49,175,35,21,42,272,39,12,41,035,39*78
$GPGSV,3,2,10,05,32,128,21,20,21,338,31,31,15,251,21,15,12,044,33*7A
$GPGSV,3,3,10,26,02,218,,02,02,129,*7F
$GLGSV,2,1,08,88,36,184,29,65,36,088,29,77,32,344,28,81,23,239,36*6D
$GLGSV,2,2,08,79,20,218,29,87,18,135,22,66,18,021,27,72,16,134,24*6D
$GAGSV,2,1,08,125,59,264,38,111,51,186,33,124,45,357,34,104,25,073,29*65
$GAGSV,2,2,08,112,20,130,14,109,18,019,24,102,16,220,,119,06,125,11*65
$GPGSA,A,3,05,12,15,20,21,25,29,31,,,,,1.9,0.9,1.7*38
$GNGSA,A,3,05,12,15,20,21,25,29,31,,,,,1.9,0.9,1.7*26
$GNGSA,A,3,65,66,72,77,79,81,87,88,,,,,1.9,0.9,1.7*25
$QZGSA,A,3,,,,,,,,,,,,,1.9,0.9,1.7*29
$IMGSA,A,3,,,,,,,,,,,,,1.9,0.9,1.7*26
$BDGSA,A,3,,,,,,,,,,,,,1.9,0.9,1.7*24
$GAGSA,A,3,104,109,111,112,124,125,,,,,,,1.9,0.9,1.7*2B
$GPRMC,154508.00,A,2249.145499,S,04318.399003,W,000.2,,140119,,,A*7B
$GPGGA,154509.00,2249.145531,S,04318.398995,W,1,22,0.3,13.3,M,-5.2,M,,*44
$GPGSV,3,1,10,25,77,010,35,29,49,175,34,21,42,272,39,12,41,035,39*7A
$GPGSV,3,2,10,05,32,128,21,20,21,338,30,31,15,251,21,15,12,044,33*7B
$GPGSV,3,3,10,26,02,218,,02,02,129,*7F
$GLGSV,2,1,08,88,36,184,28,65,36,088,29,77,32,344,27,81,23,239,36*63
$GLGSV,2,2,08,79,20,218,28,87,18,135,23,66,18,021,27,72,16,134,24*6D
$GAGSV,2,1,08,125,59,264,38,111,51,186,32,124,45,357,34,104,25,073,29*64
$GAGSV,2,2,08,112,20,130,14,109,18,019,24,102,16,220,,119,06,125,11*65
$GPGSA,A,3,05,12,15,20,21,25,29,31,,,,,1.9,0.9,1.7*38
$GNGSA,A,3,05,12,15,20,21,25,29,31,,,,,1.9,0.9,1.7*26
$GNGSA,A,3,65,66,72,77,79,81,87,88,,,,,1.9,0.9,1.7*25
$QZGSA,A,3,,,,,,,,,,,,,1.9,0.9,1.7*29
$IMGSA,A,3,,,,,,,,,,,,,1.9,0.9,1.7*26
$BDGSA,A,3,,,,,,,,,,,,,1.9,0.9,1.7*24
$GAGSA,A,3,104,109,111,112,124,125,,,,,,,1.9,0.9,1.7*2B
$GPRMC,154509.00,A,2249.145531,S,04318.398995,W,000.2,,140119,,,A*7E
$GPGGA,154510.00,2249.145565,S,04318.398951,W,1,22,0.3,13.3,M,-5.2,M,,*45
$GPGSV,3,1,10,25,77,010,35,29,49,175,33,21,42,272,38,12,41,035,39*7C
$GPGSV,3,2,10,05,32,128,20,20,21,338,30,31,15,251,21,15,12,044,35*7C
$GPGSV,3,3,10,26,02,218,,02,02,129,*7F
$GLGSV,2,1,08,88,36,184,28,65,36,088,29,77,32,344,27,81,23,239,36*63
$GLGSV,2,2,08,79,20,218,28,87,18,135,23,66,18,021,28,72,16,134,23*65
$GAGSV,2,1,08,125,59,264,37,111,51,186,32,124,45,357,34,104,25,073,29*6B
$GAGSV,2,2,08,112,20,130,14,109,18,019,25,102,16,220,,119,06,125,11*64
$GPGSA,A,3,05,12,15,20,21,25,29,31,,,,,1.5,0.8,1.3*31
$GNGSA,A,3,05,12,15,20,21,25,29,31,,,,,1.5,0.8,1.3*2F
$GNGSA,A,3,65,66,72,77,79,81,87,88,,,,,1.5,0.8,1.3*2C
$QZGSA,A,3,,,,,,,,,,,,,1.5,0.8,1.3*20
$IMGSA,A,3,,,,,,,,,,,,,1.5,0.8,1.3*2F
$BDGSA,A,3,,,,,,,,,,,,,1.5,0.8,1.3*2D
$GAGSA,A,3,104,109,111,112,124,125,,,,,,,1.5,0.8,1.3*22
$GPRMC,154510.00,A,2249.145565,S,04318.398951,W,000.1,,140119,,,A*7C
$GPGGA,154511.00,2249.145691,S,04318.398992,W,1,21,0.3,13.4,M,-5.2,M,,*47
$GPGSV,3,1,10,25,77,010,35,29,49,175,33,21,42,272,38,12,41,035,39*7C
$GPGSV,3,2,10,05,32,128,20,20,21,338,30,31,15,251,21,15,12,044,34*7D
$GPGSV,3,3,10,26,02,218,,02,02,129,*7F
$GLGSV,2,1,08,88,36,184,28,65,36,088,29,77,32,344,27,81,23,239,36*63
$GLGSV,2,2,08,79,20,218,28,87,18,135,24,66,18,021,28,72,16,134,23*62
$GAGSV,2,1,08,125,59,264,37,111,51,186,31,124,45,357,34,104,25,073,29*68
$GAGSV,2,2,08,112,20,130,14,109,18,019,25,102,16,220,,119,06,125,11*64
$GPGSA,A,3,05,12,15,20,21,25,29,31,,,,,1.6,0.8,1.3*32
$GNGSA,A,3,05,12,15,20,21,25,29,31,,,,,1.6,0.8,1.3*2C
$GNGSA,A,3,65,66,72,77,79,81,87,88,,,,,1.6,0.8,1.3*2F
$QZGSA,A,3,,,,,,,,,,,,,1.6,0.8,1.3*23
$IMGSA,A,3,,,,,,,,,,,,,1.6,0.8,1.3*2C
$BDGSA,A,3,,,,,,,,,,,,,1.6,0.8,1.3*2E
$GAGSA,A,3,104,109,111,124,125,,,,,,,,1.6,0.8,1.3*13
$GPRMC,154511.00,A,2249.145691,S,04318.398992,W,000.3,,140119,,,A*78
$GPGGA,154512.00,2249.145914,S,04318.399027,W,1,21,0.3,13.4,M,-5.2,M,,*40
$GPGSV,3,1,10,25,77,010,36,29,49,174,37,21,42,272,38,12,41,035,38*7B
$GPGSV,3,2,10,05,32,128,20,20,21,338,29,31,15,251,21,15,12,044,34*75
$GPGSV,3,3,10,26,02,218,,02,02,129,*7F
$GLGSV,2,1,08,88,36,184,28,65,36,088,29,77,32,344,27,81,23,239,36*63
$GLGSV,2,2,08,79,20,218,29,87,18,135,23,66,18,021,28,72,16,134,24*63
$GAGSV,2,1,08,125,59,264,38,111,51,186,32,124,45,357,34,104,25,073,29*64
$GAGSV,2,2,08,112,20,130,14,109,18,019,25,102,16,220,,119,06,125,11*64
$GPGSA,A,3,05,12,15,20,21,25,29,31,,,,,1.8,0.9,1.5*3B
$GNGSA,A,3,05,12,15,20,21,25,29,31,,,,,1.8,0.9,1.5*25
$GNGSA,A,3,65,66,72,77,79,81,87,88,,,,,1.8,0.9,1.5*26
$QZGSA,A,3,,,,,,,,,,,,,1.8,0.9,1.5*2A
$IMGSA,A,3,,,,,,,,,,,,,1.8,0.9,1.5*25
$BDGSA,A,3,,,,,,,,,,,,,1.8,0.9,1.5*27
$GAGSA,A,3,104,109,111,124,125,,,,,,,,1.8,0.9,1.5*1A
$GPRMC,154512.00,A,2249.145914,S,04318.399027,W,000.1,,140119,,,A*7D
$GPGGA,154513.00,2249.145924,S,04318.399023,W,1,21,0.3,13.4,M,-5.2,M,,*46
$GPGSV,3,1,10,25,77,010,36,29,49,174,38,21,42,272,38,12,41,035,38*74
$GPGSV,3,2,10,05,32,128,19,20,21,338,29,31,15,251,22,15,12,044,34*7C
$GPGSV,3,3,10,26,02,218,,02,02,129,*7F
$GLGSV,2,1,08,88,36,184,30,65,36,088,29,77,32,344,27,81,23,239,36*6A
$GLGSV,2,2,08,79,20,218,28,87,18,135,23,66,18,021,28,72,16,134,26*60
$GAGSV,2,1,08,125,59,264,38,111,51,186,34,124,45,357,34,104,25,073,29*62
$GAGSV,2,2,08,112,20,130,13,109,18,019,24,102,16,220,,119,06,125,11*62
$GPGSA,A,3,05,12,15,20,21,25,29,31,,,,,1.8,0.8,1.6*39
$GNGSA,A,3,05,12,15,20,21,25,29,31,,,,,1.8,0.8,1.6*27
$GNGSA,A,3,65,66,72,77,79,81,87,88,,,,,1.8,0.8,1.6*24
$QZGSA,A,3,,,,,,,,,,,,,1.8,0.8,1.6*28
$IMGSA,A,3,,,,,,,,,,,,,1.8,0.8,1.6*27
$BDGSA,A,3,,,,,,,,,,,,,1.8,0.8,1.6*25
$GAGSA,A,3,104,109,111,124,125,,,,,,,,1.8,0.8,1.6*18
$GPRMC,154513.00,A,2249.145924,S,04318.399023,W,000.1,,140119,,,A*7B
$GPGGA,154514.00,2249.145995,S,04318.399058,W,1,20,0.3,13.4,M,-5.2,M,,*46
$GPGSV,3,1,10,25,77,010,36,29,49,174,38,21,42,272,38,12,41,035,37*7B
$GPGSV,3,2,10,05,32,128,18,20,21,338,29,31,15,251,21,15,12,044,34*7E
$GPGSV,3,3,10,26,02,218,,02,02,129,*7F
$GLGSV,2,1,08,88,36,184,31,65,36,088,29,77,32,344,27,81,23,239,36*6B
$GLGSV,2,2,08,79,20,218,28,87,18,135,22,66,18,021,27,72,16,134,26*6E
$GAGSV,2,1,08,125,59,264,38,111,51,186,34,124,45,357,34,104,25,073,30*6A
$GAGSV,2,2,08,112,20,130,13,109,18,019,23,102,16,220,,119,06,125,11*65
$GPGSA,A,3,12,15,20,21,25,29,31,,,,,,1.6,0.8,1.3*37
$GNGSA,A,3,12,15,20,21,25,29,31,,,,,,1.6,0.8,1.3*29
$GNGSA,A,3,65,66,72,77,79,81,87,88,,,,,1.6,0.8,1.3*2F
$QZGSA,A,3,,,,,,,,,,,,,1.6,0.8,1.3*23
$IMGSA,A,3,,,,,,,,,,,,,1.6,0.8,1.3*2C
$BDGSA,A,3,,,,,,,,,,,,,1.6,0.8,1.3*2E
$GAGSA,A,3,104,109,111,124,125,,,,,,,,1.6,0.8,1.3*13
$GPRMC,154514.00,A,2249.145995,S,04318.399058,W,000.0,,140119,,,A*7B
$GPGGA,154515.00,2249.146057,S,04318.399099,W,1,20,0.3,13.4,M,-5.2,M,,*4E
$GPGSV,3,1,10,25,77,010,36,29,49,174,38,21,42,271,38,12,41,035,37*78
$GPGSV,3,2,10,05,32,128,17,20,21,338,29,31,15,251,21,15,12,044,33*76
$GPGSV,3,3,10,26,02,218,,02,02,129,*7F
$GLGSV,2,1,08,88,36,184,30,65,36,088,29,77,32,344,27,81,23,239,36*6A
$GLGSV,2,2,08,79,20,218,28,87,18,135,22,66,18,021,27,72,16,134,26*6E
$GAGSV,2,1,08,125,59,264,38,111,51,186,34,124,45,357,34,104,25,073,30*6A
$GAGSV,2,2,08,112,20,130,13,109,18,019,23,102,16,220,,119,06,125,11*65
$GPGSA,A,3,12,15,20,21,25,29,31,,,,,,1.6,0.8,1.4*30
$GNGSA,A,3,12,15,20,21,25,29,31,,,,,,1.6,0.8,1.4*2E
$GNGSA,A,3,65,66,72,77,79,81,87,88,,,,,1.6,0.8,1.4*28
$QZGSA,A,3,,,,,,,,,,,,,1.6,0.8,1.4*24
$IMGSA,A,3,,,,,,,,,,,,,1.6,0.8,1.4*2B
$BDGSA,A,3,,,,,,,,,,,,,1.6,0.8,1.4*29
$GAGSA,A,3,104,109,111,124,125,,,,,,,,1.6,0.8,1.4*14
$GPRMC,154515.00,A,2249.146057,S,04318.399099,W,000.1,,140119,,,A*72
$GPGGA,154516.00,2249.146077,S,04318.399064,W,1,21,0.3,13.4,M,-5.2,M,,*4C
$GPGSV,3,1,10,25,77,010,36,29,49,174,38,21,42,271,38,12,41,035,36*79
$GPGSV,3,2,10,05,32,128,17,20,21,338,30,31,15,251,21,15,12,044,33*7E
$GPGSV,3,3,10,26,02,218,,02,02,129,*7F
$GLGSV,2,1,08,88,36,184,30,65,36,088,29,77,32,344,27,81,23,239,36*6A
$GLGSV,2,2,08,79,20,218,28,87,18,135,21,66,18,021,27,72,16,134,25*6E
$GAGSV,2,1,08,125,59,264,38,111,51,186,34,124,45,357,33,104,25,073,30*6D
$GAGSV,2,2,08,112,20,130,12,109,18,019,23,102,16,220,,119,06,125,11*64
$GPGSA,A,3,05,12,15,20,21,25,29,31,,,,,1.6,0.8,1.4*35
$GNGSA,A,3,05,12,15,20,21,25,29,31,,,,,1.6,0.8,1.4*2B
$GNGSA,A,3,65,66,72,77,79,81,87,88,,,,,1.6,0.8,1.4*28
$QZGSA,A,3,,,,,,,,,,,,,1.6,0.8,1.4*24
$IMGSA,A,3,,,,,,,,,,,,,1.6,0.8,1.4*2B
$BDGSA,A,3,,,,,,,,,,,,,1.6,0.8,1.4*29
$GAGSA,A,3,104,109,111,124,125,,,,,,,,1.6,0.8,1.4*14
$GPRMC,154516.00,A,2249.146077,S,04318.399064,W,000.1,,140119,,,A*71
$GPGGA,154517.00,2249.146159,S,04318.399105,W,1,21,0.3,13.4,M,-5.2,M,,*46
$GPGSV,3,1,10,25,77,010,36,29,49,174,38,21,42,271,38,12,41,035,36*79
$GPGSV,3,2,10,05,32,128,,20,21,338,30,31,15,251,21,15,12,044,33*78
$GPGSV,3,3,10,26,02,218,,02,02,129,*7F
$GLGSV,2,1,08,88,36,184,30,65,36,088,29,77,32,344,26,81,23,239,36*6B
$GLGSV,2,2,08,79,20,218,28,87,18,135,21,66,18,021,27,72,16,134,25*6E
$GAGSV,2,1,08,125,59,264,38,111,51,186,34,124,45,357,33,104,25,073,30*6D
$GAGSV,2,2,08,112,20,130,12,109,18,019,22,102,16,220,,119,06,125,10*64
$GPGSA,A,3,12,15,20,21,25,29,31,,,,,,1.7,0.8,1.4*31
$GNGSA,A,3,12,15,20,21,25,29,31,,,,,,1.7,0.8,1.4*2F
$GNGSA,A,3,65,66,72,77,79,81,87,88,,,,,1.7,0.8,1.4*29
$QZGSA,A,3,,,,,,,,,,,,,1.7,0.8,1.4*25
$IMGSA,A,3,,,,,,,,,,,,,1.7,0.8,1.4*2A
$BDGSA,A,3,,,,,,,,,,,,,1.7,0.8,1.4*28
$GAGSA,A,3,104,109,111,124,125,,,,,,,,1.7,0.8,1.4*15
$GPRMC,154517.00,A,2249.146159,S,04318.399105,W,000.1,,140119,,,A*7B
$GPGGA,154518.00,2249.146199,S,04318.399113,W,1,21,0.3,13.4,M,-5.2,M,,*42
$GPGSV,3,1,10,25,77,010,36,29,49,174,38,21,42,271,38,12,41,035,36*79
$GPGSV,3,2,10,05,32,128,15,20,21,338,30,31,15,251,21,15,12,044,33*7C
$GPGSV,3,3,10,26,02,218,,02,02,129,*7F
$GLGSV,2,1,08,88,36,184,30,65,36,088,29,77,32,344,26,81,23,239,36*6B
$GLGSV,2,2,08,79,20,219,28,87,18,135,21,66,18,021,27,72,16,134,25*6F
$GAGSV,2,1,08,125,59,264,38,111,51,186,34,124,45,357,33,104,25,073,30*6D
$GAGSV,2,2,08,112,20,130,,109,18,019,22,102,16,220,,119,06,125,10*67
$GPGSA,A,3,12,15,20,21,25,29,31,,,,,,1.6,0.8,1.4*30
$GNGSA,A,3,12,15,20,21,25,29,31,,,,,,1.6,0.8,1.4*2E
$GNGSA,A,3,65,66,72,77,79,81,87,88,,,,,1.6,0.8,1.4*28
$QZGSA,A,3,,,,,,,,,,,,,1.6,0.8,1.4*24
$IMGSA,A,3,,,,,,,,,,,,,1.6,0.8,1.4*2B
$BDGSA,A,3,,,,,,,,,,,,,1.6,0.8,1.4*29
$GAGSA,A,3,104,109,111,124,125,,,,,,,,1.6,0.8,1.4*14
$GPRMC,154518.00,A,2249.146199,S,04318.399113,W,000.1,,140119,,,A*7F
$GPGGA,154519.00,2249.146274,S,04318.399150,W,1,22,0.3,13.4,M,-5.2,M,,*47
$GPGSV,3,1,10,25,77,010,36,29,49,174,38,21,42,271,38,12,41,035,35*7A
$GPGSV,3,2,10,05,32,128,14,20,21,338,30,31,15,251,21,15,12,044,33*7D
$GPGSV,3,3,10,26,02,218,,02,02,129,*7F
$GLGSV,2,1,08,88,36,184,30,65,36,088,29,77,32,344,26,81,23,238,36*6A
$GLGSV,2,2,08,79,20,219,28,87,18,135,20,66,18,021,27,72,16,134,25*6E
$GAGSV,2,1,08,125,59,264,39,111,51,186,34,124,45,357,33,104,25,073,30*6C
$GAGSV,2,2,08,112,20,130,11,109,18,019,21,102,16,220,,119,06,125,10*64
$GPGSA,A,3,12,15,20,21,25,29,31,,,,,,2.0,0.9,1.8*38
$GNGSA,A,3,12,15,20,21,25,29,31,,,,,,2.0,0.9,1.8*26
$GNGSA,A,3,65,66,72,77,79,81,87,88,,,,,2.0,0.9,1.8*20
$QZGSA,A,3,,,,,,,,,,,,,2.0,0.9,1.8*2C
$IMGSA,A,3,,,,,,,,,,,,,2.0,0.9,1.8*23
$BDGSA,A,3,,,,,,,,,,,,,2.0,0.9,1.8*21
$GAGSA,A,3,104,109,111,124,125,,,,,,,,2.0,0.9,1.8*1C
$GPRMC,154519.00,A,2249.146274,S,04318.399150,W,000.1,,140119,,,A*79
$GPGGA,154520.00,2249.146306,S,04318.399194,W,1,20,0.3,13.4,M,-5.2,M,,*43
$GPGSV,3,1,10,25,77,010,36,29,49,174,38,21,42,271,38,12,41,035,35*7A
$GPGSV,3,2,10,05,32,128,14,20,21,338,30,31,15,251,21,15,12,044,32*7C
$GPGSV,3,3,10,26,02,218,,02,02,129,*7F
$GLGSV,2,1,08,88,36,184,30,65,36,088,29,77,32,344,26,81,23,238,36*6A
$GLGSV,2,2,08,79,20,219,28,87,18,135,20,66,18,021,27,72,16,134,25*6E
$GAGSV,2,1,08,125,59,264,38,111,51,186,33,124,45,357,33,104,25,073,29*62
$GAGSV,2,2,08,112,20,130,11,109,18,019,21,102,16,220,,119,06,125,*65
$GPGSA,A,3,12,15,20,21,25,29,31,,,,,,2.0,0.9,1.8*38
$GNGSA,A,3,12,15,20,21,25,29,31,,,,,,2.0,0.9,1.8*26
$GNGSA,A,3,65,66,72,77,79,81,87,88,,,,,2.0,0.9,1.8*20
$QZGSA,A,3,,,,,,,,,,,,,2.0,0.9,1.8*2C
$IMGSA,A,3,,,,,,,,,,,,,2.0,0.9,1.8*23
$BDGSA,A,3,,,,,,,,,,,,,2.0,0.9,1.8*21
$GAGSA,A,3,104,109,111,124,125,,,,,,,,2.0,0.9,1.8*1C
$GPRMC,154520.00,A,2249.146306,S,04318.399194,W,000.0,,140119,,,A*7E
$GPGGA,154521.00,2249.146300,S,04318.399185,W,1,19,0.3,13.5,M,-5.2,M,,*4F
$GPGSV,3,1,10,25,77,010,36,29,49,174,38,21,42,271,38,12,41,035,34*7B
$GPGSV,3,2,10,05,32,128,14,20,21,338,30,31,15,251,21,15,12,044,32*7C
$GPGSV,3,3,10,26,02,218,,02,02,129,*7F
$GLGSV,2,1,08,88,36,184,30,65,36,088,29,77,32,344,26,81,23,238,35*69
$GLGSV,2,2,08,79,20,219,29,87,18,134,19,66,18,021,26,72,16,134,25*65
$GAGSV,2,1,08,125,59,264,38,111,51,186,34,124,45,357,33,104,25,073,29*65
$GAGSV,2,2,08,112,20,130,11,109,18,019,,102,16,220,,119,06,125,*66
$GPGSA,A,3,12,15,20,21,25,29,31,,,,,,2.0,0.9,1.8*38
$GNGSA,A,3,12,15,20,21,25,29,31,,,,,,2.0,0.9,1.8*26
$GNGSA,A,3,65,66,72,77,79,81,87,88,,,,,2.0,0.9,1.8*20
$QZGSA,A,3,,,,,,,,,,,,,2.0,0.9,1.8*2C
$IMGSA,A,3,,,,,,,,,,,,,2.0,0.9,1.8*23
$BDGSA,A,3,,,,,,,,,,,,,2.0,0.9,1.8*21
$GAGSA,A,3,104,111,124,125,,,,,,,,,2.0,0.9,1.8*24
$GPRMC,154521.00,A,2249.146300,S,04318.399185,W,000.0,,140119,,,A*79
$GPGGA,154522.00,2249.146277,S,04318.399173,W,1,18,0.3,13.5,M,-5.2,M,,*45
$GPGSV,3,1,10,25,77,010,36,29,49,174,38,21,42,271,38,12,41,035,34*7B
$GPGSV,3,2,10,05,32,128,13,20,21,338,30,31,15,251,20,15,12,044,32*7A
$GPGSV,3,3,10,26,02,218,,02,02,129,*7F
$GLGSV,2,1,08,88,36,184,30,65,36,088,29,77,32,344,26,81,23,238,35*69
$GLGSV,2,2,08,79,20,219,29,87,18,134,19,66,18,021,26,72,16,134,25*65
$GAGSV,2,1,08,125,59,264,39,111,51,186,34,124,45,357,33,104,25,073,29*64
$GAGSV,2,2,08,112,20,130,10,109,18,019,18,102,16,220,,119,06,125,*6E
$GPGSA,A,3,12,15,20,21,25,29,31,,,,,,1.6,0.8,1.4*30
$GNGSA,A,3,12,15,20,21,25,29,31,,,,,,1.6,0.8,1.4*2E
$GNGSA,A,3,65,66,72,77,79,81,88,,,,,,1.6,0.8,1.4*27
$QZGSA,A,3,,,,,,,,,,,,,1.6,0.8,1.4*24
$IMGSA,A,3,,,,,,,,,,,,,1.6,0.8,1.4*2B
$BDGSA,A,3,,,,,,,,,,,,,1.6,0.8,1.4*29
$GAGSA,A,3,104,111,124,125,,,,,,,,,1.6,0.8,1.4*2C
$GPRMC,154522.00,A,2249.146277,S,04318.399173,W,000.1,,140119,,,A*73
$GPGGA,154523.00,2249.146195,S,04318.399112,W,1,20,0.3,13.5,M,-5.2,M,,*47
$GPGSV,3,1,10,25,77,010,36,29,49,174,39,21,42,271,38,12,41,035,33*7D
$GPGSV,3,2,10,05,32,128,13,20,21,338,30,31,15,251,21,15,12,044,32*7B
$GPGSV,3,3,10,26,02,218,,02,02,129,*7F
$GLGSV,2,1,08,88,36,184,30,65,36,088,29,77,32,344,26,81,23,238,35*69
$GLGSV,2,2,08,79,20,219,29,87,18,134,18,66,18,021,26,72,16,134,24*65
$GAGSV,2,1,08,125,59,264,39,111,51,186,34,124,45,357,33,104,25,073,29*64
$GAGSV,2,2,08,112,20,130,10,109,18,019,18,102,16,220,,119,06,125,09*67
$GPGSA,A,3,12,15,20,21,25,29,31,,,,,,1.7,0.8,1.5*30
$GNGSA,A,3,12,15,20,21,25,29,31,,,,,,1.7,0.8,1.5*2E
$GNGSA,A,3,65,66,72,77,79,81,87,88,,,,,1.7,0.8,1.5*28
$QZGSA,A,3,,,,,,,,,,,,,1.7,0.8,1.5*24
$IMGSA,A,3,,,,,,,,,,,,,1.7,0.8,1.5*2B
$BDGSA,A,3,,,,,,,,,,,,,1.7,0.8,1.5*29
$GAGSA,A,3,104,111,124,125,,,,,,,,,1.7,0.8,1.5*2C
$GPRMC,154523.00,A,2249.146195,S,04318.399112,W,000.1,,140119,,,A*7A
$GPGGA,154524.00,2249.146046,S,04318.399089,W,1,19,0.3,13.5,M,-5.2,M,,*46
$GPGSV,3,1,10,25,77,010,36,29,49,174,39,21,42,271,38,12,41,035,33*7D
$GPGSV,3,2,10,05,32,128,12,20,21,338,30,31,15,251,21,15,12,044,32*7A
$GPGSV,3,3,10,26,02,218,,02,02,129,*7F
$GLGSV,2,1,08,88,36,184,30,65,36,088,29,77,32,344,26,81,23,238,35*69
$GLGSV,2,2,08,79,20,219,29,87,18,134,18,66,18,021,26,72,16,134,24*65
$GAGSV,2,1,08,125,59,264,39,111,51,186,33,124,45,357,33,104,25,073,29*63
$GAGSV,2,2,08,112,20,130,10,109,18,019,17,102,16,220,,119,06,125,*61
$GPGSA,A,3,12,15,20,21,25,29,31,,,,,,1.7,0.9,1.5*31
$GNGSA,A,3,12,15,20,21,25,29,31,,,,,,1.7,0.9,1.5*2F
$GNGSA,A,3,65,66,72,77,79,81,87,88,,,,,1.7,0.9,1.5*29
$QZGSA,A,3,,,,,,,,,,,,,1.7,0.9,1.5*25
$IMGSA,A,3,,,,,,,,,,,,,1.7,0.9,1.5*2A
$BDGSA,A,3,,,,,,,,,,,,,1.7,0.9,1.5*28
$GAGSA,A,3,104,111,124,125,,,,,,,,,1.7,0.9,1.5*2D
$GPRMC,154524.00,A,2249.146046,S,04318.399089,W,000.0,,140119,,,A*70
$GPGGA,154525.00,2249.145967,S,04318.399049,W,1,19,0.3,13.5,M,-5.2,M,,*42
$GPGSV,3,1,10,25,77,010,36,29,49,174,39,21,42,271,38,12,41,035,33*7D
$GPGSV,3,2,10,05,32,128,,20,21,338,30,31,15,251,21,15,12,044,32*79
$GPGSV,3,3,10,26,03,218,,02,02,129,*7E
$GLGSV,2,1,08,88,36,184,30,65,36,088,29,77,32,344,26,81,23,238,35*69
$GLGSV,2,2,08,79,20,219,29,87,18,134,18,66,18,021,26,72,16,134,24*65
$GAGSV,2,1,08,125,59,264,39,111,51,186,34,124,45,357,33,104,26,073,29*67
$GAGSV,2,2,08,112,20,130,,109,18,019,16,102,16,220,,119,06,125,09*68
$GPGSA,A,3,12,15,20,21,25,29,31,,,,,,1.6,0.8,1.4*30
$GNGSA,A,3,12,15,20,21,25,29,31,,,,,,1.6,0.8,1.4*2E
$GNGSA,A,3,65,66,72,77,79,81,87,88,,,,,1.6,0.8,1.4*28
$QZGSA,A,3,,,,,,,,,,,,,1.6,0.8,1.4*24
$IMGSA,A,3,,,,,,,,,,,,,1.6,0.8,1.4*2B
$BDGSA,A,3,,,,,,,,,,,,,1.6,0.8,1.4*29
$GAGSA,A,3,104,111,124,125,,,,,,,,,1.6,0.8,1.4*2C
$GPRMC,154525.00,A,2249.145967,S,04318.399049,W,000.0,,140119,,,A*74
$GPGGA,154526.00,2249.145837,S,04318.398996,W,1,19,0.3,13.5,M,-5.2,M,,*4F
$GPGSV,3,1,10,25,77,010,36,29,49,174,39,21,42,271,38,12,41,035,33*7D
$GPGSV,3,2,10,05,32,128,,20,21,338,30,31,15,251,21,15,12,044,32*79
$GPGSV,3,3,10,26,03,218,,02,02,129,*7E
$GLGSV,2,1,08,88,36,184,30,65,36,088,30,77,32,344,26,81,23,238,35*61
$GLGSV,2,2,08,79,20,219,30,87,18,134,18,66,18,021,26,72,16,134,24*6D
$GAGSV,2,1,08,125,59,264,39,111,51,186,34,124,45,357,33,104,26,073,29*67
$GAGSV,2,2,08,112,20,130,10,109,18,019,16,102,16,220,,119,06,125,09*69
$GPGSA,A,3,12,15,20,21,25,29,31,,,,,,1.6,0.8,1.4*30
$GNGSA,A,3,12,15,20,21,25,29,31,,,,,,1.6,0.8,1.4*2E
$GNGSA,A,3,65,66,72,77,79,81,87,88,,,,,1.6,0.8,1.4*28
$QZGSA,A,3,,,,,,,,,,,,,1.6,0.8,1.4*24
$IMGSA,A,3,,,,,,,,,,,,,1.6,0.8,1.4*2B
$BDGSA,A,3,,,,,,,,,,,,,1.6,0.8,1.4*29
$GAGSA,A,3,104,111,124,125,,,,,,,,,1.6,0.8,1.4*2C
$GPRMC,154526.00,A,2249.145837,S,04318.398996,W,000.1,,140119,,,A*78
$GPGGA,154527.00,2249.145521,S,04318.398932,W,1,20,0.3,13.5,M,-5.2,M,,*40
$GPGSV,3,1,10,25,77,010,36,29,49,174,39,21,42,271,38,12,41,035,32*7C
$GPGSV,3,2,10,05,32,128,,20,21,338,30,31,15,251,22,15,12,044,31*79
$GPGSV,3,3,10,26,03,218,,02,02,129,*7E
$GLGSV,2,1,08,88,36,184,30,65,36,088,29,77,32,344,26,81,23,238,35*69
$GLGSV,2,2,08,79,20,219,30,87,18,134,18,66,18,021,26,72,16,134,24*6D
$GAGSV,2,1,08,125,59,264,39,111,51,186,34,124,45,357,33,104,26,073,29*67
$GAGSV,2,2,08,112,20,130,09,109,18,019,15,102,16,220,,119,06,125,09*62
$GPGSA,A,3,12,15,20,21,25,29,31,,,,,,1.7,1.0,1.5*39
$GNGSA,A,3,12,15,20,21,25,29,31,,,,,,1.7,1.0,1.5*27
$GNGSA,A,3,65,66,72,77,79,81,87,88,,,,,1.7,1.0,1.5*21
$QZGSA,A,3,,,,,,,,,,,,,1.7,1.0,1.5*2D
$IMGSA,A,3,,,,,,,,,,,,,1.7,1.0,1.5*22
$BDGSA,A,3,,,,,,,,,,,,,1.7,1.0,1.5*20
$GAGSA,A,3,104,109,111,124,125,,,,,,,,1.7,1.0,1.5*1D
$GPRMC,154527.00,A,2249.145521,S,04318.398932,W,000.1,,140119,,,A*7D
$GPGGA,154528.00,2249.145245,S,04318.398823,W,1,19,0.3,13.5,M,-5.2,M,,*41
$GPGSV,3,1,10,25,77,010,36,29,49,174,39,21,42,271,38,12,41,035,32*7C
$GPGSV,3,2,10,05,32,128,,20,21,338,30,31,15,251,23,15,12,044,31*78
$GPGSV,3,3,10,26,03,218,,02,02,129,*7E
$GLGSV,2,1,08,88,36,184,30,65,36,088,29,77,32,344,26,81,23,238,36*6A
$GLGSV,2,2,08,79,20,219,30,87,18,134,18,66,18,021,27,72,16,134,23*6B
$GAGSV,2,1,08,125,59,264,39,111,51,186,34,124,45,357,33,104,26,073,30*6F
$GAGSV,2,2,08,112,20,130,09,109,18,019,15,102,16,220,,119,06,126,09*61
$GPGSA,A,3,12,15,20,21,25,29,31,,,,,,1.7,0.8,1.5*30
$GNGSA,A,3,12,15,20,21,25,29,31,,,,,,1.7,0.8,1.5*2E
$GNGSA,A,3,65,66,72,77,79,81,87,88,,,,,1.7,0.8,1.5*28
$QZGSA,A,3,,,,,,,,,,,,,1.7,0.8,1.5*24
$IMGSA,A,3,,,,,,,,,,,,,1.7,0.8,1.5*2B
$BDGSA,A,3,,,,,,,,,,,,,1.7,0.8,1.5*29
$GAGSA,A,3,104,111,124,125,,,,,,,,,1.7,0.8,1.5*2C
$GPRMC,154528.00,A,2249.145245,S,04318.398823,W,000.1,,140119,,,A*76
$GPGGA,154529.00,2249.145044,S,04318.398726,W,1,19,0.3,13.5,M,-5.2,M,,*49
$GPGSV,3,1,10,25,77,010,36,29,49,174,39,21,42,271,38,12,41,035,32*7C
$GPGSV,3,2,10,05,32,128,,20,21,338,30,31,15,251,23,15,12,044,31*78
$GPGSV,3,3,10,26,03,218,,02,02,129,*7E
$GLGSV,2,1,08,88,36,184,30,65,36,088,29,77,32,344,26,81,23,238,36*6A
$GLGSV,2,2,08,79,20,219,30,87,18,134,17,66,18,021,26,72,16,134,23*65
$GAGSV,2,1,08,125,59,264,39,111,51,186,33,124,45,357,33,104,26,073,30*68
$GAGSV,2,2,08,112,20,130,10,109,18,019,15,102,16,220,,119,06,126,09*69
$GPGSA,A,3,12,15,20,21,25,29,31,,,,,,1.7,0.8,1.5*30
$GNGSA,A,3,12,15,20,21,25,29,31,,,,,,1.7,0.8,1.5*2E
$GNGSA,A,3,65,66,72,77,79,81,87,88,,,,,1.7,0.8,1.5*28
$QZGSA,A,3,,,,,,,,,,,,,1.7,0.8,1.5*24
$IMGSA,A,3,,,,,,,,,,,,,1.7,0.8,1.5*2B
$BDGSA,A,3,,,,,,,,,,,,,1.7,0.8,1.5*29
$GAGSA,A,3,104,111,124,125,,,,,,,,,1.7,0.8,1.5*2C
$GPRMC,154529.00,A,2249.145044,S,04318.398726,W,000.1,,140119,,,A*7E
$GPGGA,154530.00,2249.144857,S,04318.398604,W,1,19,0.3,13.5,M,-5.2,M,,*4B
$GPGSV,3,1,10,25,77,010,36,29,49,174,40,21,42,271,38,12,41,035,32*72
$GPGSV,3,2,10,05,32,128,,20,21,338,30,31,15,251,22,15,12,044,31*79
$GPGSV,3,3,10,26,03,218,,02,02,129,*7E
$GLGSV,2,1,08,88,36,184,30,65,36,088,29,77,32,344,26,81,23,238,36*6A
$GLGSV,2,2,08,79,20,219,30,87,18,134,17,66,18,021,26,72,16,134,22*64
$GAGSV,2,1,08,125,59,264,39,111,51,186,34,124,45,357,33,104,26,073,29*67
$GAGSV,2,2,08,112,20,130,10,109,18,019,14,102,16,220,,119,06,126,09*68
$GPGSA,A,3,12,15,20,21,25,29,31,,,,,,1.8,0.8,1.6*3C
$GNGSA,A,3,12,15,20,21,25,29,31,,,,,,1.8,0.8,1.6*22
$GNGSA,A,3,65,66,72,77,79,81,87,88,,,,,1.8,0.8,1.6*24
$QZGSA,A,3,,,,,,,,,,,,,1.8,0.8,1.6*28
$IMGSA,A,3,,,,,,,,,,,,,1.8,0.8,1.6*27
$BDGSA,A,3,,,,,,,,,,,,,1.8,0.8,1.6*25
$GAGSA,A,3,104,111,124,125,,,,,,,,,1.8,0.8,1.6*20
$GPRMC,154530.00,A,2249.144857,S,04318.398604,W,000.0,,140119,,,A*7D
$GPGGA,154531.00,2249.144820,S,04318.398568,W,1,19,0.3,13.5,M,-5.2,M,,*43
$GPGSV,3,1,10,25,77,010,37,29,49,174,40,21,42,271,39,12,41,035,32*72
$GPGSV,3,2,10,05,32,129,,20,21,338,30,31,15,251,22,15,12,044,31*78
$GPGSV,3,3,10,26,03,218,,02,02,129,*7E
$GLGSV,2,1,08,88,36,184,30,65,36,088,29,77,32,344,26,81,23,238,36*6A
$GLGSV,2,2,08,79,20,219,30,87,18,134,17,66,18,021,26,72,16,134,22*64
$GAGSV,2,1,08,125,59,264,39,111,51,186,34,124,45,357,33,104,26,073,29*67
$GAGSV,2,2,08,112,20,130,10,109,18,019,14,102,16,220,,119,06,126,09*68
$GPGSA,A,3,12,15,20,21,25,29,31,,,,,,2.0,1.1,1.7*3E
$GNGSA,A,3,12,15,20,21,25,29,31,,,,,,2.0,1.1,1.7*20
$GNGSA,A,3,65,66,72,77,79,81,87,88,,,,,2.0,1.1,1.7*26
$QZGSA,A,3,,,,,,,,,,,,,2.0,1.1,1.7*2A
$IMGSA,A,3,,,,,,,,,,,,,2.0,1.1,1.7*25
$BDGSA,A,3,,,,,,,,,,,,,2.0,1.1,1.7*27
$GAGSA,A,3,104,111,124,125,,,,,,,,,2.0,1.1,1.7*22
$GPRMC,154531.00,A,2249.144820,S,04318.398568,W,000.1,,140119,,,A*74
$GPGGA,154532.00,2249.144721,S,04318.398472,W,1,20,0.3,13.5,M,-5.2,M,,*4E
$GPGSV,3,1,10,25,77,010,37,29,49,174,40,21,42,271,39,12,41,035,32*72
$GPGSV,3,2,10,05,32,129,09,20,21,338,30,31,15,251,22,15,12,044,31*71
$GPGSV,3,3,10,26,03,218,,02,02,129,*7E
$GLGSV,2,1,08,88,36,184,30,65,36,088,29,77,32,344,26,81,23,238,36*6A
$GLGSV,2,2,08,79,20,219,30,87,18,134,17,66,18,021,26,72,16,134,22*64
$GAGSV,2,1,08,125,59,264,39,111,51,186,33,124,45,357,33,104,26,073,29*60
$GAGSV,2,2,08,112,20,130,11,109,18,019,14,102,16,220,,119,06,126,*60
$GPGSA,A,3,12,15,20,21,25,29,31,,,,,,2.0,1.1,1.7*3E
$GNGSA,A,3,12,15,20,21,25,29,31,,,,,,2.0,1.1,1.7*20
$GNGSA,A,3,65,66,72,77,79,81,87,88,,,,,2.0,1.1,1.7*26
$QZGSA,A,3,,,,,,,,,,,,,2.0,1.1,1.7*2A
$IMGSA,A,3,,,,,,,,,,,,,2.0,1.1,1.7*25
$BDGSA,A,3,,,,,,,,,,,,,2.0,1.1,1.7*27
$GAGSA,A,3,104,109,111,124,125,,,,,,,,2.0,1.1,1.7*1A
$GPRMC,154532.00,A,2249.144721,S,04318.398472,W,000.1,,140119,,,A*73
$GPGGA,154533.00,2249.144597,S,04318.398413,W,1,19,0.3,13.5,M,-5.2,M,,*4D
$GPGSV,3,1,10,25,77,010,37,29,49,174,40,21,42,271,39,12,41,035,32*72
$GPGSV,3,2,10,05,32,129,09,20,21,338,30,31,15,251,22,15,12,044,31*71
$GPGSV,3,3,10,26,03,218,,02,02,129,*7E
$GLGSV,2,1,08,88,36,184,30,65,36,088,29,77,32,344,27,81,23,238,35*68
$GLGSV,2,2,08,79,20,219,30,87,18,134,16,66,18,021,26,72,16,134,22*65
$GAGSV,2,1,08,125,59,264,38,111,51,186,33,124,45,357,33,104,26,073,29*61
$GAGSV,2,2,08,112,20,130,11,109,18,019,14,102,16,220,,119,06,126,*60
$GPGSA,A,3,12,15,20,21,25,29,31,,,,,,1.9,0.9,1.7*3D
$GNGSA,A,3,12,15,20,21,25,29,31,,,,,,1.9,0.9,1.7*23
$GNGSA,A,3,65,66,72,77,79,81,88,,,,,,1.9,0.9,1.7*2A
$QZGSA,A,3,,,,,,,,,,,,,1.9,0.9,1.7*29
$IMGSA,A,3,,,,,,,,,,,,,1.9,0.9,1.7*26
$BDGSA,A,3,,,,,,,,,,,,,1.9,0.9,1.7*24
$GAGSA,A,3,104,109,111,124,125,,,,,,,,1.9,0.9,1.7*19
$GPRMC,154533.00,A,2249.144597,S,04318.398413,W,000.0,,140119,,,A*7B
$GPGGA,154534.00,2249.144564,S,04318.398381,W,1,19,0.3,13.5,M,-5.2,M,,*4A
$GPGSV,3,1,10,25,77,010,37,29,49,174,40,21,42,271,39,12,41,035,32*72
$GPGSV,3,2,10,05,32,129,09,20,21,338,30,31,15,251,22,15,12,044,31*71
$GPGSV,3,3,10,26,03,218,,02,02,129,*7E
$GLGSV,2,1,08,88,36,184,30,65,36,088,29,77,32,344,27,81,23,238,35*68
$GLGSV,2,2,08,79,20,219,30,87,18,134,16,66,18,021,25,72,16,134,22*66
$GAGSV,2,1,08,125,59,264,38,111,51,186,33,124,45,357,33,104,26,073,29*61
$GAGSV,2,2,08,112,20,130,11,109,18,019,16,102,16,220,,119,06,126,*62
$GPGSA,A,3,12,15,20,21,25,29,31,,,,,,1.8,0.8,1.6*3C
$GNGSA,A,3,12,15,20,21,25,29,31,,,,,,1.8,0.8,1.6*22
$GNGSA,A,3,65,66,72,77,79,81,88,,,,,,1.8,0.8,1.6*2B
$QZGSA,A,3,,,,,,,,,,,,,1.8,0.8,1.6*28
$IMGSA,A,3,,,,,,,,,,,,,1.8,0.8,1.6*27
$BDGSA,A,3,,,,,,,,,,,,,1.8,0.8,1.6*25
$GAGSA,A,3,104,109,111,124,125,,,,,,,,1.8,0.8,1.6*18
$GPRMC,154534.00,A,2249.144564,S,04318.398381,W,000.0,,140119,,,A*7C
$GPGGA,154535.00,2249.144484,S,04318.398331,W,1,19,0.3,13.5,M,-5.2,M,,*4F
$GPGSV,3,1,10,25,77,010,37,29,49,174,40,21,42,271,39,12,41,035,32*72
$GPGSV,3,2,10,05,32,129,09,20,21,338,30,31,15,251,22,15,12,044,31*71
$GPGSV,3,3,10,26,03,218,,02,02,129,*7E
$GLGSV,2,1,08,88,36,184,30,65,36,088,29,77,32,344,27,81,23,238,35*68
$GLGSV,2,2,08,79,20,219,30,87,18,134,15,66,18,021,25,72,16,134,22*65
$GAGSV,2,1,08,125,59,264,39,111,51,186,33,124,45,357,33,104,26,073,29*60
$GAGSV,2,2,08,112,20,130,11,109,18,019,16,102,16,220,,119,06,126,*62
$GPGSA,A,3,12,15,20,21,25,29,31,,,,,,1.8,0.9,1.6*3D
$GNGSA,A,3,12,15,20,21,25,29,31,,,,,,1.8,0.9,1.6*23
$GNGSA,A,3,65,66,72,77,79,81,88,,,,,,1.8,0.9,1.6*2A
$QZGSA,A,3,,,,,,,,,,,,,1.8,0.9,1.6*29
$IMGSA,A,3,,,,,,,,,,,,,1.8,0.9,1.6*26
$BDGSA,A,3,,,,,,,,,,,,,1.8,0.9,1.6*24
$GAGSA,A,3,104,109,111,124,125,,,,,,,,1.8,0.9,1.6*19
$GPRMC,154535.00,A,2249.144484,S,04318.398331,W,000.0,,140119,,,A*79
$GPGGA,154536.00,2249.144456,S,04318.398313,W,1,19,0.3,13.5,M,-5.2,M,,*43
$GPGSV,3,1,10,25,77,010,37,29,49,174,40,21,42,271,39,12,41,034,32*73
$GPGSV,3,2,10,05,32,129,09,20,21,338,30,31,15,251,22,15,12,044,31*71
$GPGSV,3,3,10,26,03,218,,02,02,129,*7E
$GLGSV,2,1,08,88,36,184,30,65,36,088,29,77,32,344,27,81,23,238,35*68
$GLGSV,2,2,08,79,20,219,30,87,18,134,15,66,18,021,25,72,16,134,22*65
$GAGSV,2,1,08,125,59,264,39,111,51,186,33,124,45,357,33,104,26,073,29*60
