$GPGGA,161201.00,2249.144656,S,04318.400986,W,1,23,0.3,15.2,M,-5.2,M,,*4C
$GPGSV,3,1,11,25,62,008,37,29,52,156,34,21,47,254,39,20,33,336,33*70
$GPGSV,3,2,11,12,29,028,30,05,23,136,20,15,17,054,32,31,15,264,15*7B
$GPGSV,3,3,11,26,12,219,,10,05,334,,13,03,085,*48
$GLGSV,2,1,08,65,38,106,25,88,34,167,23,66,31,029,25,79,27,231,37*61
$GLGSV,2,2,08,81,26,224,34,77,19,349,21,87,14,121,20,72,10,145,19*60
$GAGSV,2,1,08,125,56,285,39,111,48,173,26,124,35,358,33,104,30,084,30*69
$GAGSV,2,2,08,109,25,025,26,102,22,226,30,112,16,121,18,119,04,134,*6F
$GPGSA,A,3,05,12,15,20,21,25,29,31,,,,,2.0,0.8,1.8*3C
$GNGSA,A,3,05,12,15,20,21,25,29,31,,,,,2.0,0.8,1.8*22
$GNGSA,A,3,65,66,72,77,79,81,87,88,,,,,2.0,0.8,1.8*21
$QZGSA,A,3,,,,,,,,,,,,,2.0,0.8,1.8*2D
$IMGSA,A,3,,,,,,,,,,,,,2.0,0.8,1.8*22
$BDGSA,A,3,,,,,,,,,,,,,2.0,0.8,1.8*20
$GAGSA,A,3,102,104,109,111,112,124,125,,,,,,2.0,0.8,1.8*1C
$GPRMC,161201.00,A,2249.144656,S,04318.400986,W,000.0,028.0,140119,,,A*56
$GPGGA,161202.00,2249.144652,S,04318.400963,W,1,23,0.3,15.2,M,-5.2,M,,*40
$GPGSV,3,1,11,25,62,008,37,29,52,156,33,21,47,254,39,20,33,336,32*76
$GPGSV,3,2,11,12,29,028,29,05,23,136,19,15,17,054,32,31,15,264,14*78
$GPGSV,3,3,11,26,12,219,08,10,05,334,,13,03,085,*40
$GLGSV,2,1,08,65,38,106,25,88,34,167,22,66,31,029,25,79,27,231,37*60
$GLGSV,2,2,08,81,26,224,34,77,19,349,20,87,14,121,20,72,10,145,19*61
$GAGSV,2,1,08,125,56,285,39,111,48,173,25,124,35,358,33,104,30,084,30*6A
$GAGSV,2,2,08,109,25,025,26,102,22,227,30,112,16,121,17,119,04,134,*61
$GPGSA,A,3,05,12,15,20,21,25,29,31,,,,,1.8,0.8,1.7*38
$GNGSA,A,3,05,12,15,20,21,25,29,31,,,,,1.8,0.8,1.7*26
$GNGSA,A,3,65,66,72,77,79,81,87,88,,,,,1.8,0.8,1.7*25
$QZGSA,A,3,,,,,,,,,,,,,1.8,0.8,1.7*29
$IMGSA,A,3,,,,,,,,,,,,,1.8,0.8,1.7*26
$BDGSA,A,3,,,,,,,,,,,,,1.8,0.8,1.7*24
$GAGSA,A,3,102,104,109,111,112,124,125,,,,,,1.8,0.8,1.7*18
$GPRMC,161202.00,A,2249.144652,S,04318.400963,W,000.0,028.0,140119,,,A*5A
$GPGGA,161203.00,2249.144642,S,04318.400926,W,1,23,0.3,15.2,M,-5.2,M,,*41
$GPGSV,3,1,11,25,62,008,37,29,52,156,33,21,47,254,39,20,33,336,32*76
$GPGSV,3,2,11,12,29,028,30,05,23,136,18,15,17,054,31,31,15,264,14*72
$GPGSV,3,3,11,26,12,219,,10,05,334,,13,03,085,*48
$GLGSV,2,1,08,65,38,106,25,88,34,167,22,66,31,029,27,79,27,231,37*62
$GLGSV,2,2,08,81,26,224,34,77,19,349,20,87,14,121,19,72,10,145,19*6B
$GAGSV,2,1,08,125,56,285,38,111,48,173,25,124,35,358,33,104,30,084,29*63
$GAGSV,2,2,08,109,25,025,25,102,22,227,30,112,16,121,17,119,04,134,*62
$GPGSA,A,3,05,12,15,20,21,25,29,31,,,,,2.1,0.9,1.9*3D
$GNGSA,A,3,05,12,15,20,21,25,29,31,,,,,2.1,0.9,1.9*23
$GNGSA,A,3,65,66,72,77,79,81,87,88,,,,,2.1,0.9,1.9*20
$QZGSA,A,3,,,,,,,,,,,,,2.1,0.9,1.9*2C
$IMGSA,A,3,,,,,,,,,,,,,2.1,0.9,1.9*23
$BDGSA,A,3,,,,,,,,,,,,,2.1,0.9,1.9*21
$GAGSA,A,3,102,104,109,111,112,124,125,,,,,,2.1,0.9,1.9*1D
$GPRMC,161203.00,A,2249.144642,S,04318.400926,W,000.0,028.0,140119,,,A*5B
$GPGGA,161204.00,2249.144633,S,04318.400905,W,1,23,0.2,15.2,M,-5.2,M,,*40
$GPGSV,3,1,11,25,62,008,36,29,52,156,33,21,47,254,39,20,33,336,32*77
$GPGSV,3,2,11,12,29,028,30,05,23,136,18,15,17,054,31,31,15,264,14*72
$GPGSV,3,3,11,26,12,219,,10,05,334,,13,03,085,*48
$GLGSV,2,1,08,65,38,106,24,88,34,167,22,66,31,029,27,79,27,231,37*63
$GLGSV,2,2,08,81,26,224,34,77,19,349,21,87,14,121,19,72,10,145,19*6A
$GAGSV,2,1,08,125,56,285,38,111,48,173,25,124,35,358,33,104,30,084,29*63
$GAGSV,2,2,08,109,25,025,25,102,22,227,30,112,16,121,17,119,04,134,*62
$GPGSA,A,3,05,12,15,20,21,25,29,31,,,,,1.8,0.8,1.6*39
$GNGSA,A,3,05,12,15,20,21,25,29,31,,,,,1.8,0.8,1.6*27
$GNGSA,A,3,65,66,72,77,79,81,87,88,,,,,1.8,0.8,1.6*24
$QZGSA,A,3,,,,,,,,,,,,,1.8,0.8,1.6*28
$IMGSA,A,3,,,,,,,,,,,,,1.8,0.8,1.6*27
$BDGSA,A,3,,,,,,,,,,,,,1.8,0.8,1.6*25
$GAGSA,A,3,102,104,109,111,112,124,125,,,,,,1.8,0.8,1.6*19
$GPRMC,161204.00,A,2249.144633,S,04318.400905,W,000.0,028.0,140119,,,A*5B
$GPGGA,161205.00,2249.144631,S,04318.400889,W,1,22,0.2,15.2,M,-5.2,M,,*47
$GPGSV,3,1,11,25,62,008,36,29,52,156,34,21,47,254,40,20,33,336,32*7E
$GPGSV,3,2,11,12,29,028,30,05,23,136,21,15,17,054,31,31,15,264,14*78
$GPGSV,3,3,11,26,12,219,,10,05,334,,13,03,085,*48
$GLGSV,2,1,08,65,38,106,26,88,34,167,22,66,31,029,27,79,27,231,38*6E
$GLGSV,2,2,08,81,26,224,34,77,19,349,23,87,14,121,19,72,10,145,18*69
$GAGSV,2,1,08,125,56,285,38,111,48,173,27,124,35,358,32,104,30,084,29*60
$GAGSV,2,2,08,109,25,025,25,102,22,227,30,112,16,121,17,119,04,134,*62
$GPGSA,A,3,05,12,15,20,21,25,29,,,,,,2.0,0.8,1.8*3E
$GNGSA,A,3,05,12,15,20,21,25,29,,,,,,2.0,0.8,1.8*20
$GNGSA,A,3,65,66,72,77,79,81,87,88,,,,,2.0,0.8,1.8*21
$QZGSA,A,3,,,,,,,,,,,,,2.0,0.8,1.8*2D
$IMGSA,A,3,,,,,,,,,,,,,2.0,0.8,1.8*22
$BDGSA,A,3,,,,,,,,,,,,,2.0,0.8,1.8*20
$GAGSA,A,3,102,104,109,111,112,124,125,,,,,,2.0,0.8,1.8*1C
$GPRMC,161205.00,A,2249.144631,S,04318.400889,W,000.1,028.0,140119,,,A*5C
$GPGGA,161206.00,2249.144626,S,04318.400844,W,1,22,0.2,15.2,M,-5.2,M,,*43
$GPGSV,3,1,11,25,62,008,36,29,52,156,39,21,47,254,40,20,33,336,33*72
$GPGSV,3,2,11,12,29,028,29,05,23,136,25,15,17,054,31,31,15,264,13*73
$GPGSV,3,3,11,26,12,219,,10,05,334,,13,03,085,*48
$GLGSV,2,1,08,65,38,106,28,88,34,167,22,66,31,029,27,79,27,231,38*60
$GLGSV,2,2,08,81,26,223,34,77,19,349,23,87,14,121,22,72,10,145,18*66
$GAGSV,2,1,08,125,56,285,38,111,48,173,31,124,34,358,32,104,30,084,30*6E
$GAGSV,2,2,08,109,25,025,25,102,22,227,30,112,16,121,17,119,04,134,*62
$GPGSA,A,3,05,12,15,20,21,25,29,,,,,,2.0,0.9,1.8*3F
$GNGSA,A,3,05,12,15,20,21,25,29,,,,,,2.0,0.9,1.8*21
$GNGSA,A,3,65,66,72,77,79,81,87,88,,,,,2.0,0.9,1.8*20
$QZGSA,A,3,,,,,,,,,,,,,2.0,0.9,1.8*2C
$IMGSA,A,3,,,,,,,,,,,,,2.0,0.9,1.8*23
$BDGSA,A,3,,,,,,,,,,,,,2.0,0.9,1.8*21
$GAGSA,A,3,102,104,109,111,112,124,125,,,,,,2.0,0.9,1.8*1D
$GPRMC,161206.00,A,2249.144626,S,04318.400844,W,000.1,028.0,140119,,,A*58
$GPGGA,161207.00,2249.144629,S,04318.400787,W,1,22,0.2,15.2,M,-5.2,M,,*4D
$GPGSV,3,1,11,25,62,008,36,29,52,156,39,21,47,254,40,20,33,336,33*72
$GPGSV,3,2,11,12,29,028,29,05,23,136,25,15,17,054,31,31,15,264,13*73
$GPGSV,3,3,11,26,12,219,,10,05,334,,13,03,085,*48
$GLGSV,2,1,08,65,38,106,28,88,34,167,27,66,31,029,27,79,27,231,37*6A
$GLGSV,2,2,08,81,26,223,34,77,19,349,23,87,14,121,24,72,10,145,19*61
$GAGSV,2,1,08,125,56,285,38,111,48,173,33,124,34,358,32,104,30,084,30*6C
$GAGSV,2,2,08,109,25,025,25,102,22,227,30,112,16,121,17,119,04,134,*62
$GPGSA,A,3,05,12,15,20,21,25,29,,,,,,2.5,1.1,2.2*3A
$GNGSA,A,3,05,12,15,20,21,25,29,,,,,,2.5,1.1,2.2*24
$GNGSA,A,3,65,66,72,77,79,81,87,88,,,,,2.5,1.1,2.2*25
$QZGSA,A,3,,,,,,,,,,,,,2.5,1.1,2.2*29
$IMGSA,A,3,,,,,,,,,,,,,2.5,1.1,2.2*26
$BDGSA,A,3,,,,,,,,,,,,,2.5,1.1,2.2*24
$GAGSA,A,3,102,104,109,111,112,124,125,,,,,,2.5,1.1,2.2*18
$GPRMC,161207.00,A,2249.144629,S,04318.400787,W,000.1,028.0,140119,,,A*56
$GPGGA,161208.00,2249.144611,S,04318.400748,W,1,22,0.2,15.2,M,-5.2,M,,*4A
$GPGSV,3,1,11,25,62,008,36,29,52,156,38,21,47,254,40,20,33,336,33*73
$GPGSV,3,2,11,12,29,028,29,05,23,136,25,15,17,054,31,31,15,264,13*73
$GPGSV,3,3,11,26,12,219,,10,05,334,,13,03,085,*48
$GLGSV,2,1,08,65,38,106,28,88,34,167,27,66,31,029,26,79,27,231,37*6B
$GLGSV,2,2,08,81,26,223,34,77,19,349,23,87,14,121,25,72,10,145,19*60
$GAGSV,2,1,08,125,56,285,38,111,48,173,33,124,34,358,32,104,30,084,30*6C
$GAGSV,2,2,08,109,25,025,25,102,22,227,30,112,16,121,17,119,04,134,*62
$GPGSA,A,3,05,12,15,20,21,25,29,,,,,,2.5,1.0,2.3*3A
$GNGSA,A,3,05,12,15,20,21,25,29,,,,,,2.5,1.0,2.3*24
$GNGSA,A,3,65,66,72,77,79,81,87,88,,,,,2.5,1.0,2.3*25
$QZGSA,A,3,,,,,,,,,,,,,2.5,1.0,2.3*29
$IMGSA,A,3,,,,,,,,,,,,,2.5,1.0,2.3*26
$BDGSA,A,3,,,,,,,,,,,,,2.5,1.0,2.3*24
$GAGSA,A,3,102,104,109,111,112,124,125,,,,,,2.5,1.0,2.3*18
$GPRMC,161208.00,A,2249.144611,S,04318.400748,W,000.0,028.0,140119,,,A*50
$GPGGA,161209.00,2249.144634,S,04318.400706,W,1,22,0.2,15.2,M,-5.2,M,,*46
$GPGSV,3,1,11,25,62,008,36,29,52,156,38,21,47,254,40,20,33,336,34*74
$GPGSV,3,2,11,12,29,028,29,05,23,136,24,15,17,054,31,31,15,264,13*72
$GPGSV,3,3,11,26,12,219,09,10,05,334,,13,03,085,*41
$GLGSV,2,1,08,65,38,107,29,88,34,167,27,66,31,029,26,79,27,231,37*6B
$GLGSV,2,2,08,81,26,223,34,77,19,349,23,87,14,121,25,72,10,145,19*60
$GAGSV,2,1,08,125,56,285,38,111,48,173,33,124,34,358,31,104,30,084,30*6F
$GAGSV,2,2,08,109,25,025,26,102,22,227,30,112,16,121,17,119,04,134,*61
$GPGSA,A,3,05,12,15,20,21,25,29,,,,,,2.0,0.8,1.8*3E
$GNGSA,A,3,05,12,15,20,21,25,29,,,,,,2.0,0.8,1.8*20
$GNGSA,A,3,65,66,72,77,79,81,87,88,,,,,2.0,0.8,1.8*21
$QZGSA,A,3,,,,,,,,,,,,,2.0,0.8,1.8*2D
$IMGSA,A,3,,,,,,,,,,,,,2.0,0.8,1.8*22
$BDGSA,A,3,,,,,,,,,,,,,2.0,0.8,1.8*20
$GAGSA,A,3,102,104,109,111,112,124,125,,,,,,2.0,0.8,1.8*1C
$GPRMC,161209.00,A,2249.144634,S,04318.400706,W,000.0,028.0,140119,,,A*5C
$GPGGA,161210.00,2249.144627,S,04318.400666,W,1,23,0.2,15.2,M,-5.2,M,,*4A
$GPGSV,3,1,11,25,62,008,36,29,52,156,38,21,47,254,40,20,33,336,34*74
$GPGSV,3,2,11,12,29,028,29,05,23,136,24,15,17,054,31,31,15,264,13*72
$GPGSV,3,3,11,26,12,219,09,10,05,334,,13,03,085,*41
$GLGSV,2,1,08,65,38,107,29,88,34,167,27,66,31,029,26,79,27,231,37*6B
$GLGSV,2,2,08,81,26,223,33,77,19,349,23,87,14,121,25,72,10,145,19*67
$GAGSV,2,1,08,125,56,285,38,111,48,173,33,124,34,358,31,104,30,084,30*6F
$GAGSV,2,2,08,109,25,025,26,102,22,227,29,112,16,121,17,119,04,134,*69
$GPGSA,A,3,05,12,15,20,21,25,29,31,,,,,1.9,0.8,1.7*39
$GNGSA,A,3,05,12,15,20,21,25,29,31,,,,,1.9,0.8,1.7*27
$GNGSA,A,3,65,66,72,77,79,81,87,88,,,,,1.9,0.8,1.7*24
$QZGSA,A,3,,,,,,,,,,,,,1.9,0.8,1.7*28
$IMGSA,A,3,,,,,,,,,,,,,1.9,0.8,1.7*27
$BDGSA,A,3,,,,,,,,,,,,,1.9,0.8,1.7*25
$GAGSA,A,3,102,104,109,111,112,124,125,,,,,,1.9,0.8,1.7*19
$GPRMC,161210.00,A,2249.144627,S,04318.400666,W,000.1,028.0,140119,,,A*50
$GPGGA,161211.00,2249.144611,S,04318.400620,W,1,23,0.2,15.2,M,-5.2,M,,*4C
$GPGSV,3,1,11,25,62,008,36,29,52,156,38,21,47,254,40,20,33,336,34*74
$GPGSV,3,2,11,12,29,028,29,05,23,136,25,15,17,054,31,31,15,264,12*72
$GPGSV,3,3,11,26,12,219,09,10,06,334,,13,03,085,*42
$GLGSV,2,1,08,65,38,107,29,88,34,167,27,66,31,029,26,79,27,231,37*6B
$GLGSV,2,2,08,81,26,223,33,77,19,349,23,87,14,121,25,72,10,145,18*66
$GAGSV,2,1,08,125,56,285,38,111,48,173,33,124,34,358,31,104,30,084,30*6F
$GAGSV,2,2,08,109,25,025,26,102,22,227,29,112,16,121,17,119,04,134,*69
$GPGSA,A,3,05,12,15,20,21,25,29,31,,,,,2.2,0.8,2.0*35
$GNGSA,A,3,05,12,15,20,21,25,29,31,,,,,2.2,0.8,2.0*2B
$GNGSA,A,3,65,66,72,77,79,81,87,88,,,,,2.2,0.8,2.0*28
$QZGSA,A,3,,,,,,,,,,,,,2.2,0.8,2.0*24
$IMGSA,A,3,,,,,,,,,,,,,2.2,0.8,2.0*2B
$BDGSA,A,3,,,,,,,,,,,,,2.2,0.8,2.0*29
$GAGSA,A,3,102,104,109,111,112,124,125,,,,,,2.2,0.8,2.0*15
$GPRMC,161211.00,A,2249.144611,S,04318.400620,W,000.3,028.0,140119,,,A*54
$GPGGA,161212.00,2249.144683,S,04318.400570,W,1,22,0.2,15.2,M,-5.2,M,,*43
$GPGSV,3,1,11,25,62,008,36,29,52,156,38,21,47,254,40,20,33,336,34*74
$GPGSV,3,2,11,12,29,028,29,05,23,136,25,15,17,054,31,31,15,264,12*72
$GPGSV,3,3,11,26,12,219,09,10,06,334,,13,03,085,*42
$GLGSV,2,1,08,65,38,107,29,88,34,167,27,66,31,029,26,79,27,231,37*6B
$GLGSV,2,2,08,81,26,223,33,77,19,349,23,87,14,121,25,72,10,145,18*66
$GAGSV,2,1,08,125,56,285,38,111,48,173,33,124,34,358,31,104,30,084,30*6F
$GAGSV,2,2,08,109,25,025,26,102,22,227,29,112,16,121,17,119,04,134,*69
$GPGSA,A,3,05,12,15,20,21,25,29,,,,,,2.0,0.8,1.9*3F
$GNGSA,A,3,05,12,15,20,21,25,29,,,,,,2.0,0.8,1.9*21
$GNGSA,A,3,65,66,72,77,79,81,87,88,,,,,2.0,0.8,1.9*20
$QZGSA,A,3,,,,,,,,,,,,,2.0,0.8,1.9*2C
$IMGSA,A,3,,,,,,,,,,,,,2.0,0.8,1.9*23
$BDGSA,A,3,,,,,,,,,,,,,2.0,0.8,1.9*21
$GAGSA,A,3,102,104,109,111,112,124,125,,,,,,2.0,0.8,1.9*1D
$GPRMC,161212.00,A,2249.144683,S,04318.400570,W,000.1,028.0,140119,,,A*58
$GPGGA,161213.00,2249.144690,S,04318.400554,W,1,22,0.2,15.2,M,-5.2,M,,*46
$GPGSV,3,1,11,25,62,008,35,29,52,156,38,21,47,254,40,20,33,336,34*77
$GPGSV,3,2,11,12,29,028,29,05,23,136,25,15,17,054,30,31,15,264,12*73
$GPGSV,3,3,11,26,12,219,,10,06,334,,13,03,085,*4B
$GLGSV,2,1,08,65,38,107,29,88,34,167,27,66,31,029,25,79,27,231,37*68
$GLGSV,2,2,08,81,26,223,33,77,19,349,23,87,14,121,24,72,10,145,18*67
$GAGSV,2,1,08,125,56,285,38,111,48,173,33,124,34,358,31,104,30,084,30*6F
$GAGSV,2,2,08,109,25,025,26,102,22,227,29,112,16,121,17,119,04,134,*69
$GPGSA,A,3,05,12,15,20,21,25,29,,,,,,2.0,0.8,1.8*3E
$GNGSA,A,3,05,12,15,20,21,25,29,,,,,,2.0,0.8,1.8*20
$GNGSA,A,3,65,66,72,77,79,81,87,88,,,,,2.0,0.8,1.8*21
$QZGSA,A,3,,,,,,,,,,,,,2.0,0.8,1.8*2D
$IMGSA,A,3,,,,,,,,,,,,,2.0,0.8,1.8*22
$BDGSA,A,3,,,,,,,,,,,,,2.0,0.8,1.8*20
$GAGSA,A,3,102,104,109,111,112,124,125,,,,,,2.0,0.8,1.8*1C
$GPRMC,161213.00,A,2249.144690,S,04318.400554,W,000.1,028.0,140119,,,A*5D
$GPGGA,161214.00,2249.144738,S,04318.400518,W,1,22,0.2,15.2,M,-5.2,M,,*4A
$GPGSV,3,1,11,25,62,008,35,29,52,156,38,21,47,254,40,20,33,336,34*77
$GPGSV,3,2,11,12,29,028,29,05,23,136,25,15,17,054,30,31,15,264,12*73
$GPGSV,3,3,11,26,12,219,10,10,06,334,,13,03,085,*4A
$GLGSV,2,1,08,65,38,107,29,88,34,167,27,66,31,029,25,79,27,231,37*68
$GLGSV,2,2,08,81,26,223,33,77,19,349,23,87,14,121,24,72,10,145,18*67
$GAGSV,2,1,08,125,56,285,38,111,48,173,33,124,34,358,30,104,30,084,30*6E
$GAGSV,2,2,08,109,25,025,26,102,22,227,29,112,16,121,17,119,04,134,*69
$GPGSA,A,3,05,12,15,20,21,25,29,,,,,,1.9,0.8,1.7*3B
$GNGSA,A,3,05,12,15,20,21,25,29,,,,,,1.9,0.8,1.7*25
$GNGSA,A,3,65,66,72,77,79,81,87,88,,,,,1.9,0.8,1.7*24
$QZGSA,A,3,,,,,,,,,,,,,1.9,0.8,1.7*28
$IMGSA,A,3,,,,,,,,,,,,,1.9,0.8,1.7*27
$BDGSA,A,3,,,,,,,,,,,,,1.9,0.8,1.7*25
$GAGSA,A,3,102,104,109,111,112,124,125,,,,,,1.9,0.8,1.7*19
$GPRMC,161214.00,A,2249.144738,S,04318.400518,W,000.0,028.0,140119,,,A*50
$GPGGA,161215.00,2249.144759,S,04318.400463,W,1,23,0.2,15.2,M,-5.2,M,,*40
$GPGSV,3,1,11,25,62,008,35,29,52,156,38,21,47,254,40,20,33,336,34*77
$GPGSV,3,2,11,12,29,028,29,05,23,136,25,15,17,054,30,31,15,264,13*72
$GPGSV,3,3,11,26,12,219,10,10,06,334,,13,03,085,*4A
$GLGSV,2,1,08,65,38,107,28,88,34,167,27,66,31,029,25,79,27,231,37*69
$GLGSV,2,2,08,81,26,223,33,77,19,349,23,87,14,121,23,72,10,145,18*60
$GAGSV,2,1,08,125,56,285,37,111,48,173,33,124,34,358,30,104,30,084,30*61
$GAGSV,2,2,08,109,25,025,26,102,22,227,29,112,16,121,17,119,04,134,*69
$GPGSA,A,3,05,12,15,20,21,25,29,31,,,,,2.4,0.7,2.3*3F
$GNGSA,A,3,05,12,15,20,21,25,29,31,,,,,2.4,0.7,2.3*21
$GNGSA,A,3,65,66,72,77,79,81,87,88,,,,,2.4,0.7,2.3*22
$QZGSA,A,3,,,,,,,,,,,,,2.4,0.7,2.3*2E
$IMGSA,A,3,,,,,,,,,,,,,2.4,0.7,2.3*21
$BDGSA,A,3,,,,,,,,,,,,,2.4,0.7,2.3*23
$GAGSA,A,3,102,104,109,111,112,124,125,,,,,,2.4,0.7,2.3*1F
$GPRMC,161215.00,A,2249.144759,S,04318.400463,W,000.1,028.0,140119,,,A*5A
$GPGGA,161216.00,2249.144730,S,04318.400417,W,1,23,0.3,15.2,M,-5.2,M,,*4E
$GPGSV,3,1,11,25,62,008,35,29,52,156,38,21,47,254,40,20,33,336,33*70
$GPGSV,3,2,11,12,29,028,29,05,23,136,25,15,17,054,30,31,14,264,13*73
$GPGSV,3,3,11,26,12,219,10,10,06,334,,13,03,085,*4A
$GLGSV,2,1,08,65,38,107,28,88,34,167,27,66,31,029,25,79,27,231,37*69
$GLGSV,2,2,08,81,26,223,33,77,19,349,23,87,14,121,23,72,10,145,18*60
$GAGSV,2,1,08,125,56,285,37,111,48,173,33,124,34,358,30,104,30,084,30*61
$GAGSV,2,2,08,109,25,025,26,102,22,227,29,112,16,121,17,119,04,134,*69
$GPGSA,A,3,05,12,15,20,21,25,29,31,,,,,2.1,0.8,2.0*36
$GNGSA,A,3,05,12,15,20,21,25,29,31,,,,,2.1,0.8,2.0*28
$GNGSA,A,3,65,66,72,77,79,81,87,88,,,,,2.1,0.8,2.0*2B
$QZGSA,A,3,,,,,,,,,,,,,2.1,0.8,2.0*27
$IMGSA,A,3,,,,,,,,,,,,,2.1,0.8,2.0*28
$BDGSA,A,3,,,,,,,,,,,,,2.1,0.8,2.0*2A
$GAGSA,A,3,102,104,109,111,112,124,125,,,,,,2.1,0.8,2.0*16
$GPRMC,161216.00,A,2249.144730,S,04318.400417,W,000.0,028.0,140119,,,A*54
$GPGGA,161217.00,2249.144792,S,04318.400384,W,1,23,0.3,15.2,M,-5.2,M,,*4A
$GPGSV,3,1,11,25,62,008,35,29,52,156,38,21,47,254,40,20,33,336,33*70
$GPGSV,3,2,11,12,29,028,29,05,23,136,25,15,17,054,31,31,14,264,13*72
$GPGSV,3,3,11,26,12,219,11,10,06,334,,13,03,085,*4B
$GLGSV,2,1,08,65,38,107,28,88,34,167,28,66,31,029,26,79,27,231,37*65
$GLGSV,2,2,08,81,26,223,33,77,19,349,23,87,14,121,22,72,10,145,20*6A
$GAGSV,2,1,08,125,56,285,37,111,48,173,33,124,34,358,30,104,30,084,30*61
$GAGSV,2,2,08,109,25,025,26,102,22,227,29,112,16,121,17,119,04,134,*69
$GPGSA,A,3,05,12,15,20,21,25,29,31,,,,,1.6,0.7,1.5*3B
$GNGSA,A,3,05,12,15,20,21,25,29,31,,,,,1.6,0.7,1.5*25
$GNGSA,A,3,65,66,72,77,79,81,87,88,,,,,1.6,0.7,1.5*26
$QZGSA,A,3,,,,,,,,,,,,,1.6,0.7,1.5*2A
$IMGSA,A,3,,,,,,,,,,,,,1.6,0.7,1.5*25
$BDGSA,A,3,,,,,,,,,,,,,1.6,0.7,1.5*27
$GAGSA,A,3,102,104,109,111,112,124,125,,,,,,1.6,0.7,1.5*1B
$GPRMC,161217.00,A,2249.144792,S,04318.400384,W,000.1,028.0,140119,,,A*51
$GPGGA,161218.00,2249.144856,S,04318.400338,W,1,23,0.3,15.2,M,-5.2,M,,*45
$GPGSV,3,1,11,25,62,008,35,29,52,156,38,21,47,254,40,20,33,336,33*70
$GPGSV,3,2,11,12,29,028,30,05,23,136,24,15,17,054,31,31,14,264,13*7B
$GPGSV,3,3,11,26,12,219,12,10,06,334,,13,03,085,*48
$GLGSV,2,1,08,65,38,107,28,88,34,167,28,66,31,029,25,79,27,231,37*66
$GLGSV,2,2,08,81,26,223,33,77,19,349,22,87,14,121,21,72,10,145,19*62
$GAGSV,2,1,08,125,56,285,37,111,48,173,33,124,34,358,30,104,30,084,30*61
$GAGSV,2,2,08,109,25,025,26,102,22,227,29,112,16,121,17,119,04,134,*69
$GPGSA,A,3,05,12,15,20,21,25,29,31,,,,,1.8,0.8,1.7*38
$GNGSA,A,3,05,12,15,20,21,25,29,31,,,,,1.8,0.8,1.7*26
$GNGSA,A,3,65,66,72,77,79,81,87,88,,,,,1.8,0.8,1.7*25
$QZGSA,A,3,,,,,,,,,,,,,1.8,0.8,1.7*29
$IMGSA,A,3,,,,,,,,,,,,,1.8,0.8,1.7*26
$BDGSA,A,3,,,,,,,,,,,,,1.8,0.8,1.7*24
$GAGSA,A,3,102,104,109,111,112,124,125,,,,,,1.8,0.8,1.7*18
$GPRMC,161218.00,A,2249.144856,S,04318.400338,W,000.0,028.0,140119,,,A*5F
$GPGGA,161219.00,2249.144894,S,04318.400317,W,1,24,0.3,15.2,M,-5.2,M,,*40
$GPGSV,3,1,11,25,62,008,35,29,52,156,38,21,47,254,40,20,33,336,33*70
$GPGSV,3,2,11,12,29,028,30,05,23,136,24,15,17,054,31,31,14,264,14*7C
$GPGSV,3,3,11,26,12,219,12,10,06,334,,13,03,085,*48
$GLGSV,2,1,08,65,38,107,28,88,34,167,28,66,31,029,25,79,27,231,37*66
$GLGSV,2,2,08,81,26,223,33,77,19,349,22,87,14,121,20,72,10,145,19*63
$GAGSV,2,1,08,125,56,285,37,111,48,173,33,124,34,358,30,104,30,084,30*61
$GAGSV,2,2,08,109,25,025,26,102,22,227,29,112,16,121,17,119,04,134,*69
$GPGSA,A,3,05,12,15,20,21,25,26,29,31,,,,2.0,0.8,1.8*38
$GNGSA,A,3,05,12,15,20,21,25,26,29,31,,,,2.0,0.8,1.8*26
$GNGSA,A,3,65,66,72,77,79,81,87,88,,,,,2.0,0.8,1.8*21
$QZGSA,A,3,,,,,,,,,,,,,2.0,0.8,1.8*2D
$IMGSA,A,3,,,,,,,,,,,,,2.0,0.8,1.8*22
$BDGSA,A,3,,,,,,,,,,,,,2.0,0.8,1.8*20
$GAGSA,A,3,102,104,109,111,112,124,125,,,,,,2.0,0.8,1.8*1C
$GPRMC,161219.00,A,2249.144894,S,04318.400317,W,000.1,028.0,140119,,,A*5C
$GPGGA,161220.00,2249.144933,S,04318.400259,W,1,23,0.2,15.2,M,-5.2,M,,*4B
$GPGSV,3,1,11,25,62,008,35,29,52,156,38,21,47,254,40,20,33,336,33*70
$GPGSV,3,2,11,12,29,028,30,05,23,136,24,15,17,054,31,31,14,264,15*7D
$GPGSV,3,3,11,26,12,219,12,10,06,334,,13,03,085,*48
$GLGSV,2,1,08,65,38,107,28,88,34,167,28,66,31,029,25,79,27,231,37*66
$GLGSV,2,2,08,81,26,223,33,77,19,349,22,87,14,121,20,72,10,145,19*63
$GAGSV,2,1,08,125,56,285,37,111,48,173,33,124,34,358,30,104,30,084,30*61
$GAGSV,2,2,08,109,25,025,27,102,22,227,29,112,16,121,17,119,04,134,*68
$GPGSA,A,3,05,12,15,20,21,25,29,31,,,,,2.0,0.8,1.9*3D
$GNGSA,A,3,05,12,15,20,21,25,29,31,,,,,2.0,0.8,1.9*23
$GNGSA,A,3,65,66,72,77,79,81,87,88,,,,,2.0,0.8,1.9*20
$QZGSA,A,3,,,,,,,,,,,,,2.0,0.8,1.9*2C
$IMGSA,A,3,,,,,,,,,,,,,2.0,0.8,1.9*23
$BDGSA,A,3,,,,,,,,,,,,,2.0,0.8,1.9*21
$GAGSA,A,3,102,104,109,111,112,124,125,,,,,,2.0,0.8,1.9*1D
$GPRMC,161220.00,A,2249.144933,S,04318.400259,W,000.1,028.0,140119,,,A*51
$GPGGA,161221.00,2249.144960,S,04318.400222,W,1,23,0.2,15.2,M,-5.2,M,,*40
$GPGSV,3,1,11,25,62,008,35,29,52,156,38,21,47,254,40,20,33,336,33*70
$GPGSV,3,2,11,12,29,028,30,05,23,136,24,15,17,054,31,31,14,264,16*7E
$GPGSV,3,3,11,26,12,219,12,10,06,334,,13,03,085,*48
$GLGSV,2,1,08,65,38,107,28,88,34,167,28,66,31,029,26,79,27,231,37*65
$GLGSV,2,2,08,81,26,223,33,77,19,349,23,87,14,121,19,72,10,145,19*68
$GAGSV,2,1,08,125,56,285,37,111,48,173,33,124,34,358,30,104,30,084,30*61
$GAGSV,2,2,08,109,25,025,27,102,23,227,29,112,16,121,16,119,04,134,*68
$GPGSA,A,3,05,12,15,20,21,25,29,31,,,,,2.0,0.8,1.8*3C
$GNGSA,A,3,05,12,15,20,21,25,29,31,,,,,2.0,0.8,1.8*22
$GNGSA,A,3,65,66,72,77,79,81,87,88,,,,,2.0,0.8,1.8*21
$QZGSA,A,3,,,,,,,,,,,,,2.0,0.8,1.8*2D
$IMGSA,A,3,,,,,,,,,,,,,2.0,0.8,1.8*22
$BDGSA,A,3,,,,,,,,,,,,,2.0,0.8,1.8*20
$GAGSA,A,3,102,104,109,111,112,124,125,,,,,,2.0,0.8,1.8*1C
$GPRMC,161221.00,A,2249.144960,S,04318.400222,W,000.1,028.0,140119,,,A*5A
$GPGGA,161222.00,2249.144998,S,04318.400177,W,1,23,0.2,15.2,M,-5.2,M,,*47
$GPGSV,3,1,11,25,62,008,35,29,52,156,38,21,47,254,40,20,33,336,33*70
$GPGSV,3,2,11,12,29,028,30,05,23,136,24,15,17,054,31,31,14,264,16*7E
$GPGSV,3,3,11,26,12,219,12,10,06,334,,13,03,085,*48
$GLGSV,2,1,08,65,38,107,28,88,34,167,28,66,31,029,26,79,27,231,37*65
$GLGSV,2,2,08,81,26,223,33,77,18,349,23,87,14,121,19,72,10,145,19*69
$GAGSV,2,1,08,125,56,285,37,111,48,173,33,124,34,358,30,104,30,084,30*61
$GAGSV,2,2,08,109,25,025,27,102,23,227,29,112,16,121,16,119,04,134,*68
$GPGSA,A,3,05,12,15,20,21,25,29,31,,,,,1.7,0.8,1.5*35
$GNGSA,A,3,05,12,15,20,21,25,29,31,,,,,1.7,0.8,1.5*2B
$GNGSA,A,3,65,66,72,77,79,81,87,88,,,,,1.7,0.8,1.5*28
$QZGSA,A,3,,,,,,,,,,,,,1.7,0.8,1.5*24
$IMGSA,A,3,,,,,,,,,,,,,1.7,0.8,1.5*2B
$BDGSA,A,3,,,,,,,,,,,,,1.7,0.8,1.5*29
$GAGSA,A,3,102,104,109,111,112,124,125,,,,,,1.7,0.8,1.5*15
$GPRMC,161222.00,A,2249.144998,S,04318.400177,W,000.2,028.0,140119,,,A*5E
$GPGGA,161223.00,2249.145012,S,04318.400109,W,1,24,0.2,15.2,M,-5.2,M,,*42
$GPGSV,3,1,11,25,62,008,35,29,52,155,38,21,47,254,40,20,33,336,33*73
$GPGSV,3,2,11,12,29,028,30,05,23,136,23,15,17,054,31,31,14,264,16*79
$GPGSV,3,3,11,26,12,219,12,10,06,334,,13,03,085,*48
$GLGSV,2,1,08,65,38,107,27,88,34,167,28,66,31,029,26,79,27,231,37*6A
$GLGSV,2,2,08,81,26,223,32,77,18,349,22,87,14,121,18,72,10,145,19*68
$GAGSV,2,1,08,125,56,285,37,111,48,173,33,124,34,358,30,104,30,084,30*61
$GAGSV,2,2,08,109,25,025,27,102,23,227,29,112,16,121,16,119,04,134,*68
$GPGSA,A,3,05,12,15,20,21,25,26,29,31,,,,2.0,0.7,1.8*37
$GNGSA,A,3,05,12,15,20,21,25,26,29,31,,,,2.0,0.7,1.8*29
$GNGSA,A,3,65,66,72,77,79,81,87,88,,,,,2.0,0.7,1.8*2E
$QZGSA,A,3,,,,,,,,,,,,,2.0,0.7,1.8*22
$IMGSA,A,3,,,,,,,,,,,,,2.0,0.7,1.8*2D
$BDGSA,A,3,,,,,,,,,,,,,2.0,0.7,1.8*2F
$GAGSA,A,3,102,104,109,111,112,124,125,,,,,,2.0,0.7,1.8*13
$GPRMC,161223.00,A,2249.145012,S,04318.400109,W,000.1,028.0,140119,,,A*5F
$GPGGA,161224.00,2249.145007,S,04318.400047,W,1,24,0.2,15.2,M,-5.2,M,,*4A
$GPGSV,3,1,11,25,62,008,35,29,52,155,38,21,47,254,40,20,33,336,33*73
$GPGSV,3,2,11,12,29,028,30,05,23,136,23,15,17,054,31,31,14,264,16*79
$GPGSV,3,3,11,26,12,219,13,10,06,334,,13,03,085,*49
$GLGSV,2,1,08,65,38,107,27,88,34,167,28,66,31,029,27,79,27,231,37*6B
$GLGSV,2,2,08,81,26,223,32,77,18,349,22,87,14,121,18,72,10,145,20*62
$GAGSV,2,1,08,125,56,285,37,111,48,173,33,124,34,358,30,104,30,084,30*61
$GAGSV,2,2,08,109,25,025,27,102,23,227,29,112,16,121,16,119,04,134,*68
$GPGSA,A,3,05,12,15,20,21,25,26,29,31,,,,2.4,0.8,2.3*34
$GNGSA,A,3,05,12,15,20,21,25,26,29,31,,,,2.4,0.8,2.3*2A
$GNGSA,A,3,65,66,72,77,79,81,87,88,,,,,2.4,0.8,2.3*2D
$QZGSA,A,3,,,,,,,,,,,,,2.4,0.8,2.3*21
$IMGSA,A,3,,,,,,,,,,,,,2.4,0.8,2.3*2E
$BDGSA,A,3,,,,,,,,,,,,,2.4,0.8,2.3*2C
$GAGSA,A,3,102,104,109,111,112,124,125,,,,,,2.4,0.8,2.3*10
$GPRMC,161224.00,A,2249.145007,S,04318.400047,W,000.0,028.0,140119,,,A*56
$GPGGA,161225.00,2249.145025,S,04318.399994,W,1,24,0.2,15.2,M,-5.2,M,,*4B
$GPGSV,3,1,11,25,62,008,35,29,52,155,38,21,47,254,40,20,33,336,33*73
$GPGSV,3,2,11,12,29,028,29,05,23,136,23,15,17,054,31,31,14,264,16*71
$GPGSV,3,3,11,26,12,219,14,10,06,334,,13,03,085,*4E
$GLGSV,2,1,08,65,38,107,27,88,34,167,28,66,31,029,27,79,27,231,37*6B
$GLGSV,2,2,08,81,26,223,33,77,18,349,23,87,14,121,18,72,10,145,20*62
$GAGSV,2,1,08,125,56,285,37,111,48,173,33,124,34,358,30,104,30,084,30*61
$GAGSV,2,2,08,109,25,025,26,102,23,227,28,112,16,121,16,119,04,134,*68
$GPGSA,A,3,05,12,15,20,21,25,26,29,31,,,,2.0,0.9,1.8*39
$GNGSA,A,3,05,12,15,20,21,25,26,29,31,,,,2.0,0.9,1.8*27
$GNGSA,A,3,65,66,72,77,79,81,87,88,,,,,2.0,0.9,1.8*20
$QZGSA,A,3,,,,,,,,,,,,,2.0,0.9,1.8*2C
$IMGSA,A,3,,,,,,,,,,,,,2.0,0.9,1.8*23
$BDGSA,A,3,,,,,,,,,,,,,2.0,0.9,1.8*21
$GAGSA,A,3,102,104,109,111,112,124,125,,,,,,2.0,0.9,1.8*1D
$GPRMC,161225.00,A,2249.145025,S,04318.399994,W,000.0,028.0,140119,,,A*57
$GPGGA,161226.00,2249.145053,S,04318.399980,W,1,24,0.2,15.2,M,-5.2,M,,*4C
$GPGSV,3,1,11,25,62,008,35,29,52,155,38,21,47,254,40,20,33,336,33*73
$GPGSV,3,2,11,12,29,028,29,05,23,136,23,15,17,054,31,31,14,264,16*71
$GPGSV,3,3,11,26,12,219,14,10,06,334,,13,03,085,*4E
$GLGSV,2,1,08,65,38,107,28,88,34,167,28,66,31,029,27,79,27,231,37*64
$GLGSV,2,2,08,81,26,223,33,77,18,349,23,87,14,121,17,72,10,145,20*6D
$GAGSV,2,1,08,125,56,285,37,111,48,173,33,124,34,358,30,104,30,084,30*61
$GAGSV,2,2,08,109,25,025,26,102,23,227,28,112,16,121,16,119,04,134,*68
$GPGSA,A,3,05,12,15,20,21,25,26,29,31,,,,2.0,0.8,1.9*39
$GNGSA,A,3,05,12,15,20,21,25,26,29,31,,,,2.0,0.8,1.9*27
$GNGSA,A,3,65,66,72,77,79,81,87,88,,,,,2.0,0.8,1.9*20
$QZGSA,A,3,,,,,,,,,,,,,2.0,0.8,1.9*2C
$IMGSA,A,3,,,,,,,,,,,,,2.0,0.8,1.9*23
$BDGSA,A,3,,,,,,,,,,,,,2.0,0.8,1.9*21
$GAGSA,A,3,102,104,109,111,112,124,125,,,,,,2.0,0.8,1.9*1D
$GPRMC,161226.00,A,2249.145053,S,04318.399980,W,000.0,028.0,140119,,,A*50
$GPGGA,161227.00,2249.145050,S,04318.399902,W,1,24,0.2,15.2,M,-5.2,M,,*44
$GPGSV,3,1,11,25,62,008,35,29,52,155,38,21,47,254,40,20,33,336,33*73
$GPGSV,3,2,11,12,29,028,29,05,23,136,22,15,17,054,30,31,14,264,15*72
$GPGSV,3,3,11,26,12,219,14,10,06,334,,13,03,085,*4E
$GLGSV,2,1,08,65,38,107,28,88,34,167,28,66,31,029,27,79,27,231,37*64
$GLGSV,2,2,08,81,26,223,33,77,18,349,23,87,14,121,17,72,10,145,20*6D
$GAGSV,2,1,08,125,56,285,37,111,48,173,33,124,34,358,30,104,30,084,30*61
$GAGSV,2,2,08,109,25,025,26,102,23,227,28,112,16,121,16,119,04,134,*68
$GPGSA,A,3,05,12,15,20,21,25,26,29,31,,,,2.1,0.8,1.9*38
$GNGSA,A,3,05,12,15,20,21,25,26,29,31,,,,2.1,0.8,1.9*26
$GNGSA,A,3,65,66,72,77,79,81,87,88,,,,,2.1,0.8,1.9*21
$QZGSA,A,3,,,,,,,,,,,,,2.1,0.8,1.9*2D
$IMGSA,A,3,,,,,,,,,,,,,2.1,0.8,1.9*22
$BDGSA,A,3,,,,,,,,,,,,,2.1,0.8,1.9*20
$GAGSA,A,3,102,104,109,111,112,124,125,,,,,,2.1,0.8,1.9*1C
$GPRMC,161227.00,A,2249.145050,S,04318.399902,W,000.1,028.0,140119,,,A*59
$GPGGA,161228.00,2249.145031,S,04318.399833,W,1,24,0.2,15.2,M,-5.2,M,,*4F
$GPGSV,3,1,11,25,62,008,35,29,52,155,38,21,47,254,40,20,33,336,33*73
$GPGSV,3,2,11,12,29,028,29,05,23,136,22,15,17,054,30,31,14,264,15*72
$GPGSV,3,3,11,26,12,219,15,10,06,334,,13,03,085,*4F
$GLGSV,2,1,08,65,38,107,28,88,34,167,27,66,31,029,27,79,28,231,37*64
$GLGSV,2,2,08,81,26,223,33,77,18,349,23,87,14,121,17,72,10,145,20*6D
$GAGSV,2,1,08,125,56,285,37,111,48,173,33,124,34,358,30,104,30,084,30*61
$GAGSV,2,2,08,109,25,025,26,102,23,227,28,112,16,121,16,119,04,134,*68
$GPGSA,A,3,05,12,15,20,21,25,26,29,31,,,,2.2,0.8,2.1*30
$GNGSA,A,3,05,12,15,20,21,25,26,29,31,,,,2.2,0.8,2.1*2E
$GNGSA,A,3,65,66,72,77,79,81,87,88,,,,,2.2,0.8,2.1*29
$QZGSA,A,3,,,,,,,,,,,,,2.2,0.8,2.1*25
$IMGSA,A,3,,,,,,,,,,,,,2.2,0.8,2.1*2A
$BDGSA,A,3,,,,,,,,,,,,,2.2,0.8,2.1*28
$GAGSA,A,3,102,104,109,111,112,124,125,,,,,,2.2,0.8,2.1*14
$GPRMC,161228.00,A,2249.145031,S,04318.399833,W,000.1,028.0,140119,,,A*52
$GPGGA,161229.00,2249.145010,S,04318.399803,W,1,24,0.2,15.2,M,-5.2,M,,*4E
$GPGSV,3,1,11,25,62,008,35,29,52,155,38,21,47,254,40,20,33,336,33*73
$GPGSV,3,2,11,12,29,028,28,05,23,136,21,15,17,054,31,31,14,264,15*71
$GPGSV,3,3,11,26,12,219,15,10,06,334,,13,03,085,*4F
$GLGSV,2,1,08,65,38,107,28,88,34,167,27,66,31,029,27,79,28,231,37*64
$GLGSV,2,2,08,81,26,223,33,77,18,349,23,87,14,121,17,72,10,145,20*6D
$GAGSV,2,1,08,125,56,285,37,111,48,173,33,124,34,358,30,104,30,084,30*61
$GAGSV,2,2,08,109,25,025,26,102,23,227,28,112,16,121,16,119,04,134,*68
$GPGSA,A,3,05,12,15,20,21,25,26,29,31,,,,2.2,0.8,2.1*30
$GNGSA,A,3,05,12,15,20,21,25,26,29,31,,,,2.2,0.8,2.1*2E
$GNGSA,A,3,65,66,72,77,79,81,87,88,,,,,2.2,0.8,2.1*29
$QZGSA,A,3,,,,,,,,,,,,,2.2,0.8,2.1*25
$IMGSA,A,3,,,,,,,,,,,,,2.2,0.8,2.1*2A
$BDGSA,A,3,,,,,,,,,,,,,2.2,0.8,2.1*28
$GAGSA,A,3,102,104,109,111,112,124,125,,,,,,2.2,0.8,2.1*14
$GPRMC,161229.00,A,2249.145010,S,04318.399803,W,000.1,028.0,140119,,,A*53
$GPGGA,161230.00,2249.144982,S,04318.399757,W,1,23,0.2,15.2,M,-5.2,M,,*4C
$GPGSV,3,1,11,25,62,008,35,29,52,155,38,21,47,254,40,20,33,336,33*73
$GPGSV,3,2,11,12,29,028,28,05,23,136,21,15,17,054,32,31,14,264,15*72
$GPGSV,3,3,11,26,12,219,17,10,06,334,,13,03,085,*4D
$GLGSV,2,1,08,65,38,107,28,88,34,167,27,66,31,029,27,79,28,231,37*64
$GLGSV,2,2,08,81,26,223,33,77,18,349,23,87,14,121,16,72,10,145,20*6C
$GAGSV,2,1,08,125,56,285,37,111,48,173,33,124,34,358,30,104,30,084,30*61
$GAGSV,2,2,08,109,25,025,26,102,23,227,28,112,16,121,16,119,04,134,*68
$GPGSA,A,3,05,12,15,20,21,25,26,29,31,,,,2.2,0.8,2.1*30
$GNGSA,A,3,05,12,15,20,21,25,26,29,31,,,,2.2,0.8,2.1*2E
$GNGSA,A,3,65,66,72,77,79,81,88,,,,,,2.2,0.8,2.1*26
$QZGSA,A,3,,,,,,,,,,,,,2.2,0.8,2.1*25
$IMGSA,A,3,,,,,,,,,,,,,2.2,0.8,2.1*2A
$BDGSA,A,3,,,,,,,,,,,,,2.2,0.8,2.1*28
$GAGSA,A,3,102,104,109,111,112,124,125,,,,,,2.2,0.8,2.1*14
$GPRMC,161230.00,A,2249.144982,S,04318.399757,W,000.1,028.0,140119,,,A*56
$GPGGA,161231.00,2249.144954,S,04318.399734,W,1,23,0.2,15.2,M,-5.2,M,,*43
$GPGSV,3,1,11,25,62,008,35,29,52,155,38,21,47,254,40,20,33,336,33*73
$GPGSV,3,2,11,12,29,028,28,05,23,136,20,15,17,054,32,31,14,264,15*73
$GPGSV,3,3,11,26,12,219,17,10,06,334,,13,03,085,*4D
$GLGSV,2,1,08,65,38,107,28,88,34,167,27,66,31,029,27,79,28,231,37*64
$GLGSV,2,2,08,81,26,223,33,77,18,349,23,87,14,121,16,72,10,145,20*6C
$GAGSV,2,1,08,125,56,285,37,111,48,173,33,124,34,358,30,104,30,084,30*61
$GAGSV,2,2,08,109,25,025,25,102,23,227,28,112,16,121,16,119,04,134,*6B
$GPGSA,A,3,05,12,15,20,21,25,26,29,31,,,,2.0,0.8,1.9*39
$GNGSA,A,3,05,12,15,20,21,25,26,29,31,,,,2.0,0.8,1.9*27
$GNGSA,A,3,65,66,72,77,79,81,88,,,,,,2.0,0.8,1.9*2F
$QZGSA,A,3,,,,,,,,,,,,,2.0,0.8,1.9*2C
$IMGSA,A,3,,,,,,,,,,,,,2.0,0.8,1.9*23
$BDGSA,A,3,,,,,,,,,,,,,2.0,0.8,1.9*21
$GAGSA,A,3,102,104,109,111,112,124,125,,,,,,2.0,0.8,1.9*1D
$GPRMC,161231.00,A,2249.144954,S,04318.399734,W,000.0,028.0,140119,,,A*58
$GPGGA,161232.00,2249.144923,S,04318.399689,W,1,22,0.2,15.2,M,-5.2,M,,*46
$GPGSV,3,1,11,25,62,008,35,29,52,155,38,21,47,254,40,20,33,336,32*72
$GPGSV,3,2,11,12,29,028,28,05,23,136,20,15,17,054,31,31,14,264,14*71
$GPGSV,3,3,11,26,12,219,17,10,06,334,,13,03,085,*4D
$GLGSV,2,1,08,65,38,107,28,88,34,167,27,66,31,029,27,79,28,231,37*64
$GLGSV,2,2,08,81,26,223,33,77,18,349,22,87,14,121,15,72,10,145,20*6E
$GAGSV,2,1,08,125,56,285,37,111,48,173,33,124,34,358,30,104,30,084,30*61
$GAGSV,2,2,08,109,25,025,25,102,23,227,28,112,16,121,16,119,04,134,*6B
$GPGSA,A,3,05,12,15,20,21,25,26,29,,,,,2.1,0.8,1.9*3A
$GNGSA,A,3,05,12,15,20,21,25,26,29,,,,,2.1,0.8,1.9*24
$GNGSA,A,3,65,66,72,77,79,81,88,,,,,,2.1,0.8,1.9*2E
$QZGSA,A,3,,,,,,,,,,,,,2.1,0.8,1.9*2D
$IMGSA,A,3,,,,,,,,,,,,,2.1,0.8,1.9*22
$BDGSA,A,3,,,,,,,,,,,,,2.1,0.8,1.9*20
$GAGSA,A,3,102,104,109,111,112,124,125,,,,,,2.1,0.8,1.9*1C
$GPRMC,161232.00,A,2249.144923,S,04318.399689,W,000.1,028.0,140119,,,A*5D
$GPGGA,161233.00,2249.144907,S,04318.399643,W,1,24,0.2,15.2,M,-5.2,M,,*41
$GPGSV,3,1,11,25,62,008,35,29,52,155,38,21,47,254,40,20,33,336,32*72
$GPGSV,3,2,11,12,29,028,28,05,23,136,20,15,17,054,31,31,14,264,14*71
$GPGSV,3,3,11,26,12,219,17,10,06,334,,13,03,085,*4D
$GLGSV,2,1,08,65,38,107,28,88,34,167,27,66,31,029,27,79,28,231,37*64
$GLGSV,2,2,08,81,26,223,33,77,18,349,22,87,14,121,15,72,10,145,20*6E
$GAGSV,2,1,08,125,56,285,37,111,48,173,33,124,34,358,30,104,30,084,30*61
$GAGSV,2,2,08,109,25,025,25,102,23,227,28,112,16,121,16,119,04,134,*6B
$GPGSA,A,3,05,12,15,20,21,25,26,29,31,,,,2.3,0.8,2.2*32
$GNGSA,A,3,05,12,15,20,21,25,26,29,31,,,,2.3,0.8,2.2*2C
$GNGSA,A,3,65,66,72,77,79,81,87,88,,,,,2.3,0.8,2.2*2B
$QZGSA,A,3,,,,,,,,,,,,,2.3,0.8,2.2*27
$IMGSA,A,3,,,,,,,,,,,,,2.3,0.8,2.2*28
$BDGSA,A,3,,,,,,,,,,,,,2.3,0.8,2.2*2A
$GAGSA,A,3,102,104,109,111,112,124,125,,,,,,2.3,0.8,2.2*16
$GPRMC,161233.00,A,2249.144907,S,04318.399643,W,000.0,028.0,140119,,,A*5D
$GPGGA,161234.00,2249.144915,S,04318.399630,W,1,23,0.2,15.2,M,-5.2,M,,*46
$GPGSV,3,1,11,25,62,008,35,29,52,155,38,21,47,254,40,20,33,336,32*72
$GPGSV,3,2,11,12,29,028,28,05,23,136,20,15,17,054,31,31,14,264,14*71
$GPGSV,3,3,11,26,12,219,17,10,06,334,,13,03,085,*4D
$GLGSV,2,1,08,65,38,107,28,88,34,167,27,66,31,029,27,79,28,231,37*64
$GLGSV,2,2,08,81,26,223,33,77,18,349,22,87,14,121,15,72,10,145,21*6F
$GAGSV,2,1,08,125,56,285,37,111,48,173,33,124,34,358,30,104,30,084,30*61
$GAGSV,2,2,08,109,25,025,25,102,23,227,28,112,16,121,15,119,04,134,*68
$GPGSA,A,3,05,12,15,20,21,25,26,29,31,,,,1.9,0.8,1.7*3D
$GNGSA,A,3,05,12,15,20,21,25,26,29,31,,,,1.9,0.8,1.7*23
$GNGSA,A,3,65,66,72,77,79,81,88,,,,,,1.9,0.8,1.7*2B
$QZGSA,A,3,,,,,,,,,,,,,1.9,0.8,1.7*28
$IMGSA,A,3,,,,,,,,,,,,,1.9,0.8,1.7*27
$BDGSA,A,3,,,,,,,,,,,,,1.9,0.8,1.7*25
$GAGSA,A,3,102,104,109,111,112,124,125,,,,,,1.9,0.8,1.7*19
$GPRMC,161234.00,A,2249.144915,S,04318.399630,W,000.1,028.0,140119,,,A*5C
$GPGGA,161235.00,2249.144892,S,04318.399597,W,1,24,0.2,15.2,M,-5.2,M,,*40
$GPGSV,3,1,11,25,62,008,35,29,52,155,38,21,47,254,40,20,33,336,32*72
$GPGSV,3,2,11,12,29,028,28,05,23,136,20,15,17,054,31,31,14,264,14*71
$GPGSV,3,3,11,26,12,219,17,10,06,334,,13,03,085,*4D
$GLGSV,2,1,08,65,38,107,28,88,34,167,27,66,31,029,27,79,28,231,37*64
$GLGSV,2,2,08,81,26,223,33,77,18,349,22,87,14,121,14,72,10,145,21*6E
$GAGSV,2,1,08,125,56,285,37,111,48,173,33,124,34,358,30,104,30,084,29*69
$GAGSV,2,2,08,109,25,025,25,102,23,227,28,112,16,121,15,119,04,134,*68
$GPGSA,A,3,05,12,15,20,21,25,26,29,31,,,,1.6,0.8,1.4*31
$GNGSA,A,3,05,12,15,20,21,25,26,29,31,,,,1.6,0.8,1.4*2F
$GNGSA,A,3,65,66,72,77,79,81,87,88,,,,,1.6,0.8,1.4*28
$QZGSA,A,3,,,,,,,,,,,,,1.6,0.8,1.4*24
$IMGSA,A,3,,,,,,,,,,,,,1.6,0.8,1.4*2B
$BDGSA,A,3,,,,,,,,,,,,,1.6,0.8,1.4*29
$GAGSA,A,3,102,104,109,111,112,124,125,,,,,,1.6,0.8,1.4*15
$GPRMC,161235.00,A,2249.144892,S,04318.399597,W,000.1,028.0,140119,,,A*5D
$GPGGA,161236.00,2249.144866,S,04318.399567,W,1,24,0.2,15.2,M,-5.2,M,,*47
$GPGSV,3,1,11,25,62,008,35,29,52,155,38,21,47,254,40,20,33,336,32*72
$GPGSV,3,2,11,12,29,028,28,05,23,136,20,15,17,054,31,31,14,264,14*71
$GPGSV,3,3,11,26,12,219,17,10,06,334,,13,03,085,*4D
$GLGSV,2,1,08,65,38,107,28,88,34,167,27,66,31,029,27,79,28,231,37*64
$GLGSV,2,2,08,81,26,223,33,77,18,349,22,87,14,121,14,72,10,145,21*6E
$GAGSV,2,1,08,125,56,285,37,111,48,173,33,124,34,358,30,104,30,084,29*69
$GAGSV,2,2,08,109,25,025,25,102,23,227,28,112,16,121,15,119,04,134,*68
$GPGSA,A,3,05,12,15,20,21,25,26,29,31,,,,1.9,0.8,1.7*3D
$GNGSA,A,3,05,12,15,20,21,25,26,29,31,,,,1.9,0.8,1.7*23
$GNGSA,A,3,65,66,72,77,79,81,87,88,,,,,1.9,0.8,1.7*24
$QZGSA,A,3,,,,,,,,,,,,,1.9,0.8,1.7*28
$IMGSA,A,3,,,,,,,,,,,,,1.9,0.8,1.7*27
$BDGSA,A,3,,,,,,,,,,,,,1.9,0.8,1.7*25
$GAGSA,A,3,102,104,109,111,112,124,125,,,,,,1.9,0.8,1.7*19
$GPRMC,161236.00,A,2249.144866,S,04318.399567,W,000.3,028.0,140119,,,A*58
$GPGGA,161237.00,2249.144790,S,04318.399547,W,1,22,0.2,15.2,M,-5.2,M,,*44
$GPGSV,3,1,11,25,62,008,35,29,52,155,38,21,47,254,39,20,33,336,32*7C
$GPGSV,3,2,11,12,29,028,28,05,23,136,19,15,17,054,31,31,14,264,14*7B
$GPGSV,3,3,11,26,12,219,17,10,06,334,,13,03,085,*4D
$GLGSV,2,1,08,65,38,107,28,88,34,167,26,66,31,029,27,79,28,231,37*65
$GLGSV,2,2,08,81,26,223,33,77,18,349,22,87,14,121,14,72,10,145,21*6E
$GAGSV,2,1,08,125,56,285,37,111,48,173,33,124,34,358,30,104,30,084,29*69
$GAGSV,2,2,08,109,25,025,24,102,23,227,28,112,16,121,15,119,04,134,*69
$GPGSA,A,3,12,15,20,21,25,26,29,,,,,,1.9,0.8,1.7*3A
$GNGSA,A,3,12,15,20,21,25,26,29,,,,,,1.9,0.8,1.7*24
$GNGSA,A,3,65,66,72,77,79,81,87,88,,,,,1.9,0.8,1.7*24
$QZGSA,A,3,,,,,,,,,,,,,1.9,0.8,1.7*28
$IMGSA,A,3,,,,,,,,,,,,,1.9,0.8,1.7*27
$BDGSA,A,3,,,,,,,,,,,,,1.9,0.8,1.7*25
$GAGSA,A,3,102,104,109,111,112,124,125,,,,,,1.9,0.8,1.7*19
$GPRMC,161237.00,A,2249.144790,S,04318.399547,W,000.2,028.0,140119,,,A*5C
$GPGGA,161238.00,2249.144739,S,04318.399515,W,1,23,0.2,15.2,M,-5.2,M,,*4E
$GPGSV,3,1,11,25,62,008,35,29,52,155,38,21,47,254,40,20,33,336,32*72
$GPGSV,3,2,11,12,29,028,29,05,23,136,20,15,17,054,31,31,14,264,13*77
$GPGSV,3,3,11,26,12,219,17,10,06,334,,13,03,085,*4D
$GLGSV,2,1,08,65,38,107,29,88,34,167,26,66,31,029,27,79,28,231,37*64
$GLGSV,2,2,08,81,26,223,33,77,18,349,22,87,14,121,15,72,09,145,21*67
$GAGSV,2,1,08,125,56,285,37,111,48,173,33,124,34,358,30,104,30,084,29*69
$GAGSV,2,2,08,109,25,025,24,102,23,227,28,112,16,121,15,119,04,134,*69
$GPGSA,A,3,05,12,15,20,21,25,26,29,,,,,2.1,0.9,1.9*3B
$GNGSA,A,3,05,12,15,20,21,25,26,29,,,,,2.1,0.9,1.9*25
$GNGSA,A,3,65,66,72,77,79,81,87,88,,,,,2.1,0.9,1.9*20
$QZGSA,A,3,,,,,,,,,,,,,2.1,0.9,1.9*2C
$IMGSA,A,3,,,,,,,,,,,,,2.1,0.9,1.9*23
$BDGSA,A,3,,,,,,,,,,,,,2.1,0.9,1.9*21
$GAGSA,A,3,102,104,109,111,112,124,125,,,,,,2.1,0.9,1.9*1D
$GPRMC,161238.00,A,2249.144739,S,04318.399515,W,000.2,028.0,140119,,,A*57
$GPGGA,161239.00,2249.144609,S,04318.399464,W,1,24,0.2,15.2,M,-5.2,M,,*4D
$GPGSV,3,1,11,25,62,008,35,29,52,155,38,21,47,254,40,20,33,336,32*72
$GPGSV,3,2,11,12,29,028,29,05,23,136,21,15,17,054,31,31,14,264,13*76
$GPGSV,3,3,11,26,12,219,17,10,06,334,,13,03,085,*4D
$GLGSV,2,1,08,65,38,107,30,88,34,167,26,66,31,029,27,79,28,231,37*6C
$GLGSV,2,2,08,81,26,223,33,77,18,349,22,87,14,121,16,72,09,145,20*65
$GAGSV,2,1,08,125,56,285,37,111,48,173,33,124,34,358,30,104,30,084,30*61
$GAGSV,2,2,08,109,25,025,24,102,23,227,28,112,16,121,15,119,04,134,*69
$GPGSA,A,3,05,12,15,20,21,25,26,29,31,,,,2.5,0.8,2.4*32
$GNGSA,A,3,05,12,15,20,21,25,26,29,31,,,,2.5,0.8,2.4*2C
$GNGSA,A,3,65,66,72,77,79,81,87,88,,,,,2.5,0.8,2.4*2B
$QZGSA,A,3,,,,,,,,,,,,,2.5,0.8,2.4*27
$IMGSA,A,3,,,,,,,,,,,,,2.5,0.8,2.4*28
$BDGSA,A,3,,,,,,,,,,,,,2.5,0.8,2.4*2A
$GAGSA,A,3,102,104,109,111,112,124,125,,,,,,2.5,0.8,2.4*16
$GPRMC,161239.00,A,2249.144609,S,04318.399464,W,000.1,028.0,140119,,,A*50
$GPGGA,161240.00,2249.144588,S,04318.399446,W,1,23,0.2,15.2,M,-5.2,M,,*4E
$GPGSV,3,1,11,25,62,008,35,29,52,155,38,21,47,254,40,20,33,336,32*72
$GPGSV,3,2,11,12,29,028,29,05,23,136,21,15,17,054,31,31,14,264,13*76
$GPGSV,3,3,11,26,12,219,17,10,06,334,,13,03,085,*4D
$GLGSV,2,1,08,65,38,107,30,88,34,167,26,66,31,029,27,79,28,231,37*6C
$GLGSV,2,2,08,81,26,223,33,77,18,349,22,87,14,121,16,72,09,145,20*65
$GAGSV,2,1,08,125,56,285,37,111,48,173,33,124,34,358,30,104,30,084,30*61
$GAGSV,2,2,08,109,25,025,24,102,23,227,28,112,16,121,15,119,04,134,*69
$GPGSA,A,3,05,12,15,20,21,25,26,29,,,,,1.9,0.8,1.7*3F
$GNGSA,A,3,05,12,15,20,21,25,26,29,,,,,1.9,0.8,1.7*21
$GNGSA,A,3,65,66,72,77,79,81,87,88,,,,,1.9,0.8,1.7*24
$QZGSA,A,3,,,,,,,,,,,,,1.9,0.8,1.7*28
$IMGSA,A,3,,,,,,,,,,,,,1.9,0.8,1.7*27
$BDGSA,A,3,,,,,,,,,,,,,1.9,0.8,1.7*25
$GAGSA,A,3,102,104,109,111,112,124,125,,,,,,1.9,0.8,1.7*19
$GPRMC,161240.00,A,2249.144588,S,04318.399446,W,000.1,028.0,140119,,,A*54
$GPGGA,161241.00,2249.144582,S,04318.399420,W,1,23,0.2,15.2,M,-5.2,M,,*45
$GPGSV,3,1,11,25,62,008,35,29,52,155,38,21,47,254,40,20,33,336,33*73
$GPGSV,3,2,11,12,29,028,29,05,23,136,21,15,17,054,31,31,14,264,13*76
$GPGSV,3,3,11,26,12,219,16,10,06,334,,13,03,085,*4C
$GLGSV,2,1,08,65,38,107,30,88,34,167,25,66,31,029,27,79,28,231,37*6F
$GLGSV,2,2,08,81,26,223,33,77,18,349,22,87,14,121,17,72,09,145,20*64
$GAGSV,2,1,08,125,56,285,37,111,48,173,33,124,34,358,30,104,30,084,30*61
$GAGSV,2,2,08,109,25,025,25,102,23,227,28,112,16,121,15,119,04,134,*68
$GPGSA,A,3,05,12,15,20,21,25,26,29,,,,,1.7,0.8,1.5*33
$GNGSA,A,3,05,12,15,20,21,25,26,29,,,,,1.7,0.8,1.5*2D
$GNGSA,A,3,65,66,72,77,79,81,87,88,,,,,1.7,0.8,1.5*28
$QZGSA,A,3,,,,,,,,,,,,,1.7,0.8,1.5*24
$IMGSA,A,3,,,,,,,,,,,,,1.7,0.8,1.5*2B
$BDGSA,A,3,,,,,,,,,,,,,1.7,0.8,1.5*29
$GAGSA,A,3,102,104,109,111,112,124,125,,,,,,1.7,0.8,1.5*15
$GPRMC,161241.00,A,2249.144582,S,04318.399420,W,000.0,028.0,140119,,,A*5E
$GPGGA,161242.00,2249.144595,S,04318.399410,W,1,22,0.2,15.2,M,-5.2,M,,*42
$GPGSV,3,1,11,25,62,008,35,29,52,155,38,21,47,254,40,20,33,336,33*73
$GPGSV,3,2,11,12,29,028,29,05,23,136,22,15,17,054,31,31,14,264,13*75
$GPGSV,3,3,11,26,12,219,16,10,06,334,,13,03,085,*4C
$GLGSV,2,1,08,65,38,107,30,88,34,167,25,66,31,029,27,79,28,231,37*6F
$GLGSV,2,2,08,81,26,223,33,77,18,349,22,87,14,121,17,72,09,145,19*6E
$GAGSV,2,1,08,125,56,285,37,111,48,172,33,124,34,358,30,104,30,084,30*60
$GAGSV,2,2,08,109,25,025,25,102,23,227,28,112,16,121,14,119,04,134,*69
$GPGSA,A,3,05,12,15,20,21,25,26,29,,,,,2.0,0.8,1.8*3A
$GNGSA,A,3,05,12,15,20,21,25,26,29,,,,,2.0,0.8,1.8*24
$GNGSA,A,3,65,66,72,77,79,81,87,88,,,,,2.0,0.8,1.8*21
$QZGSA,A,3,,,,,,,,,,,,,2.0,0.8,1.8*2D
$IMGSA,A,3,,,,,,,,,,,,,2.0,0.8,1.8*22
$BDGSA,A,3,,,,,,,,,,,,,2.0,0.8,1.8*20
$GAGSA,A,3,102,104,109,111,124,125,,,,,,,2.0,0.8,1.8*2E
$GPRMC,161242.00,A,2249.144595,S,04318.399410,W,000.0,028.0,140119,,,A*58
$GPGGA,161243.00,2249.144608,S,04318.399396,W,1,23,0.2,15.2,M,-5.2,M,,*4C
$GPGSV,3,1,11,25,62,008,35,29,52,155,38,21,47,254,40,20,33,336,32*72
$GPGSV,3,2,11,12,29,028,29,05,23,136,24,15,17,054,31,31,14,264,13*73
$GPGSV,3,3,11,26,12,219,16,10,06,334,,13,03,085,*4C
$GLGSV,2,1,08,65,38,107,30,88,34,167,25,66,31,029,27,79,28,231,37*6F
$GLGSV,2,2,08,81,26,223,33,77,18,349,22,87,14,121,19,72,09,145,19*60
$GAGSV,2,1,08,125,56,285,37,111,48,172,33,124,34,358,30,104,30,084,30*60
$GAGSV,2,2,08,109,25,025,25,102,23,227,27,112,16,121,14,119,04,134,*66
$GPGSA,A,3,05,12,15,20,21,25,26,29,,,,,1.9,0.8,1.7*3F
$GNGSA,A,3,05,12,15,20,21,25,26,29,,,,,1.9,0.8,1.7*21
$GNGSA,A,3,65,66,72,77,79,81,87,88,,,,,1.9,0.8,1.7*24
$QZGSA,A,3,,,,,,,,,,,,,1.9,0.8,1.7*28
$IMGSA,A,3,,,,,,,,,,,,,1.9,0.8,1.7*27
$BDGSA,A,3,,,,,,,,,,,,,1.9,0.8,1.7*25
$GAGSA,A,3,102,104,109,111,112,124,125,,,,,,1.9,0.8,1.7*19
$GPRMC,161243.00,A,2249.144608,S,04318.399396,W,000.0,028.0,140119,,,A*57
$GPGGA,161244.00,2249.144624,S,04318.399383,W,1,23,0.2,15.2,M,-5.2,M,,*41
$GPGSV,3,1,11,25,62,008,35,29,52,155,38,21,47,254,40,20,33,336,33*73
$GPGSV,3,2,11,12,29,028,29,05,23,136,24,15,17,054,31,31,14,264,12*72
$GPGSV,3,3,11,26,12,219,16,10,06,334,,13,03,085,*4C
$GLGSV,2,1,08,65,38,107,30,88,34,167,25,66,31,029,27,79,28,231,38*60
$GLGSV,2,2,08,81,26,223,33,77,18,349,22,87,14,121,19,72,09,145,18*61
$GAGSV,2,1,08,125,56,285,37,111,48,172,33,124,34,358,30,104,30,084,30*60
$GAGSV,2,2,08,109,25,025,25,102,23,227,27,112,16,121,14,119,04,134,*66
$GPGSA,A,3,05,12,15,20,21,25,26,29,,,,,1.5,0.8,1.3*37
$GNGSA,A,3,05,12,15,20,21,25,26,29,,,,,1.5,0.8,1.3*29
$GNGSA,A,3,65,66,72,77,79,81,87,88,,,,,1.5,0.8,1.3*2C
$QZGSA,A,3,,,,,,,,,,,,,1.5,0.8,1.3*20
$IMGSA,A,3,,,,,,,,,,,,,1.5,0.8,1.3*2F
$BDGSA,A,3,,,,,,,,,,,,,1.5,0.8,1.3*2D
$GAGSA,A,3,102,104,109,111,112,124,125,,,,,,1.5,0.8,1.3*11
$GPRMC,161244.00,A,2249.144624,S,04318.399383,W,000.0,028.0,140119,,,A*5A
$GPGGA,161245.00,2249.144629,S,04318.399372,W,1,22,0.2,15.2,M,-5.2,M,,*42
$GPGSV,3,1,11,25,62,008,35,29,52,155,38,21,47,254,40,20,33,336,33*73
$GPGSV,3,2,11,12,29,028,29,05,23,136,24,15,17,054,31,31,14,264,12*72
$GPGSV,3,3,11,26,12,219,16,10,06,334,,13,03,085,*4C
$GLGSV,2,1,08,65,38,107,30,88,34,167,25,66,31,029,27,79,28,231,38*60
$GLGSV,2,2,08,81,26,223,33,77,18,349,23,87,14,121,19,72,09,145,18*60
$GAGSV,2,1,08,125,56,285,37,111,48,172,33,124,34,358,30,104,30,084,30*60
$GAGSV,2,2,08,109,25,025,25,102,23,227,27,112,16,121,14,119,04,134,*66
$GPGSA,A,3,05,12,15,20,21,25,26,29,,,,,1.6,0.8,1.4*33
$GNGSA,A,3,05,12,15,20,21,25,26,29,,,,,1.6,0.8,1.4*2D
$GNGSA,A,3,65,66,77,79,81,87,88,,,,,,1.6,0.8,1.4*2D
$QZGSA,A,3,,,,,,,,,,,,,1.6,0.8,1.4*24
$IMGSA,A,3,,,,,,,,,,,,,1.6,0.8,1.4*2B
$BDGSA,A,3,,,,,,,,,,,,,1.6,0.8,1.4*29
$GAGSA,A,3,102,104,109,111,112,124,125,,,,,,1.6,0.8,1.4*15
$GPRMC,161245.00,A,2249.144629,S,04318.399372,W,000.2,028.0,140119,,,A*5A
$GPGGA,161246.00,2249.144583,S,04318.399347,W,1,22,0.2,15.2,M,-5.2,M,,*44
$GPGSV,3,1,11,25,62,008,35,29,52,155,38,21,47,254,40,20,33,336,33*73
$GPGSV,3,2,11,12,29,028,28,05,23,136,24,15,17,054,31,31,14,264,12*73
$GPGSV,3,3,11,26,12,219,16,10,06,334,,13,03,085,*4C
$GLGSV,2,1,08,65,38,107,30,88,34,167,25,66,31,029,27,79,28,231,38*60
$GLGSV,2,2,08,81,26,223,33,77,18,349,23,87,14,121,18,72,09,145,18*61
$GAGSV,2,1,08,125,56,285,37,111,48,172,33,124,34,358,30,104,30,084,29*68
$GAGSV,2,2,08,109,25,025,25,102,23,227,27,112,16,121,14,119,04,134,*66
$GPGSA,A,3,05,12,15,20,21,25,26,29,,,,,1.8,0.7,1.7*31
$GNGSA,A,3,05,12,15,20,21,25,26,29,,,,,1.8,0.7,1.7*2F
$GNGSA,A,3,65,66,72,77,79,81,87,88,,,,,1.8,0.7,1.7*2A
$QZGSA,A,3,,,,,,,,,,,,,1.8,0.7,1.7*26
$IMGSA,A,3,,,,,,,,,,,,,1.8,0.7,1.7*29
$BDGSA,A,3,,,,,,,,,,,,,1.8,0.7,1.7*2B
$GAGSA,A,3,102,104,109,111,124,125,,,,,,,1.8,0.7,1.7*25
$GPRMC,161246.00,A,2249.144583,S,04318.399347,W,000.1,028.0,140119,,,A*5F
$GPGGA,161247.00,2249.144576,S,04318.399340,W,1,22,0.2,15.2,M,-5.2,M,,*48
$GPGSV,3,1,11,25,62,008,35,29,52,155,38,21,47,254,40,20,33,336,33*73
$GPGSV,3,2,11,12,29,028,28,05,23,136,25,15,17,054,31,31,14,264,11*71
$GPGSV,3,3,11,26,12,219,16,10,06,334,,13,03,085,*4C
$GLGSV,2,1,08,65,38,107,30,88,34,167,25,66,31,029,27,79,28,231,38*60
$GLGSV,2,2,08,81,26,223,33,77,18,349,23,87,14,121,18,72,09,145,18*61
$GAGSV,2,1,08,125,56,286,37,111,48,172,33,124,34,358,30,104,30,084,29*6B
$GAGSV,2,2,08,109,25,025,25,102,23,227,27,112,16,121,13,119,04,134,*61
$GPGSA,A,3,05,12,15,20,21,25,26,29,,,,,1.8,0.8,1.7*3E
$GNGSA,A,3,05,12,15,20,21,25,26,29,,,,,1.8,0.8,1.7*20
$GNGSA,A,3,65,66,72,77,79,81,87,88,,,,,1.8,0.8,1.7*25
$QZGSA,A,3,,,,,,,,,,,,,1.8,0.8,1.7*29
$IMGSA,A,3,,,,,,,,,,,,,1.8,0.8,1.7*26
$BDGSA,A,3,,,,,,,,,,,,,1.8,0.8,1.7*24
$GAGSA,A,3,102,104,109,111,124,125,,,,,,,1.8,0.8,1.7*2A
$GPRMC,161247.00,A,2249.144576,S,04318.399340,W,000.1,028.0,140119,,,A*53
$GPGGA,161248.00,2249.144591,S,04318.399331,W,1,22,0.2,15.2,M,-5.2,M,,*48
$GPGSV,3,1,11,25,62,008,35,29,52,155,38,21,47,254,40,20,33,336,33*73
$GPGSV,3,2,11,12,29,028,28,05,23,136,25,15,17,054,31,31,14,264,11*71
$GPGSV,3,3,11,26,12,219,16,10,06,334,,13,03,085,*4C
$GLGSV,2,1,08,65,38,107,29,88,34,167,25,66,31,029,27,79,28,231,38*68
$GLGSV,2,2,08,81,26,223,33,77,18,349,23,87,14,121,18,72,09,145,17*6E
$GAGSV,2,1,08,125,56,286,37,111,48,172,33,124,34,358,30,104,30,084,30*63
$GAGSV,2,2,08,109,25,025,25,102,23,227,27,112,16,121,14,119,04,134,*66
$GPGSA,A,3,05,12,15,20,21,25,26,29,,,,,1.8,0.8,1.6*3F
$GNGSA,A,3,05,12,15,20,21,25,26,29,,,,,1.8,0.8,1.6*21
$GNGSA,A,3,65,66,77,79,81,87,88,,,,,,1.8,0.8,1.6*21
$QZGSA,A,3,,,,,,,,,,,,,1.8,0.8,1.6*28
$IMGSA,A,3,,,,,,,,,,,,,1.8,0.8,1.6*27
$BDGSA,A,3,,,,,,,,,,,,,1.8,0.8,1.6*25
$GAGSA,A,3,102,104,109,111,112,124,125,,,,,,1.8,0.8,1.6*19
$GPRMC,161248.00,A,2249.144591,S,04318.399331,W,000.1,028.0,140119,,,A*53
$GPGGA,161249.00,2249.144600,S,04318.399326,W,1,23,0.2,15.2,M,-5.2,M,,*45
$GPGSV,3,1,11,25,62,008,35,29,52,155,38,21,47,254,40,20,33,336,33*73
$GPGSV,3,2,11,12,29,028,28,05,23,136,25,15,17,054,31,31,14,264,11*71
$GPGSV,3,3,11,26,12,219,15,10,06,334,,13,03,085,*4F
$GLGSV,2,1,08,65,38,107,29,88,34,167,25,66,31,029,26,79,28,231,38*69
$GLGSV,2,2,08,81,26,223,33,77,18,349,23,87,14,121,19,72,09,145,17*6F
$GAGSV,2,1,08,125,56,286,37,111,48,172,33,124,34,358,30,104,30,084,30*63
$GAGSV,2,2,08,109,26,025,25,102,23,227,27,112,16,121,14,119,04,134,*65
$GPGSA,A,3,05,12,15,20,21,25,26,29,,,,,2.0,0.8,1.9*3B
$GNGSA,A,3,05,12,15,20,21,25,26,29,,,,,2.0,0.8,1.9*25
$GNGSA,A,3,65,66,72,77,79,81,87,88,,,,,2.0,0.8,1.9*20
$QZGSA,A,3,,,,,,,,,,,,,2.0,0.8,1.9*2C
$IMGSA,A,3,,,,,,,,,,,,,2.0,0.8,1.9*23
$BDGSA,A,3,,,,,,,,,,,,,2.0,0.8,1.9*21
$GAGSA,A,3,102,104,109,111,112,124,125,,,,,,2.0,0.8,1.9*1D
$GPRMC,161249.00,A,2249.144600,S,04318.399326,W,000.0,028.0,140119,,,A*5E
$GPGGA,161250.00,2249.144608,S,04318.399322,W,1,23,0.2,15.2,M,-5.2,M,,*41
$GPGSV,3,1,11,25,62,008,35,29,52,155,38,21,47,254,40,20,33,336,33*73
$GPGSV,3,2,11,12,29,028,29,05,23,136,25,15,17,054,31,31,14,264,11*70
$GPGSV,3,3,11,26,12,219,15,10,06,334,,13,03,085,*4F
$GLGSV,2,1,08,65,38,107,29,88,34,167,25,66,31,029,26,79,28,231,38*69
$GLGSV,2,2,08,81,26,223,33,77,18,349,23,87,14,121,19,72,09,145,17*6F
$GAGSV,2,1,08,125,56,286,37,111,48,172,33,124,34,358,30,104,30,084,30*63
$GAGSV,2,2,08,109,26,025,24,102,23,227,28,112,16,121,14,119,04,134,*6B
$GPGSA,A,3,05,12,15,20,21,25,26,29,,,,,2.2,0.8,2.0*33
$GNGSA,A,3,05,12,15,20,21,25,26,29,,,,,2.2,0.8,2.0*2D
$GNGSA,A,3,65,66,72,77,79,81,87,88,,,,,2.2,0.8,2.0*28
$QZGSA,A,3,,,,,,,,,,,,,2.2,0.8,2.0*24
$IMGSA,A,3,,,,,,,,,,,,,2.2,0.8,2.0*2B
$BDGSA,A,3,,,,,,,,,,,,,2.2,0.8,2.0*29
$GAGSA,A,3,102,104,109,111,112,124,125,,,,,,2.2,0.8,2.0*15
$GPRMC,161250.00,A,2249.144608,S,04318.399322,W,000.1,028.0,140119,,,A*5B
$GPGGA,161251.00,2249.144620,S,04318.399312,W,1,23,0.2,15.2,M,-5.2,M,,*49
$GPGSV,3,1,11,25,62,008,35,29,52,155,38,21,47,254,40,20,33,336,33*73
$GPGSV,3,2,11,12,29,028,29,05,23,136,24,15,17,054,31,31,14,264,11*71
$GPGSV,3,3,11,26,12,219,15,10,06,334,,13,03,085,*4F
$GLGSV,2,1,08,65,38,107,29,88,34,167,26,66,31,029,26,79,28,231,38*6A
$GLGSV,2,2,08,81,26,223,33,77,18,349,23,87,14,121,19,72,09,145,16*6E
$GAGSV,2,1,08,125,56,286,37,111,48,172,33,124,34,358,30,104,30,084,30*63
$GAGSV,2,2,08,109,26,025,24,102,23,227,28,112,16,121,14,119,04,134,*6B
$GPGSA,A,3,05,12,15,20,21,25,26,29,,,,,1.8,0.8,1.6*3F
$GNGSA,A,3,05,12,15,20,21,25,26,29,,,,,1.8,0.8,1.6*21
$GNGSA,A,3,65,66,72,77,79,81,87,88,,,,,1.8,0.8,1.6*24
$QZGSA,A,3,,,,,,,,,,,,,1.8,0.8,1.6*28
$IMGSA,A,3,,,,,,,,,,,,,1.8,0.8,1.6*27
$BDGSA,A,3,,,,,,,,,,,,,1.8,0.8,1.6*25
$GAGSA,A,3,102,104,109,111,112,124,125,,,,,,1.8,0.8,1.6*19
$GPRMC,161251.00,A,2249.144620,S,04318.399312,W,000.0,028.0,140119,,,A*52
$GPGGA,161252.00,2249.144671,S,04318.399290,W,1,23,0.2,15.2,M,-5.2,M,,*45
$GPGSV,3,1,11,25,62,008,35,29,52,155,38,21,47,253,40,20,33,336,33*74
$GPGSV,3,2,11,12,29,028,29,05,23,136,24,15,17,054,31,31,14,264,11*71
$GPGSV,3,3,11,26,12,219,15,10,06,334,,13,03,085,*4F
$GLGSV,2,1,08,65,38,107,29,88,34,167,26,66,31,029,26,79,28,231,38*6A
$GLGSV,2,2,08,81,26,223,33,77,18,349,23,87,14,121,20,72,09,145,16*64
$GAGSV,2,1,08,125,56,286,37,111,48,172,33,124,34,358,30,104,30,084,30*63
$GAGSV,2,2,08,109,26,025,25,102,23,227,28,112,16,121,15,119,04,134,*6B
$GPGSA,A,3,05,12,15,20,21,25,26,29,,,,,1.7,0.8,1.5*33
$GNGSA,A,3,05,12,15,20,21,25,26,29,,,,,1.7,0.8,1.5*2D
$GNGSA,A,3,65,66,72,77,79,81,87,88,,,,,1.7,0.8,1.5*28
$QZGSA,A,3,,,,,,,,,,,,,1.7,0.8,1.5*24
$IMGSA,A,3,,,,,,,,,,,,,1.7,0.8,1.5*2B
$BDGSA,A,3,,,,,,,,,,,,,1.7,0.8,1.5*29
$GAGSA,A,3,102,104,109,111,112,124,125,,,,,,1.7,0.8,1.5*15
$GPRMC,161252.00,A,2249.144671,S,04318.399290,W,000.1,028.0,140119,,,A*5F
$GPGGA,161253.00,2249.144676,S,04318.399285,W,1,23,0.2,15.2,M,-5.2,M,,*47
$GPGSV,3,1,11,25,62,008,35,29,52,155,38,21,47,253,40,20,33,336,33*74
$GPGSV,3,2,11,12,29,028,29,05,23,136,24,15,17,054,31,31,14,264,11*71
$GPGSV,3,3,11,26,12,219,14,10,06,334,,13,03,085,*4E
$GLGSV,2,1,08,65,38,107,29,88,34,167,26,66,31,029,26,79,28,231,38*6A
$GLGSV,2,2,08,81,26,223,33,77,18,349,23,87,14,121,20,72,09,145,16*64
$GAGSV,2,1,08,125,56,286,37,111,48,172,33,124,34,358,30,104,30,084,30*63
$GAGSV,2,2,08,109,26,025,25,102,23,227,29,112,16,121,14,119,04,134,*6B
$GPGSA,A,3,05,12,15,20,21,25,26,29,,,,,1.8,0.8,1.7*3E
$GNGSA,A,3,05,12,15,20,21,25,26,29,,,,,1.8,0.8,1.7*20
$GNGSA,A,3,65,66,72,77,79,81,87,88,,,,,1.8,0.8,1.7*25
$QZGSA,A,3,,,,,,,,,,,,,1.8,0.8,1.7*29
$IMGSA,A,3,,,,,,,,,,,,,1.8,0.8,1.7*26
$BDGSA,A,3,,,,,,,,,,,,,1.8,0.8,1.7*24
$GAGSA,A,3,102,104,109,111,112,124,125,,,,,,1.8,0.8,1.7*18
$GPRMC,161253.00,A,2249.144676,S,04318.399285,W,000.1,028.0,140119,,,A*5D
$GPGGA,161254.00,2249.144694,S,04318.399279,W,1,23,0.2,15.2,M,-5.2,M,,*4F
$GPGSV,3,1,11,25,62,008,35,29,52,155,38,21,47,253,40,20,33,336,33*74
$GPGSV,3,2,11,12,29,028,29,05,23,136,24,15,17,054,31,31,14,264,10*70
$GPGSV,3,3,11,26,12,219,14,10,06,334,,13,03,085,*4E
$GLGSV,2,1,08,65,38,107,29,88,34,167,26,66,31,029,26,79,28,231,38*6A
$GLGSV,2,2,08,81,26,223,33,77,18,350,23,87,14,121,20,72,09,145,16*6C
$GAGSV,2,1,08,125,56,286,37,111,48,172,33,124,34,358,30,104,30,084,30*63
$GAGSV,2,2,08,109,26,025,25,102,23,227,29,112,16,121,14,119,04,134,*6B
$GPGSA,A,3,05,12,15,20,21,25,26,29,,,,,1.8,0.8,1.6*3F
$GNGSA,A,3,05,12,15,20,21,25,26,29,,,,,1.8,0.8,1.6*21
$GNGSA,A,3,65,66,72,77,79,81,87,88,,,,,1.8,0.8,1.6*24
$QZGSA,A,3,,,,,,,,,,,,,1.8,0.8,1.6*28
$IMGSA,A,3,,,,,,,,,,,,,1.8,0.8,1.6*27
$BDGSA,A,3,,,,,,,,,,,,,1.8,0.8,1.6*25
$GAGSA,A,3,102,104,109,111,112,124,125,,,,,,1.8,0.8,1.6*19
$GPRMC,161254.00,A,2249.144694,S,04318.399279,W,000.1,028.0,140119,,,A*55
$GPGGA,161255.00,2249.144712,S,04318.399274,W,1,23,0.2,15.2,M,-5.2,M,,*4C
$GPGSV,3,1,11,25,62,008,35,29,52,155,38,21,47,253,40,20,33,336,33*74
$GPGSV,3,2,11,12,29,028,29,05,23,136,23,15,17,054,31,31,14,264,10*77
$GPGSV,3,3,11,26,12,219,14,10,06,334,,13,03,085,*4E
$GLGSV,2,1,08,65,38,107,29,88,34,167,26,66,31,029,26,79,28,231,38*6A
$GLGSV,2,2,08,81,26,223,33,77,18,350,23,87,14,121,19,72,09,145,19*69
$GAGSV,2,1,08,125,56,286,37,111,48,172,33,124,34,358,30,104,30,084,30*63
$GAGSV,2,2,08,109,26,025,25,102,23,227,29,112,16,121,14,119,04,134,*6B
$GPGSA,A,3,05,12,15,20,21,25,26,29,,,,,1.8,0.8,1.7*3E
$GNGSA,A,3,05,12,15,20,21,25,26,29,,,,,1.8,0.8,1.7*20
$GNGSA,A,3,65,66,72,77,79,81,87,88,,,,,1.8,0.8,1.7*25
$QZGSA,A,3,,,,,,,,,,,,,1.8,0.8,1.7*29
$IMGSA,A,3,,,,,,,,,,,,,1.8,0.8,1.7*26
$BDGSA,A,3,,,,,,,,,,,,,1.8,0.8,1.7*24
$GAGSA,A,3,102,104,109,111,112,124,125,,,,,,1.8,0.8,1.7*18
$GPRMC,161255.00,A,2249.144712,S,04318.399274,W,000.0,028.0,140119,,,A*57
$GPGGA,161256.00,2249.144740,S,04318.399266,W,1,23,0.2,15.2,M,-5.2,M,,*4B
$GPGSV,3,1,11,25,62,008,35,29,52,155,38,21,47,253,40,20,33,336,33*74
$GPGSV,3,2,11,12,29,028,30,05,23,136,23,15,17,054,31,31,14,264,10*7F
$GPGSV,3,3,11,26,12,219,14,10,06,334,,13,03,085,*4E
$GLGSV,2,1,08,65,38,107,29,88,34,167,28,66,31,029,26,79,28,231,38*64
$GLGSV,2,2,08,81,26,223,33,77,18,350,23,87,14,121,19,72,09,145,19*69
$GAGSV,2,1,08,125,56,286,37,111,48,172,32,124,34,358,30,104,30,084,30*62
$GAGSV,2,2,08,109,26,025,24,102,23,227,29,112,16,121,14,119,04,134,*6A
$GPGSA,A,3,05,12,15,20,21,25,26,29,,,,,1.8,0.8,1.6*3F
$GNGSA,A,3,05,12,15,20,21,25,26,29,,,,,1.8,0.8,1.6*21
$GNGSA,A,3,65,66,72,77,79,81,87,88,,,,,1.8,0.8,1.6*24
$QZGSA,A,3,,,,,,,,,,,,,1.8,0.8,1.6*28
$IMGSA,A,3,,,,,,,,,,,,,1.8,0.8,1.6*27
$BDGSA,A,3,,,,,,,,,,,,,1.8,0.8,1.6*25
$GAGSA,A,3,102,104,109,111,112,124,125,,,,,,1.8,0.8,1.6*19
$GPRMC,161256.00,A,2249.144740,S,04318.399266,W,000.0,028.0,140119,,,A*50
$GPGGA,161257.00,2249.144770,S,04318.399260,W,1,23,0.2,15.2,M,-5.2,M,,*4F
$GPGSV,3,1,11,25,62,008,34,29,52,155,38,21,47,253,40,20,33,336,33*75
$GPGSV,3,2,11,12,29,028,29,05,23,136,23,15,17,054,31,31,14,264,10*77
$GPGSV,3,3,11,26,12,219,14,10,06,334,,13,03,085,*4E
$GLGSV,2,1,08,65,38,107,29,88,34,167,27,66,31,029,26,79,28,232,38*68
$GLGSV,2,2,08,81,26,223,33,77,18,350,23,87,14,121,19,72,09,145,20*63
$GAGSV,2,1,08,125,56,286,37,111,48,172,32,124,34,358,30,104,30,084,30*62
$GAGSV,2,2,08,109,26,025,24,102,23,227,29,112,16,121,14,119,04,134,*6A
$GPGSA,A,3,05,12,15,20,21,25,26,29,,,,,2.0,0.8,1.8*3A
$GNGSA,A,3,05,12,15,20,21,25,26,29,,,,,2.0,0.8,1.8*24
$GNGSA,A,3,65,66,72,77,79,81,87,88,,,,,2.0,0.8,1.8*21
$QZGSA,A,3,,,,,,,,,,,,,2.0,0.8,1.8*2D
$IMGSA,A,3,,,,,,,,,,,,,2.0,0.8,1.8*22
$BDGSA,A,3,,,,,,,,,,,,,2.0,0.8,1.8*20
$GAGSA,A,3,102,104,109,111,112,124,125,,,,,,2.0,0.8,1.8*1C
$GPRMC,161257.00,A,2249.144770,S,04318.399260,W,000.1,028.0,140119,,,A*55
$GPGGA,161258.00,2249.144781,S,04318.399258,W,1,23,0.2,15.2,M,-5.2,M,,*45
$GPGSV,3,1,11,25,62,008,34,29,52,155,38,21,47,253,40,20,33,336,33*75
$GPGSV,3,2,11,12,29,028,29,05,23,136,23,15,17,054,31,31,14,264,10*77
$GPGSV,3,3,11,26,12,219,14,10,06,334,,13,03,085,*4E
$GLGSV,2,1,08,65,38,107,28,88,34,167,27,66,31,029,26,79,28,232,38*69
$GLGSV,2,2,08,81,26,223,33,77,18,350,23,87,14,121,19,72,09,145,20*63
$GAGSV,2,1,08,125,56,286,37,111,48,172,32,124,34,358,30,104,30,084,30*62
$GAGSV,2,2,08,109,26,025,24,102,23,227,29,112,16,121,14,119,04,134,*6A
$GPGSA,A,3,05,12,15,20,21,25,26,29,,,,,2.2,0.9,2.1*33
$GNGSA,A,3,05,12,15,20,21,25,26,29,,,,,2.2,0.9,2.1*2D
$GNGSA,A,3,65,66,72,77,79,81,87,88,,,,,2.2,0.9,2.1*28
$QZGSA,A,3,,,,,,,,,,,,,2.2,0.9,2.1*24
$IMGSA,A,3,,,,,,,,,,,,,2.2,0.9,2.1*2B
$BDGSA,A,3,,,,,,,,,,,,,2.2,0.9,2.1*29
$GAGSA,A,3,102,104,109,111,112,124,125,,,,,,2.2,0.9,2.1*15
$GPRMC,161258.00,A,2249.144781,S,04318.399258,W,000.0,028.0,140119,,,A*5E
$GPGGA,161259.00,2249.144806,S,04318.399254,W,1,23,0.2,15.2,M,-5.2,M,,*48
$GPGSV,3,1,11,25,62,008,34,29,52,155,38,21,47,253,40,20,33,336,33*75
$GPGSV,3,2,11,12,29,028,29,05,23,136,22,15,17,054,31,31,14,264,10*76
$GPGSV,3,3,11,26,12,219,14,10,06,334,,13,03,085,*4E
$GLGSV,2,1,08,65,38,107,28,88,34,166,27,66,31,029,26,79,28,232,38*68
$GLGSV,2,2,08,81,26,223,33,77,18,350,23,87,14,121,19,72,09,145,21*62
$GAGSV,2,1,08,125,56,286,37,111,48,172,32,124,34,358,30,104,30,084,30*62
$GAGSV,2,2,08,109,26,025,24,102,23,227,29,112,16,121,14,119,04,134,*6A
$GPGSA,A,3,05,12,15,20,21,25,26,29,,,,,1.9,0.9,1.7*3E
$GNGSA,A,3,05,12,15,20,21,25,26,29,,,,,1.9,0.9,1.7*20
$GNGSA,A,3,65,66,72,77,79,81,87,88,,,,,1.9,0.9,1.7*25
$QZGSA,A,3,,,,,,,,,,,,,1.9,0.9,1.7*29
$IMGSA,A,3,,,,,,,,,,,,,1.9,0.9,1.7*26
$BDGSA,A,3,,,,,,,,,,,,,1.9,0.9,1.7*24
$GAGSA,A,3,102,104,109,111,112,124,125,,,,,,1.9,0.9,1.7*18
$GPRMC,161259.00,A,2249.144806,S,04318.399254,W,000.0,028.0,140119,,,A*53
$GPGGA,161300.00,2249.144829,S,04318.399252,W,1,22,0.2,15.2,M,-5.2,M,,*4F
$GPGSV,3,1,11,25,62,008,34,29,52,155,38,21,47,253,40,20,33,336,34*72
$GPGSV,3,2,11,12,29,028,29,05,23,136,22,15,17,054,31,31,14,264,10*76
$GPGSV,3,3,11,26,12,219,14,10,06,334,,13,03,085,*4E
$GLGSV,2,1,08,65,38,107,28,88,34,166,27,66,31,029,26,79,28,232,38*68
$GLGSV,2,2,08,81,26,223,33,77,18,350,23,87,14,121,19,72,09,145,21*62
$GAGSV,2,1,08,125,56,286,37,111,48,172,32,124,34,358,30,104,30,084,30*62
$GAGSV,2,2,08,109,26,025,24,102,23,227,29,112,16,121,15,119,04,134,*6B
$GPGSA,A,3,05,12,15,20,21,25,29,,,,,,1.7,0.8,1.5*37
$GNGSA,A,3,05,12,15,20,21,25,29,,,,,,1.7,0.8,1.5*29
$GNGSA,A,3,65,66,72,77,79,81,87,88,,,,,1.7,0.8,1.5*28
$QZGSA,A,3,,,,,,,,,,,,,1.7,0.8,1.5*24
$IMGSA,A,3,,,,,,,,,,,,,1.7,0.8,1.5*2B
$BDGSA,A,3,,,,,,,,,,,,,1.7,0.8,1.5*29
$GAGSA,A,3,102,104,109,111,112,124,125,,,,,,1.7,0.8,1.5*15
$GPRMC,161300.00,A,2249.144829,S,04318.399252,W,000.0,028.0,140119,,,A*55
$GPGGA,161301.00,2249.144842,S,04318.399248,W,1,22,0.2,15.2,M,-5.2,M,,*48
$GPGSV,3,1,11,25,62,008,34,29,52,155,38,21,47,253,40,20,33,336,34*72
$GPGSV,3,2,11,12,29,028,29,05,23,136,22,15,17,054,31,31,14,264,11*77
$GPGSV,3,3,11,26,12,219,13,10,06,334,,13,03,085,*49
$GLGSV,2,1,08,65,38,107,28,88,34,166,27,66,31,029,26,79,28,232,38*68
$GLGSV,2,2,08,81,26,223,33,77,18,350,23,87,14,121,19,72,09,145,21*62
$GAGSV,2,1,08,125,56,286,37,111,48,172,32,124,34,358,30,104,30,084,30*62
$GAGSV,2,2,08,109,26,025,24,102,23,227,29,112,16,121,15,119,04,134,*6B
$GPGSA,A,3,05,12,15,20,21,25,29,,,,,,1.7,0.8,1.5*37
$GNGSA,A,3,05,12,15,20,21,25,29,,,,,,1.7,0.8,1.5*29
$GNGSA,A,3,65,66,72,77,79,81,87,88,,,,,1.7,0.8,1.5*28
$QZGSA,A,3,,,,,,,,,,,,,1.7,0.8,1.5*24
$IMGSA,A,3,,,,,,,,,,,,,1.7,0.8,1.5*2B
$BDGSA,A,3,,,,,,,,,,,,,1.7,0.8,1.5*29
$GAGSA,A,3,102,104,109,111,112,124,125,,,,,,1.7,0.8,1.5*15
$GPRMC,161301.00,A,2249.144842,S,04318.399248,W,000.1,028.0,140119,,,A*53
$GPGGA,161302.00,2249.144831,S,04318.399234,W,1,22,0.2,15.2,M,-5.2,M,,*44
$GPGSV,3,1,11,25,62,008,34,29,52,155,38,21,47,253,40,20,33,336,34*72
$GPGSV,3,2,11,12,29,028,29,05,23,136,22,15,17,054,31,31,14,264,11*77
$GPGSV,3,3,11,26,13,219,13,10,06,334,,13,03,085,*48
$GLGSV,2,1,08,65,38,107,28,88,34,166,28,66,31,029,26,79,28,232,38*67
$GLGSV,2,2,08,81,26,223,33,77,18,350,23,87,14,121,20,72,09,145,21*68
$GAGSV,2,1,08,125,56,286,37,111,48,172,32,124,34,358,30,104,30,084,30*62
$GAGSV,2,2,08,109,26,025,24,102,23,227,29,112,16,121,15,119,04,134,*6B
$GPGSA,A,3,05,12,15,20,21,25,29,,,,,,1.9,0.8,1.7*3B
$GNGSA,A,3,05,12,15,20,21,25,29,,,,,,1.9,0.8,1.7*25
$GNGSA,A,3,65,66,72,77,79,81,87,88,,,,,1.9,0.8,1.7*24
$QZGSA,A,3,,,,,,,,,,,,,1.9,0.8,1.7*28
$IMGSA,A,3,,,,,,,,,,,,,1.9,0.8,1.7*27
$BDGSA,A,3,,,,,,,,,,,,,1.9,0.8,1.7*25
$GAGSA,A,3,102,104,109,111,112,124,125,,,,,,1.9,0.8,1.7*19
$GPRMC,161302.00,A,2249.144831,S,04318.399234,W,000.0,028.0,140119,,,A*5E
$GPGGA,161303.00,2249.144829,S,04318.399228,W,1,22,0.2,15.1,M,-5.2,M,,*42
$GPGSV,3,1,11,25,62,008,34,29,52,155,38,21,47,253,40,20,33,336,33*75
$GPGSV,3,2,11,12,29,028,29,05,23,136,22,15,17,054,31,31,14,264,11*77
$GPGSV,3,3,11,26,13,219,13,10,06,334,,13,03,085,*48
$GLGSV,2,1,08,65,38,107,28,88,34,166,28,66,31,029,26,79,28,232,38*67
$GLGSV,2,2,08,81,26,223,33,77,18,350,23,87,14,121,21,72,09,145,20*68
$GAGSV,2,1,08,125,56,286,37,111,48,172,32,124,34,358,30,104,30,084,30*62
$GAGSV,2,2,08,109,26,025,24,102,23,227,29,112,16,121,14,119,04,134,*6A
$GPGSA,A,3,05,12,15,20,21,25,29,,,,,,1.8,0.8,1.6*3B
$GNGSA,A,3,05,12,15,20,21,25,29,,,,,,1.8,0.8,1.6*25
$GNGSA,A,3,65,66,72,77,79,81,87,88,,,,,1.8,0.8,1.6*24
$QZGSA,A,3,,,,,,,,,,,,,1.8,0.8,1.6*28
$IMGSA,A,3,,,,,,,,,,,,,1.8,0.8,1.6*27
