% program   : RTKPOST ver.2.4.2
% inp file  : D:\Google Drive\UERJ\_Projeto Final\Python\tcc-guilherme\20190115_Sta91500_Smoothed5sec.19o
% inp file  : D:\Google Drive\UERJ\_Projeto Final\20190115_Marco 91500 IBGE\brdm0150.19p
% obs start : 2019/01/15 09:25:22.0 GPST (week2036 206722.0s)
% obs end   : 2019/01/15 10:25:42.0 GPST (week2036 210342.0s)
% pos mode  : single
% elev mask : 15.0 deg
% ionos opt : broadcast
% tropo opt : saastamoinen
% ephemeris : broadcast
% navi sys  : gps glonass galileo
%
% (x/y/z-ecef=WGS84,Q=1:fix,2:float,3:sbas,4:dgps,5:single,6:ppp,ns=# of satellites)
%  GPST                      x-ecef(m)      y-ecef(m)      z-ecef(m)   Q  ns   sdx(m)   sdy(m)   sdz(m)  sdxy(m)  sdyz(m)  sdzx(m) age(s)  ratio
2019/01/15 09:25:24.000   4280227.8199  -4034435.2121  -2458275.1537   5   9   4.2600   4.6656   3.5373  -3.6960  -0.9731  -1.9165   0.00    0.0
2019/01/15 09:25:25.000   4280225.1241  -4034430.3138  -2458276.4699   5  10   4.2572   4.5978   3.0893  -3.6784   0.6496  -1.9908   0.00    0.0
2019/01/15 09:25:26.000   4280222.8266  -4034426.7456  -2458274.5944   5  10   4.2577   4.5981   3.0893  -3.6790   0.6504  -1.9907   0.00    0.0
2019/01/15 09:25:27.000   4280225.2703  -4034429.8223  -2458280.0767   5   9   4.5376   4.9871   4.4106  -4.0700   2.5498  -2.9829   0.00    0.0
2019/01/15 09:25:28.000   4280222.6088  -4034426.5237  -2458274.6327   5  10   4.2587   4.5985   3.0893  -3.6801   0.6521  -1.9907   0.00    0.0
2019/01/15 09:25:29.000   4280225.1765  -4034429.5035  -2458280.0214   5   9   4.5381   4.9873   4.4097  -4.0706   2.5494  -2.9818   0.00    0.0
2019/01/15 09:25:30.000   4280225.1837  -4034429.4368  -2458280.0458   5   9   4.5383   4.9875   4.4092  -4.0708   2.5492  -2.9812   0.00    0.0
2019/01/15 09:25:31.000   4280224.9829  -4034429.2627  -2458279.6441   5   9   4.5385   4.9876   4.4088  -4.0711   2.5490  -2.9806   0.00    0.0
2019/01/15 09:25:32.000   4280224.7693  -4034428.9410  -2458279.4927   5   9   4.5388   4.9877   4.4083  -4.0714   2.5488  -2.9800   0.00    0.0
2019/01/15 09:25:33.000   4280224.6621  -4034428.8235  -2458279.4311   5   9   4.5390   4.9879   4.4079  -4.0717   2.5486  -2.9794   0.00    0.0
2019/01/15 09:25:34.000   4280224.5296  -4034428.5404  -2458279.4192   5   9   4.5392   4.9880   4.4074  -4.0719   2.5484  -2.9788   0.00    0.0
2019/01/15 09:25:35.000   4280224.4676  -4034428.4183  -2458279.4663   5   9   4.5394   4.9881   4.4069  -4.0722   2.5483  -2.9782   0.00    0.0
2019/01/15 09:25:36.000   4280224.4691  -4034428.3435  -2458279.3222   5   9   4.5397   4.9882   4.4065  -4.0725   2.5481  -2.9776   0.00    0.0
2019/01/15 09:25:37.000   4280224.4492  -4034428.2622  -2458279.4405   5   9   4.5399   4.9884   4.4060  -4.0727   2.5479  -2.9771   0.00    0.0
2019/01/15 09:25:38.000   4280221.6747  -4034422.5178  -2458280.9465   5  10   4.2313   3.8964   4.3426  -3.3856   2.9667  -3.1750   0.00    0.0
2019/01/15 09:25:39.000   4280222.1383  -4034423.0202  -2458280.8482   5  10   4.2313   3.8962   4.3422  -3.3855   2.9664  -3.1744   0.00    0.0
2019/01/15 09:25:40.000   4280222.1648  -4034422.9757  -2458280.9886   5  10   4.2312   3.8960   4.3419  -3.3854   2.9660  -3.1738   0.00    0.0
2019/01/15 09:25:41.000   4280222.8304  -4034424.0880  -2458280.8368   5  10   4.2312   3.8958   4.3415  -3.3853   2.9656  -3.1732   0.00    0.0
2019/01/15 09:25:42.000   4280222.8534  -4034424.3771  -2458280.1018   5  10   4.2312   3.8956   4.3411  -3.3852   2.9652  -3.1726   0.00    0.0
2019/01/15 09:25:43.000   4280222.7413  -4034424.2034  -2458280.0474   5  10   4.2311   3.8955   4.3407  -3.3850   2.9648  -3.1720   0.00    0.0
2019/01/15 09:25:44.000   4280222.8767  -4034424.2906  -2458280.2289   5  10   4.2311   3.8953   4.3403  -3.3849   2.9645  -3.1714   0.00    0.0
2019/01/15 09:25:45.000   4280222.6039  -4034424.0581  -2458279.7687   5  10   4.2310   3.8951   4.3399  -3.3848   2.9641  -3.1708   0.00    0.0
2019/01/15 09:25:46.000   4280222.3072  -4034423.8464  -2458279.4457   5  10   4.2310   3.8949   4.3396  -3.3847   2.9637  -3.1702   0.00    0.0
2019/01/15 09:25:47.000   4280222.2512  -4034423.7786  -2458279.4223   5  10   4.2310   3.8947   4.3392  -3.3846   2.9633  -3.1696   0.00    0.0
2019/01/15 09:25:48.000   4280222.5902  -4034423.8842  -2458279.8262   5  10   4.2309   3.8946   4.3388  -3.3845   2.9630  -3.1690   0.00    0.0
2019/01/15 09:25:49.000   4280222.5177  -4034423.7257  -2458279.7335   5  10   4.2309   3.8944   4.3384  -3.3843   2.9626  -3.1684   0.00    0.0
2019/01/15 09:27:31.000   4280216.8627  -4034414.5969  -2458270.9519   5  12   4.2082   3.7742   4.1843  -3.3666   3.0690  -3.1156   0.00    0.0
2019/01/15 09:27:32.000   4280216.8126  -4034414.5811  -2458270.8377   5  12   4.2081   3.7740   4.1840  -3.3664   3.0686  -3.1151   0.00    0.0
2019/01/15 09:27:33.000   4280216.9406  -4034414.6707  -2458270.9686   5  12   4.2081   3.7737   4.1837  -3.3662   3.0682  -3.1146   0.00    0.0
2019/01/15 09:27:34.000   4280216.7940  -4034414.6086  -2458270.7231   5  12   4.2080   3.7734   4.1835  -3.3660   3.0679  -3.1141   0.00    0.0
2019/01/15 09:27:35.000   4280216.7195  -4034414.5115  -2458270.5749   5  12   4.2080   3.7731   4.1832  -3.3658   3.0675  -3.1136   0.00    0.0
2019/01/15 09:27:36.000   4280216.8631  -4034414.5609  -2458270.8395   5  12   4.2079   3.7729   4.1829  -3.3656   3.0671  -3.1131   0.00    0.0
2019/01/15 09:27:37.000   4280216.9382  -4034414.4898  -2458270.9607   5  12   4.2079   3.7726   4.1826  -3.3654   3.0667  -3.1126   0.00    0.0
2019/01/15 09:27:38.000   4280216.9303  -4034414.2320  -2458271.0473   5  12   4.2078   3.7723   4.1823  -3.3652   3.0663  -3.1122   0.00    0.0
2019/01/15 09:27:39.000   4280216.7053  -4034414.1123  -2458270.8789   5  11   4.2215   3.7935   4.2036  -3.3446   3.0379  -3.1348   0.00    0.0
2019/01/15 09:27:40.000   4280216.9205  -4034413.8600  -2458271.1774   5  12   4.2078   3.7718   4.1817  -3.3647   3.0656  -3.1112   0.00    0.0
2019/01/15 09:27:41.000   4280216.8044  -4034413.9276  -2458271.1016   5  11   4.2214   3.7930   4.2029  -3.3441   3.0372  -3.1338   0.00    0.0
2019/01/15 09:27:42.000   4280216.7035  -4034413.7211  -2458271.0660   5  11   4.2214   3.7927   4.2026  -3.3439   3.0368  -3.1333   0.00    0.0
2019/01/15 09:27:43.000   4280216.8344  -4034413.6772  -2458271.1829   5  11   4.2213   3.7925   4.2023  -3.3437   3.0365  -3.1328   0.00    0.0
2019/01/15 09:27:44.000   4280216.9405  -4034413.6695  -2458271.2202   5  11   4.2212   3.7922   4.2019  -3.3435   3.0361  -3.1323   0.00    0.0
2019/01/15 09:27:45.000   4280217.0469  -4034413.6444  -2458271.3582   5  11   4.2212   3.7920   4.2016  -3.3433   3.0358  -3.1317   0.00    0.0
2019/01/15 09:27:46.000   4280217.3277  -4034413.2267  -2458271.7696   5  12   4.2075   3.7702   4.1800  -3.3635   3.0633  -3.1083   0.00    0.0
2019/01/15 09:27:47.000   4280217.3920  -4034413.1428  -2458271.9221   5  12   4.2074   3.7699   4.1797  -3.3633   3.0630  -3.1078   0.00    0.0
2019/01/15 09:27:48.000   4280217.0224  -4034413.3148  -2458271.4707   5  11   4.2210   3.7912   4.2006  -3.3427   3.0347  -3.1302   0.00    0.0
2019/01/15 09:27:49.000   4280217.1495  -4034413.4137  -2458271.5586   5  11   4.2210   3.7910   4.2003  -3.3425   3.0343  -3.1297   0.00    0.0
2019/01/15 09:27:50.000   4280217.1553  -4034413.3468  -2458271.5099   5  11   4.2209   3.7907   4.1999  -3.3423   3.0340  -3.1292   0.00    0.0
2019/01/15 09:27:51.000   4280217.2669  -4034413.3474  -2458271.4898   5  11   4.2209   3.7905   4.1996  -3.3421   3.0336  -3.1286   0.00    0.0
2019/01/15 09:27:52.000   4280217.2755  -4034413.3184  -2458271.5389   5  11   4.2208   3.7902   4.1993  -3.3419   3.0332  -3.1281   0.00    0.0
2019/01/15 09:27:53.000   4280217.5444  -4034413.4581  -2458271.6377   5  11   4.2207   3.7900   4.1989  -3.3417   3.0329  -3.1276   0.00    0.0
2019/01/15 09:27:54.000   4280217.5309  -4034413.3970  -2458271.5812   5  11   4.2207   3.7897   4.1986  -3.3415   3.0325  -3.1271   0.00    0.0
2019/01/15 09:27:55.000   4280217.3918  -4034413.2929  -2458271.5396   5  11   4.2206   3.7895   4.1983  -3.3413   3.0321  -3.1266   0.00    0.0
2019/01/15 09:27:56.000   4280217.3003  -4034413.1685  -2458271.4740   5  11   4.2206   3.7892   4.1979  -3.3411   3.0318  -3.1261   0.00    0.0
2019/01/15 09:27:57.000   4280217.4178  -4034413.2690  -2458271.5702   5  11   4.2205   3.7890   4.1976  -3.3409   3.0314  -3.1255   0.00    0.0
2019/01/15 09:27:58.000   4280217.2795  -4034413.1947  -2458271.5524   5  11   4.2205   3.7887   4.1973  -3.3407   3.0311  -3.1250   0.00    0.0
2019/01/15 09:27:59.000   4280217.3158  -4034413.1758  -2458271.6643   5  11   4.2204   3.7885   4.1969  -3.3405   3.0307  -3.1245   0.00    0.0
2019/01/15 09:28:00.000   4280217.2228  -4034413.0863  -2458271.6170   5  11   4.2204   3.7882   4.1966  -3.3402   3.0303  -3.1240   0.00    0.0
2019/01/15 09:28:01.000   4280217.1377  -4034412.9531  -2458271.6181   5  11   4.2203   3.7880   4.1963  -3.3400   3.0300  -3.1235   0.00    0.0
2019/01/15 09:28:02.000   4280217.1563  -4034412.9593  -2458271.6449   5  11   4.2203   3.7877   4.1959  -3.3398   3.0296  -3.1229   0.00    0.0
2019/01/15 09:28:03.000   4280217.3848  -4034413.0489  -2458271.7491   5  11   4.2202   3.7875   4.1956  -3.3396   3.0292  -3.1224   0.00    0.0
2019/01/15 09:28:04.000   4280217.4543  -4034413.3004  -2458272.0065   5  11   4.2202   3.7872   4.1952  -3.3394   3.0289  -3.1219   0.00    0.0
2019/01/15 09:28:05.000   4280217.5319  -4034412.8786  -2458272.5943   5  12   4.2066   3.7651   4.1744  -3.3596   3.0562  -3.0990   0.00    0.0
2019/01/15 09:28:06.000   4280217.3355  -4034412.8837  -2458272.6586   5  12   4.2066   3.7649   4.1741  -3.3594   3.0558  -3.0985   0.00    0.0
2019/01/15 09:28:07.000   4280217.5517  -4034413.2373  -2458272.7129   5  12   4.2066   3.7646   4.1738  -3.3592   3.0554  -3.0980   0.00    0.0
2019/01/15 09:28:08.000   4280217.7507  -4034413.5673  -2458272.6657   5  12   4.2065   3.7643   4.1735  -3.3590   3.0550  -3.0975   0.00    0.0
2019/01/15 09:28:09.000   4280218.1525  -4034413.9853  -2458272.7928   5  12   4.2065   3.7641   4.1732  -3.3588   3.0546  -3.0970   0.00    0.0
2019/01/15 09:28:10.000   4280218.6004  -4034414.3382  -2458272.9100   5  12   4.2064   3.7638   4.1730  -3.3586   3.0543  -3.0965   0.00    0.0
2019/01/15 09:28:11.000   4280218.9320  -4034414.3668  -2458272.7709   5  12   4.2064   3.7635   4.1727  -3.3584   3.0539  -3.0960   0.00    0.0
2019/01/15 09:28:12.000   4280218.8745  -4034414.3718  -2458272.5713   5  12   4.2063   3.7633   4.1724  -3.3582   3.0535  -3.0955   0.00    0.0
2019/01/15 09:28:13.000   4280218.6445  -4034414.3090  -2458272.4387   5  12   4.2063   3.7630   4.1721  -3.3580   3.0531  -3.0951   0.00    0.0
2019/01/15 09:28:14.000   4280218.5504  -4034414.5270  -2458272.4880   5  12   4.2063   3.7628   4.1718  -3.3578   3.0527  -3.0946   0.00    0.0
2019/01/15 09:28:15.000   4280218.9405  -4034415.1788  -2458272.7232   5  12   4.2062   3.7625   4.1715  -3.3576   3.0524  -3.0941   0.00    0.0
2019/01/15 09:28:16.000   4280219.4193  -4034415.6005  -2458272.6931   5  12   4.2062   3.7622   4.1712  -3.3574   3.0520  -3.0936   0.00    0.0
2019/01/15 09:28:17.000   4280219.9631  -4034415.8053  -2458272.7975   5  12   4.2061   3.7620   4.1709  -3.3572   3.0516  -3.0931   0.00    0.0
2019/01/15 09:28:18.000   4280220.1058  -4034415.7795  -2458272.5596   5  12   4.2061   3.7617   4.1706  -3.3570   3.0512  -3.0926   0.00    0.0
2019/01/15 09:28:19.000   4280220.1879  -4034415.9248  -2458272.4832   5  12   4.2060   3.7614   4.1703  -3.3568   3.0508  -3.0921   0.00    0.0
2019/01/15 09:28:20.000   4280219.6827  -4034415.7937  -2458272.3130   5  12   4.2060   3.7612   4.1700  -3.3566   3.0505  -3.0916   0.00    0.0
2019/01/15 09:28:21.000   4280219.2089  -4034415.6533  -2458272.1806   5  12   4.2060   3.7609   4.1697  -3.3564   3.0501  -3.0911   0.00    0.0
2019/01/15 09:28:22.000   4280218.6597  -4034415.4622  -2458272.1119   5  12   4.2059   3.7606   4.1694  -3.3562   3.0497  -3.0906   0.00    0.0
2019/01/15 09:28:23.000   4280218.5525  -4034415.2936  -2458272.0801   5  12   4.2059   3.7604   4.1691  -3.3560   3.0493  -3.0901   0.00    0.0
2019/01/15 09:28:24.000   4280219.0575  -4034415.4520  -2458272.4587   5  12   4.2058   3.7601   4.1688  -3.3558   3.0489  -3.0896   0.00    0.0
2019/01/15 09:28:25.000   4280219.6292  -4034415.5976  -2458272.8181   5  12   4.2058   3.7598   4.1685  -3.3556   3.0486  -3.0891   0.00    0.0
2019/01/15 09:28:26.000   4280220.0759  -4034415.8508  -2458273.1206   5  12   4.2058   3.7596   4.1682  -3.3554   3.0482  -3.0886   0.00    0.0
2019/01/15 09:28:27.000   4280220.1761  -4034415.9772  -2458273.1913   5  12   4.2057   3.7593   4.1679  -3.3552   3.0478  -3.0881   0.00    0.0
2019/01/15 09:28:28.000   4280220.1849  -4034416.1485  -2458273.2570   5  12   4.2057   3.7591   4.1676  -3.3550   3.0474  -3.0877   0.00    0.0
2019/01/15 09:28:29.000   4280220.3024  -4034416.2580  -2458273.3422   5  12   4.2056   3.7588   4.1673  -3.3548   3.0470  -3.0872   0.00    0.0
2019/01/15 09:28:30.000   4280220.5357  -4034416.5812  -2458273.4369   5  12   4.2056   3.7585   4.1670  -3.3546   3.0467  -3.0867   0.00    0.0
2019/01/15 09:28:31.000   4280220.8331  -4034416.6880  -2458273.3842   5  12   4.2055   3.7583   4.1667  -3.3544   3.0463  -3.0862   0.00    0.0
2019/01/15 09:28:32.000   4280220.6598  -4034416.3409  -2458273.2794   5  12   4.2055   3.7580   4.1664  -3.3542   3.0459  -3.0857   0.00    0.0
2019/01/15 09:28:33.000   4280220.5216  -4034416.1042  -2458273.1851   5  12   4.2055   3.7577   4.1661  -3.3540   3.0455  -3.0852   0.00    0.0
2019/01/15 09:28:34.000   4280220.2952  -4034415.8828  -2458273.1051   5  12   4.2054   3.7575   4.1658  -3.3538   3.0451  -3.0847   0.00    0.0
2019/01/15 09:28:35.000   4280220.3026  -4034415.7161  -2458273.0210   5  12   4.2054   3.7572   4.1655  -3.3536   3.0448  -3.0842   0.00    0.0
2019/01/15 09:28:36.000   4280220.7550  -4034415.8673  -2458273.0374   5  12   4.2053   3.7570   4.1652  -3.3534   3.0444  -3.0837   0.00    0.0
2019/01/15 09:28:37.000   4280220.9295  -4034415.8470  -2458272.9208   5  12   4.2053   3.7567   4.1649  -3.3532   3.0440  -3.0832   0.00    0.0
2019/01/15 09:28:38.000   4280220.8626  -4034415.7390  -2458272.7135   5  12   4.2053   3.7564   4.1646  -3.3530   3.0436  -3.0827   0.00    0.0
2019/01/15 09:28:39.000   4280220.7727  -4034415.7292  -2458272.6730   5  12   4.2052   3.7562   4.1643  -3.3528   3.0432  -3.0822   0.00    0.0
2019/01/15 09:28:40.000   4280220.9277  -4034415.9660  -2458272.7184   5  12   4.2052   3.7559   4.1640  -3.3526   3.0429  -3.0817   0.00    0.0
2019/01/15 09:28:41.000   4280221.1253  -4034416.1033  -2458272.6420   5  12   4.2051   3.7556   4.1637  -3.3524   3.0425  -3.0812   0.00    0.0
2019/01/15 09:28:42.000   4280221.2756  -4034416.1363  -2458272.6272   5  12   4.2051   3.7554   4.1633  -3.3522   3.0421  -3.0807   0.00    0.0
2019/01/15 09:28:43.000   4280221.1166  -4034415.7717  -2458272.4828   5  12   4.2051   3.7551   4.1630  -3.3520   3.0417  -3.0802   0.00    0.0
2019/01/15 09:28:44.000   4280220.7798  -4034415.4677  -2458272.5472   5  12   4.2050   3.7549   4.1627  -3.3518   3.0413  -3.0797   0.00    0.0
2019/01/15 09:28:45.000   4280220.4588  -4034415.1969  -2458272.5574   5  12   4.2050   3.7546   4.1624  -3.3516   3.0410  -3.0792   0.00    0.0
2019/01/15 09:28:46.000   4280220.0666  -4034414.7307  -2458272.4363   5  12   4.2049   3.7543   4.1621  -3.3514   3.0406  -3.0787   0.00    0.0
2019/01/15 09:28:47.000   4280219.8148  -4034414.3535  -2458272.1328   5  12   4.2049   3.7541   4.1618  -3.3512   3.0402  -3.0782   0.00    0.0
2019/01/15 09:28:48.000   4280219.9909  -4034414.3627  -2458271.9010   5  12   4.2049   3.7538   4.1615  -3.3510   3.0398  -3.0777   0.00    0.0
2019/01/15 09:28:49.000   4280219.8643  -4034414.3553  -2458271.7625   5  12   4.2048   3.7536   4.1612  -3.3508   3.0394  -3.0772   0.00    0.0
2019/01/15 09:28:50.000   4280219.4976  -4034414.1402  -2458271.7884   5  12   4.2048   3.7533   4.1609  -3.3506   3.0390  -3.0767   0.00    0.0
2019/01/15 09:28:51.000   4280219.5413  -4034414.0346  -2458271.7487   5  12   4.2047   3.7530   4.1606  -3.3504   3.0387  -3.0762   0.00    0.0
2019/01/15 09:28:52.000   4280219.7537  -4034414.1164  -2458272.0358   5  12   4.2047   3.7528   4.1603  -3.3502   3.0383  -3.0757   0.00    0.0
2019/01/15 09:28:53.000   4280220.1664  -4034414.3845  -2458272.4688   5  12   4.2047   3.7525   4.1600  -3.3500   3.0379  -3.0752   0.00    0.0
2019/01/15 09:28:54.000   4280220.5717  -4034414.6993  -2458272.8598   5  12   4.2046   3.7523   4.1597  -3.3498   3.0375  -3.0747   0.00    0.0
2019/01/15 09:28:55.000   4280220.5734  -4034414.7084  -2458272.9391   5  12   4.2046   3.7520   4.1594  -3.3496   3.0371  -3.0742   0.00    0.0
2019/01/15 09:28:56.000   4280220.1863  -4034414.6235  -2458272.7151   5  12   4.2045   3.7517   4.1591  -3.3494   3.0367  -3.0737   0.00    0.0
2019/01/15 09:28:57.000   4280219.6784  -4034414.5653  -2458272.5194   5  12   4.2045   3.7515   4.1588  -3.3492   3.0364  -3.0732   0.00    0.0
2019/01/15 09:28:58.000   4280219.2808  -4034414.5429  -2458272.5524   5  12   4.2045   3.7512   4.1585  -3.3490   3.0360  -3.0727   0.00    0.0
2019/01/15 09:28:59.000   4280218.8171  -4034414.3615  -2458272.4987   5  12   4.2044   3.7510   4.1581  -3.3488   3.0356  -3.0722   0.00    0.0
2019/01/15 09:29:00.000   4280218.5836  -4034414.2322  -2458272.5604   5  12   4.2044   3.7507   4.1578  -3.3486   3.0352  -3.0717   0.00    0.0
2019/01/15 09:29:01.000   4280218.8561  -4034414.1765  -2458272.7693   5  12   4.2043   3.7504   4.1575  -3.3484   3.0348  -3.0712   0.00    0.0
2019/01/15 09:29:02.000   4280219.2538  -4034414.0715  -2458272.8600   5  12   4.2043   3.7502   4.1572  -3.3482   3.0345  -3.0707   0.00    0.0
2019/01/15 09:29:03.000   4280220.0031  -4034414.3733  -2458272.9167   5  12   4.2043   3.7499   4.1569  -3.3480   3.0341  -3.0702   0.00    0.0
2019/01/15 09:29:04.000   4280220.2931  -4034414.7840  -2458272.9942   5  12   4.2042   3.7497   4.1566  -3.3478   3.0337  -3.0697   0.00    0.0
2019/01/15 09:29:05.000   4280220.1669  -4034414.8602  -2458272.8199   5  12   4.2042   3.7494   4.1563  -3.3476   3.0333  -3.0692   0.00    0.0
2019/01/15 09:29:06.000   4280219.7377  -4034414.6689  -2458272.3732   5  12   4.2042   3.7491   4.1560  -3.3474   3.0329  -3.0687   0.00    0.0
2019/01/15 09:29:07.000   4280219.4831  -4034414.7386  -2458272.1523   5  12   4.2041   3.7489   4.1557  -3.3472   3.0325  -3.0682   0.00    0.0
2019/01/15 09:29:08.000   4280219.3905  -4034414.7276  -2458272.0021   5  12   4.2041   3.7486   4.1554  -3.3470   3.0322  -3.0677   0.00    0.0
2019/01/15 09:29:09.000   4280219.3140  -4034414.6493  -2458271.8429   5  12   4.2040   3.7484   4.1551  -3.3468   3.0318  -3.0672   0.00    0.0
2019/01/15 09:29:10.000   4280219.1723  -4034414.4915  -2458271.7581   5  12   4.2040   3.7481   4.1547  -3.3466   3.0314  -3.0667   0.00    0.0
2019/01/15 09:29:11.000   4280218.9478  -4034414.3250  -2458271.4749   5  12   4.2040   3.7478   4.1544  -3.3464   3.0310  -3.0662   0.00    0.0
2019/01/15 09:29:12.000   4280218.7968  -4034414.1734  -2458271.3822   5  12   4.2039   3.7476   4.1541  -3.3462   3.0306  -3.0657   0.00    0.0
2019/01/15 09:29:13.000   4280218.3612  -4034413.7966  -2458271.0807   5  12   4.2039   3.7473   4.1538  -3.3460   3.0302  -3.0652   0.00    0.0
2019/01/15 09:29:14.000   4280218.0588  -4034413.6429  -2458270.8196   5  12   4.2039   3.7471   4.1535  -3.3458   3.0299  -3.0647   0.00    0.0
2019/01/15 09:29:15.000   4280218.0625  -4034413.5384  -2458270.6205   5  12   4.2038   3.7468   4.1532  -3.3456   3.0295  -3.0642   0.00    0.0
2019/01/15 09:29:16.000   4280218.5482  -4034413.7985  -2458270.5355   5  12   4.2038   3.7466   4.1529  -3.3454   3.0291  -3.0637   0.00    0.0
2019/01/15 09:29:17.000   4280218.7418  -4034413.8562  -2458270.3013   5  12   4.2037   3.7463   4.1526  -3.3452   3.0287  -3.0632   0.00    0.0
2019/01/15 09:29:18.000   4280218.4492  -4034413.7469  -2458270.0354   5  12   4.2037   3.7460   4.1522  -3.3450   3.0283  -3.0627   0.00    0.0
2019/01/15 09:29:19.000   4280218.1983  -4034413.5258  -2458269.6943   5  12   4.2037   3.7458   4.1519  -3.3448   3.0279  -3.0622   0.00    0.0
2019/01/15 09:29:20.000   4280218.3231  -4034413.5468  -2458269.3813   5  12   4.2036   3.7455   4.1516  -3.3446   3.0276  -3.0617   0.00    0.0
2019/01/15 09:29:21.000   4280218.3983  -4034413.4748  -2458269.1829   5  12   4.2036   3.7453   4.1513  -3.3444   3.0272  -3.0612   0.00    0.0
2019/01/15 09:29:22.000   4280218.0623  -4034412.8621  -2458268.7932   5  12   4.2036   3.7450   4.1510  -3.3442   3.0268  -3.0607   0.00    0.0
2019/01/15 09:29:23.000   4280217.4551  -4034412.1328  -2458268.3758   5  12   4.2035   3.7448   4.1507  -3.3440   3.0264  -3.0602   0.00    0.0
2019/01/15 09:29:24.000   4280217.3205  -4034411.9293  -2458268.2987   5  12   4.2035   3.7445   4.1504  -3.3438   3.0260  -3.0596   0.00    0.0
2019/01/15 09:29:25.000   4280217.4086  -4034412.1219  -2458268.2953   5  12   4.2035   3.7442   4.1501  -3.3436   3.0256  -3.0591   0.00    0.0
2019/01/15 09:29:26.000   4280217.5773  -4034412.4891  -2458268.5577   5  12   4.2034   3.7440   4.1497  -3.3434   3.0252  -3.0586   0.00    0.0
2019/01/15 09:29:27.000   4280217.6161  -4034412.8069  -2458268.6722   5  12   4.2034   3.7437   4.1494  -3.3432   3.0249  -3.0581   0.00    0.0
2019/01/15 09:29:28.000   4280217.5608  -4034412.8454  -2458268.4977   5  12   4.2033   3.7435   4.1491  -3.3430   3.0245  -3.0576   0.00    0.0
2019/01/15 09:29:29.000   4280217.4250  -4034412.9145  -2458268.3330   5  12   4.2033   3.7432   4.1488  -3.3428   3.0241  -3.0571   0.00    0.0
2019/01/15 09:29:30.000   4280217.2583  -4034412.9481  -2458268.1343   5  12   4.2033   3.7430   4.1485  -3.3426   3.0237  -3.0566   0.00    0.0
2019/01/15 09:29:31.000   4280217.0094  -4034412.6693  -2458267.8823   5  12   4.2032   3.7427   4.1482  -3.3424   3.0233  -3.0561   0.00    0.0
2019/01/15 09:29:32.000   4280216.6043  -4034412.1413  -2458267.3794   5  12   4.2032   3.7424   4.1479  -3.3422   3.0229  -3.0556   0.00    0.0
2019/01/15 09:29:33.000   4280216.6007  -4034411.9300  -2458267.1073   5  12   4.2032   3.7422   4.1475  -3.3420   3.0226  -3.0551   0.00    0.0
2019/01/15 09:29:34.000   4280216.4498  -4034411.7602  -2458267.0175   5  12   4.2031   3.7419   4.1472  -3.3418   3.0222  -3.0546   0.00    0.0
2019/01/15 09:29:35.000   4280215.8796  -4034411.3918  -2458266.8402   5  12   4.2031   3.7417   4.1469  -3.3416   3.0218  -3.0541   0.00    0.0
2019/01/15 09:29:36.000   4280215.3773  -4034411.1767  -2458266.6239   5  12   4.2031   3.7414   4.1466  -3.3414   3.0214  -3.0536   0.00    0.0
2019/01/15 09:29:37.000   4280215.2522  -4034411.2065  -2458266.5819   5  12   4.2030   3.7412   4.1463  -3.3412   3.0210  -3.0531   0.00    0.0
2019/01/15 09:29:38.000   4280215.0736  -4034411.2504  -2458266.5413   5  12   4.2030   3.7409   4.1460  -3.3410   3.0206  -3.0526   0.00    0.0
2019/01/15 09:29:39.000   4280215.2533  -4034411.5439  -2458266.5648   5  12   4.2030   3.7407   4.1456  -3.3408   3.0202  -3.0521   0.00    0.0
2019/01/15 09:29:40.000   4280215.6461  -4034411.7838  -2458266.4947   5  12   4.2029   3.7404   4.1453  -3.3407   3.0199  -3.0515   0.00    0.0
2019/01/15 09:29:41.000   4280215.9472  -4034411.7805  -2458266.2280   5  12   4.2029   3.7401   4.1450  -3.3405   3.0195  -3.0510   0.00    0.0
2019/01/15 09:29:42.000   4280216.0483  -4034411.7262  -2458266.2822   5  12   4.2029   3.7399   4.1447  -3.3403   3.0191  -3.0505   0.00    0.0
2019/01/15 09:29:43.000   4280216.0137  -4034411.7493  -2458266.6335   5  12   4.2028   3.7396   4.1444  -3.3401   3.0187  -3.0500   0.00    0.0
2019/01/15 09:29:44.000   4280215.9776  -4034411.8797  -2458266.8637   5  12   4.2028   3.7394   4.1440  -3.3399   3.0183  -3.0495   0.00    0.0
2019/01/15 09:29:45.000   4280216.0787  -4034412.5018  -2458267.3663   5  12   4.2027   3.7391   4.1437  -3.3397   3.0179  -3.0490   0.00    0.0
2019/01/15 09:29:46.000   4280216.2535  -4034412.9682  -2458267.6631   5  12   4.2027   3.7389   4.1434  -3.3395   3.0175  -3.0485   0.00    0.0
2019/01/15 09:29:47.000   4280216.5967  -4034413.2440  -2458267.5490   5  12   4.2027   3.7386   4.1431  -3.3393   3.0172  -3.0480   0.00    0.0
2019/01/15 09:29:48.000   4280216.6476  -4034413.2427  -2458267.2034   5  12   4.2026   3.7384   4.1428  -3.3391   3.0168  -3.0475   0.00    0.0
2019/01/15 09:29:49.000   4280216.8439  -4034413.3373  -2458266.8489   5  12   4.2026   3.7381   4.1425  -3.3389   3.0164  -3.0470   0.00    0.0
2019/01/15 09:29:50.000   4280216.5929  -4034413.1828  -2458266.5795   5  12   4.2026   3.7379   4.1421  -3.3387   3.0160  -3.0465   0.00    0.0
2019/01/15 09:29:51.000   4280216.7526  -4034413.1037  -2458266.6645   5  12   4.2025   3.7376   4.1418  -3.3385   3.0156  -3.0460   0.00    0.0
2019/01/15 09:29:52.000   4280216.9065  -4034412.8815  -2458266.4213   5  12   4.2025   3.7373   4.1415  -3.3383   3.0152  -3.0454   0.00    0.0
2019/01/15 09:29:53.000   4280216.9250  -4034412.7529  -2458266.0841   5  12   4.2025   3.7371   4.1412  -3.3381   3.0148  -3.0449   0.00    0.0
2019/01/15 09:29:54.000   4280216.3613  -4034412.2581  -2458265.5987   5  12   4.2024   3.7368   4.1409  -3.3379   3.0145  -3.0444   0.00    0.0
2019/01/15 09:29:55.000   4280216.0443  -4034411.9507  -2458265.2704   5  12   4.2024   3.7366   4.1405  -3.3377   3.0141  -3.0439   0.00    0.0
2019/01/15 09:29:56.000   4280216.2086  -4034412.1715  -2458265.4499   5  12   4.2024   3.7363   4.1402  -3.3375   3.0137  -3.0434   0.00    0.0
2019/01/15 09:29:57.000   4280216.3371  -4034412.4523  -2458265.7407   5  12   4.2023   3.7361   4.1399  -3.3373   3.0133  -3.0429   0.00    0.0
2019/01/15 09:29:58.000   4280216.2970  -4034412.5832  -2458265.7762   5  12   4.2023   3.7358   4.1396  -3.3371   3.0129  -3.0424   0.00    0.0
2019/01/15 09:29:59.000   4280216.6932  -4034413.0434  -2458266.0195   5  12   4.2023   3.7356   4.1392  -3.3369   3.0125  -3.0419   0.00    0.0
2019/01/15 09:30:00.000   4280217.1113  -4034413.4777  -2458266.2360   5  12   4.2022   3.7353   4.1389  -3.3367   3.0121  -3.0414   0.00    0.0
2019/01/15 09:30:01.000   4280217.2929  -4034413.5207  -2458266.1387   5  12   4.2022   3.7351   4.1386  -3.3365   3.0118  -3.0408   0.00    0.0
2019/01/15 09:30:02.000   4280217.1221  -4034413.2291  -2458266.0836   5  12   4.2022   3.7348   4.1383  -3.3363   3.0114  -3.0403   0.00    0.0
2019/01/15 09:30:03.000   4280217.0760  -4034412.9124  -2458266.1426   5  12   4.2021   3.7346   4.1380  -3.3362   3.0110  -3.0398   0.00    0.0
2019/01/15 09:30:04.000   4280217.1365  -4034412.7017  -2458265.9624   5  12   4.2021   3.7343   4.1376  -3.3360   3.0106  -3.0393   0.00    0.0
2019/01/15 09:30:05.000   4280217.5430  -4034413.0519  -2458266.1068   5  12   4.2021   3.7341   4.1373  -3.3358   3.0102  -3.0388   0.00    0.0
2019/01/15 09:30:06.000   4280217.9130  -4034413.3762  -2458266.1972   5  12   4.2020   3.7338   4.1370  -3.3356   3.0098  -3.0383   0.00    0.0
2019/01/15 09:30:07.000   4280218.1292  -4034413.5763  -2458266.1837   5  12   4.2020   3.7336   4.1367  -3.3354   3.0094  -3.0378   0.00    0.0
2019/01/15 09:30:08.000   4280218.2118  -4034413.5499  -2458266.0066   5  12   4.2020   3.7333   4.1363  -3.3352   3.0090  -3.0373   0.00    0.0
2019/01/15 09:30:09.000   4280218.1178  -4034413.4058  -2458265.8003   5  12   4.2020   3.7330   4.1360  -3.3350   3.0087  -3.0368   0.00    0.0
2019/01/15 09:30:10.000   4280217.9841  -4034413.4298  -2458265.5767   5  12   4.2019   3.7328   4.1357  -3.3348   3.0083  -3.0362   0.00    0.0
2019/01/15 09:30:11.000   4280219.3027  -4034414.4277  -2458265.9599   5  11   4.6600   3.9597   4.2449  -3.7126   3.2115  -3.3386   0.00    0.0
2019/01/15 09:30:12.000   4280219.7766  -4034414.7736  -2458265.9669   5  11   4.6600   3.9595   4.2446  -3.7124   3.2112  -3.3382   0.00    0.0
2019/01/15 09:30:13.000   4280220.1410  -4034415.0088  -2458265.8743   5  11   4.6600   3.9592   4.2443  -3.7122   3.2109  -3.3378   0.00    0.0
2019/01/15 09:30:14.000   4280220.2944  -4034415.2272  -2458265.7156   5  11   4.6600   3.9590   4.2441  -3.7121   3.2106  -3.3374   0.00    0.0
2019/01/15 09:30:15.000   4280220.5493  -4034415.6702  -2458265.7808   5  11   4.6600   3.9588   4.2438  -3.7119   3.2102  -3.3370   0.00    0.0
2019/01/15 09:30:16.000   4280220.9199  -4034416.1762  -2458266.0843   5  11   4.6600   3.9586   4.2435  -3.7118   3.2099  -3.3366   0.00    0.0
2019/01/15 09:30:17.000   4280221.2319  -4034416.5021  -2458266.2244   5  11   4.6600   3.9583   4.2433  -3.7116   3.2096  -3.3362   0.00    0.0
2019/01/15 09:30:18.000   4280222.2543  -4034417.0451  -2458266.5440   5  12   4.2017   3.7308   4.1331  -3.3332   3.0052  -3.0321   0.00    0.0
2019/01/15 09:30:19.000   4280222.3666  -4034416.9820  -2458266.4195   5  12   4.2016   3.7305   4.1328  -3.3330   3.0048  -3.0316   0.00    0.0
2019/01/15 09:30:20.000   4280222.6436  -4034416.9709  -2458266.2740   5  12   4.2016   3.7303   4.1324  -3.3329   3.0044  -3.0311   0.00    0.0
2019/01/15 09:30:21.000   4280222.9673  -4034417.0245  -2458266.2829   5  12   4.2016   3.7300   4.1321  -3.3327   3.0040  -3.0306   0.00    0.0
2019/01/15 09:30:22.000   4280222.8412  -4034416.8618  -2458266.0913   5  12   4.2015   3.7298   4.1318  -3.3325   3.0036  -3.0301   0.00    0.0
2019/01/15 09:30:23.000   4280222.5535  -4034416.7923  -2458265.8603   5  12   4.2015   3.7295   4.1315  -3.3323   3.0032  -3.0296   0.00    0.0
2019/01/15 09:30:24.000   4280222.5024  -4034416.8330  -2458265.7018   5  12   4.2015   3.7293   4.1311  -3.3321   3.0029  -3.0290   0.00    0.0
2019/01/15 09:30:25.000   4280222.4408  -4034416.7980  -2458265.6363   5  12   4.2015   3.7290   4.1308  -3.3319   3.0025  -3.0285   0.00    0.0
2019/01/15 09:30:26.000   4280222.1902  -4034416.7056  -2458265.3719   5  12   4.2014   3.7288   4.1305  -3.3317   3.0021  -3.0280   0.00    0.0
2019/01/15 09:30:27.000   4280221.7642  -4034416.4180  -2458264.9781   5  12   4.2014   3.7285   4.1302  -3.3315   3.0017  -3.0275   0.00    0.0
2019/01/15 09:30:28.000   4280221.4300  -4034416.1956  -2458264.5639   5  12   4.2014   3.7283   4.1298  -3.3313   3.0013  -3.0270   0.00    0.0
2019/01/15 09:30:29.000   4280221.0093  -4034415.7478  -2458264.2752   5  12   4.2013   3.7280   4.1295  -3.3311   3.0009  -3.0265   0.00    0.0
2019/01/15 09:30:30.000   4280220.5359  -4034415.3793  -2458264.0821   5  12   4.2013   3.7278   4.1292  -3.3309   3.0005  -3.0260   0.00    0.0
2019/01/15 09:30:31.000   4280220.4375  -4034415.1410  -2458264.1046   5  12   4.2013   3.7275   4.1288  -3.3307   3.0001  -3.0254   0.00    0.0
2019/01/15 09:30:32.000   4280220.4737  -4034414.8293  -2458264.1033   5  12   4.2012   3.7273   4.1285  -3.3305   2.9997  -3.0249   0.00    0.0
2019/01/15 09:30:33.000   4280220.3487  -4034414.6987  -2458263.9269   5  12   4.2012   3.7270   4.1282  -3.3304   2.9994  -3.0244   0.00    0.0
2019/01/15 09:30:34.000   4280220.4316  -4034414.8069  -2458264.0175   5  12   4.2012   3.7268   4.1279  -3.3302   2.9990  -3.0239   0.00    0.0
2019/01/15 09:30:35.000   4280220.3056  -4034414.6667  -2458263.8830   5  12   4.2012   3.7265   4.1275  -3.3300   2.9986  -3.0234   0.00    0.0
2019/01/15 09:30:36.000   4280220.2456  -4034414.6849  -2458264.0430   5  12   4.2011   3.7263   4.1272  -3.3298   2.9982  -3.0229   0.00    0.0
2019/01/15 09:30:37.000   4280220.4851  -4034414.9794  -2458264.2359   5  12   4.2011   3.7260   4.1269  -3.3296   2.9978  -3.0223   0.00    0.0
2019/01/15 09:30:38.000   4280220.7823  -4034415.3126  -2458264.5856   5  12   4.2011   3.7258   4.1265  -3.3294   2.9974  -3.0218   0.00    0.0
2019/01/15 09:30:39.000   4280221.0331  -4034415.5967  -2458264.6835   5  12   4.2010   3.7255   4.1262  -3.3292   2.9970  -3.0213   0.00    0.0
2019/01/15 09:30:40.000   4280221.1216  -4034415.5472  -2458264.5522   5  12   4.2010   3.7253   4.1259  -3.3290   2.9966  -3.0208   0.00    0.0
2019/01/15 09:30:41.000   4280220.6161  -4034415.3328  -2458264.1570   5  12   4.2010   3.7250   4.1255  -3.3288   2.9963  -3.0203   0.00    0.0
2019/01/15 09:30:42.000   4280219.8635  -4034414.9435  -2458263.6103   5  12   4.2010   3.7248   4.1252  -3.3286   2.9959  -3.0198   0.00    0.0
2019/01/15 09:30:43.000   4280219.6464  -4034414.7423  -2458263.2947   5  12   4.2009   3.7245   4.1249  -3.3284   2.9955  -3.0192   0.00    0.0
2019/01/15 09:30:44.000   4280219.8263  -4034414.7268  -2458263.3054   5  12   4.2009   3.7243   4.1246  -3.3282   2.9951  -3.0187   0.00    0.0
2019/01/15 09:30:45.000   4280219.7744  -4034414.7884  -2458263.5244   5  12   4.2009   3.7240   4.1242  -3.3281   2.9947  -3.0182   0.00    0.0
2019/01/15 09:30:46.000   4280219.7060  -4034414.8642  -2458263.9738   5  12   4.2008   3.7238   4.1239  -3.3279   2.9943  -3.0177   0.00    0.0
2019/01/15 09:30:47.000   4280219.3212  -4034414.7022  -2458264.2015   5  12   4.2008   3.7236   4.1236  -3.3277   2.9939  -3.0172   0.00    0.0
2019/01/15 09:30:48.000   4280219.0605  -4034414.5552  -2458264.3424   5  12   4.2008   3.7233   4.1232  -3.3275   2.9935  -3.0166   0.00    0.0
2019/01/15 09:30:49.000   4280219.1028  -4034414.6317  -2458264.4887   5  12   4.2008   3.7231   4.1229  -3.3273   2.9931  -3.0161   0.00    0.0
2019/01/15 09:30:50.000   4280219.3460  -4034414.8242  -2458264.6603   5  12   4.2007   3.7228   4.1226  -3.3271   2.9928  -3.0156   0.00    0.0
2019/01/15 09:30:51.000   4280219.3673  -4034415.0868  -2458264.6391   5  12   4.2007   3.7226   4.1222  -3.3269   2.9924  -3.0151   0.00    0.0
2019/01/15 09:30:52.000   4280219.5089  -4034415.2254  -2458264.6497   5  12   4.2007   3.7223   4.1219  -3.3267   2.9920  -3.0146   0.00    0.0
2019/01/15 09:30:53.000   4280219.5802  -4034415.3355  -2458264.9052   5  12   4.2007   3.7221   4.1216  -3.3265   2.9916  -3.0141   0.00    0.0
2019/01/15 09:30:54.000   4280219.4159  -4034415.2702  -2458265.0304   5  12   4.2006   3.7218   4.1212  -3.3263   2.9912  -3.0135   0.00    0.0
2019/01/15 09:30:55.000   4280219.0612  -4034415.1440  -2458265.1383   5  12   4.2006   3.7216   4.1209  -3.3261   2.9908  -3.0130   0.00    0.0
2019/01/15 09:30:56.000   4280219.0077  -4034415.2251  -2458265.1792   5  12   4.2006   3.7213   4.1206  -3.3260   2.9904  -3.0125   0.00    0.0
2019/01/15 09:30:57.000   4280218.9601  -4034415.1856  -2458265.2376   5  12   4.2005   3.7211   4.1202  -3.3258   2.9900  -3.0120   0.00    0.0
2019/01/15 09:30:58.000   4280218.9419  -4034415.2572  -2458265.1384   5  12   4.2005   3.7208   4.1199  -3.3256   2.9896  -3.0115   0.00    0.0
2019/01/15 09:30:59.000   4280219.2237  -4034415.5452  -2458265.2050   5  12   4.2005   3.7206   4.1196  -3.3254   2.9893  -3.0109   0.00    0.0
2019/01/15 09:31:00.000   4280219.5144  -4034415.9046  -2458265.5590   5  12   4.2005   3.7203   4.1192  -3.3252   2.9889  -3.0104   0.00    0.0
2019/01/15 09:31:01.000   4280219.4574  -4034415.9105  -2458265.6772   5  12   4.2004   3.7201   4.1189  -3.3250   2.9885  -3.0099   0.00    0.0
2019/01/15 09:31:02.000   4280219.1666  -4034415.5822  -2458265.5541   5  12   4.2004   3.7199   4.1186  -3.3248   2.9881  -3.0094   0.00    0.0
2019/01/15 09:31:03.000   4280218.8105  -4034415.0569  -2458265.3394   5  12   4.2004   3.7196   4.1182  -3.3246   2.9877  -3.0089   0.00    0.0
2019/01/15 09:31:04.000   4280218.6826  -4034414.9621  -2458265.2530   5  12   4.2004   3.7194   4.1179  -3.3244   2.9873  -3.0083   0.00    0.0
2019/01/15 09:31:05.000   4280218.9043  -4034415.2045  -2458265.1059   5  12   4.2003   3.7191   4.1176  -3.3242   2.9869  -3.0078   0.00    0.0
2019/01/15 09:31:06.000   4280219.3680  -4034415.6833  -2458265.4363   5  12   4.2003   3.7189   4.1172  -3.3241   2.9865  -3.0073   0.00    0.0
2019/01/15 09:31:07.000   4280219.6641  -4034416.0570  -2458265.8207   5  12   4.2003   3.7186   4.1169  -3.3239   2.9861  -3.0068   0.00    0.0
2019/01/15 09:31:08.000   4280219.6908  -4034416.0441  -2458265.8819   5  12   4.2003   3.7184   4.1165  -3.3237   2.9857  -3.0063   0.00    0.0
2019/01/15 09:31:09.000   4280219.7508  -4034416.0579  -2458265.7759   5  12   4.2002   3.7181   4.1162  -3.3235   2.9854  -3.0057   0.00    0.0
2019/01/15 09:31:10.000   4280219.8197  -4034416.0584  -2458265.6978   5  12   4.2002   3.7179   4.1159  -3.3233   2.9850  -3.0052   0.00    0.0
2019/01/15 09:31:11.000   4280219.8937  -4034416.1893  -2458265.6128   5  12   4.2002   3.7176   4.1155  -3.3231   2.9846  -3.0047   0.00    0.0
2019/01/15 09:31:12.000   4280220.0007  -4034416.1287  -2458265.5261   5  12   4.2002   3.7174   4.1152  -3.3229   2.9842  -3.0042   0.00    0.0
2019/01/15 09:31:13.000   4280220.1931  -4034416.1091  -2458265.6419   5  12   4.2001   3.7172   4.1149  -3.3227   2.9838  -3.0036   0.00    0.0
2019/01/15 09:31:14.000   4280220.1198  -4034415.9779  -2458265.5767   5  12   4.2001   3.7169   4.1145  -3.3225   2.9834  -3.0031   0.00    0.0
2019/01/15 09:31:15.000   4280220.2151  -4034415.9762  -2458265.7305   5  12   4.2001   3.7167   4.1142  -3.3224   2.9830  -3.0026   0.00    0.0
2019/01/15 09:31:16.000   4280220.3467  -4034415.9756  -2458265.9454   5  12   4.2001   3.7164   4.1138  -3.3222   2.9826  -3.0021   0.00    0.0
2019/01/15 09:31:17.000   4280220.7411  -4034416.2523  -2458266.3764   5  12   4.2000   3.7162   4.1135  -3.3220   2.9822  -3.0016   0.00    0.0
2019/01/15 09:31:18.000   4280221.0924  -4034416.6405  -2458266.7593   5  12   4.2000   3.7159   4.1132  -3.3218   2.9818  -3.0010   0.00    0.0
2019/01/15 09:31:19.000   4280221.6449  -4034417.1703  -2458267.2644   5  12   4.2000   3.7157   4.1128  -3.3216   2.9815  -3.0005   0.00    0.0
2019/01/15 09:31:20.000   4280221.7389  -4034417.3433  -2458267.4142   5  12   4.2000   3.7154   4.1125  -3.3214   2.9811  -3.0000   0.00    0.0
2019/01/15 09:31:21.000   4280221.5455  -4034417.2915  -2458267.2493   5  12   4.1999   3.7152   4.1122  -3.3212   2.9807  -2.9995   0.00    0.0
2019/01/15 09:31:22.000   4280221.6626  -4034417.2637  -2458266.7998   5  12   4.1999   3.7150   4.1118  -3.3210   2.9803  -2.9989   0.00    0.0
2019/01/15 09:31:23.000   4280221.8516  -4034417.4801  -2458266.6429   5  12   4.1999   3.7147   4.1115  -3.3208   2.9799  -2.9984   0.00    0.0
2019/01/15 09:31:24.000   4280222.0033  -4034417.5886  -2458266.4119   5  12   4.1999   3.7145   4.1111  -3.3207   2.9795  -2.9979   0.00    0.0
2019/01/15 09:31:25.000   4280222.0321  -4034417.5203  -2458266.4121   5  12   4.1998   3.7142   4.1108  -3.3205   2.9791  -2.9974   0.00    0.0
2019/01/15 09:31:26.000   4280222.1903  -4034417.5715  -2458266.8123   5  12   4.1998   3.7140   4.1105  -3.3203   2.9787  -2.9968   0.00    0.0
2019/01/15 09:31:27.000   4280222.0459  -4034417.3804  -2458267.2092   5  12   4.1998   3.7137   4.1101  -3.3201   2.9783  -2.9963   0.00    0.0
2019/01/15 09:31:28.000   4280221.9287  -4034417.3717  -2458267.5870   5  12   4.1998   3.7135   4.1098  -3.3199   2.9779  -2.9958   0.00    0.0
2019/01/15 09:31:29.000   4280221.6831  -4034417.4578  -2458267.8270   5  12   4.1997   3.7133   4.1094  -3.3197   2.9776  -2.9953   0.00    0.0
2019/01/15 09:31:30.000   4280221.2130  -4034417.2879  -2458267.9951   5  12   4.1997   3.7130   4.1091  -3.3195   2.9772  -2.9947   0.00    0.0
2019/01/15 09:31:31.000   4280220.9258  -4034417.0771  -2458268.1556   5  12   4.1997   3.7128   4.1088  -3.3193   2.9768  -2.9942   0.00    0.0
2019/01/15 09:31:32.000   4280220.7396  -4034417.1682  -2458268.2795   5  12   4.1997   3.7125   4.1084  -3.3192   2.9764  -2.9937   0.00    0.0
2019/01/15 09:31:33.000   4280220.7710  -4034417.4214  -2458268.4498   5  12   4.1997   3.7123   4.1081  -3.3190   2.9760  -2.9932   0.00    0.0
2019/01/15 09:31:34.000   4280220.9707  -4034417.6388  -2458268.6851   5  12   4.1996   3.7120   4.1077  -3.3188   2.9756  -2.9926   0.00    0.0
2019/01/15 09:31:35.000   4280221.0588  -4034417.6976  -2458268.8131   5  12   4.1996   3.7118   4.1074  -3.3186   2.9752  -2.9921   0.00    0.0
2019/01/15 09:31:36.000   4280221.2710  -4034417.8754  -2458268.9915   5  12   4.1996   3.7116   4.1071  -3.3184   2.9748  -2.9916   0.00    0.0
2019/01/15 09:31:37.000   4280221.0943  -4034417.6736  -2458268.6901   5  12   4.1996   3.7113   4.1067  -3.3182   2.9744  -2.9911   0.00    0.0
2019/01/15 09:31:38.000   4280220.9706  -4034417.6182  -2458268.5793   5  12   4.1995   3.7111   4.1064  -3.3180   2.9740  -2.9905   0.00    0.0
2019/01/15 09:31:39.000   4280220.8022  -4034417.4942  -2458268.5443   5  12   4.1995   3.7108   4.1060  -3.3179   2.9736  -2.9900   0.00    0.0
2019/01/15 09:31:40.000   4280220.4729  -4034417.1251  -2458268.5925   5  12   4.1995   3.7106   4.1057  -3.3177   2.9733  -2.9895   0.00    0.0
2019/01/15 09:31:41.000   4280220.2379  -4034416.9794  -2458268.5355   5  12   4.1995   3.7103   4.1053  -3.3175   2.9729  -2.9890   0.00    0.0
2019/01/15 09:31:42.000   4280220.3848  -4034417.2496  -2458268.5622   5  12   4.1995   3.7101   4.1050  -3.3173   2.9725  -2.9884   0.00    0.0
2019/01/15 09:31:43.000   4280220.1099  -4034417.1623  -2458268.2393   5  12   4.1994   3.7099   4.1047  -3.3171   2.9721  -2.9879   0.00    0.0
2019/01/15 09:31:44.000   4280219.7920  -4034416.9050  -2458268.1234   5  12   4.1994   3.7096   4.1043  -3.3169   2.9717  -2.9874   0.00    0.0
2019/01/15 09:31:45.000   4280219.8108  -4034416.7974  -2458268.2810   5  12   4.1994   3.7094   4.1040  -3.3167   2.9713  -2.9869   0.00    0.0
2019/01/15 09:31:46.000   4280219.6944  -4034416.5731  -2458268.5937   5  12   4.1994   3.7091   4.1036  -3.3166   2.9709  -2.9863   0.00    0.0
2019/01/15 09:31:47.000   4280219.7684  -4034416.4315  -2458268.9354   5  12   4.1994   3.7089   4.1033  -3.3164   2.9705  -2.9858   0.00    0.0
2019/01/15 09:31:48.000   4280219.7524  -4034416.5023  -2458269.1303   5  12   4.1993   3.7087   4.1029  -3.3162   2.9701  -2.9853   0.00    0.0
2019/01/15 09:31:49.000   4280219.8368  -4034416.5838  -2458269.1478   5  12   4.1993   3.7084   4.1026  -3.3160   2.9697  -2.9848   0.00    0.0
2019/01/15 09:31:50.000   4280219.8678  -4034416.6044  -2458269.0189   5  12   4.1993   3.7082   4.1023  -3.3158   2.9693  -2.9842   0.00    0.0
2019/01/15 09:31:51.000   4280219.3080  -4034416.2000  -2458268.3659   5  12   4.1993   3.7079   4.1019  -3.3156   2.9689  -2.9837   0.00    0.0
2019/01/15 09:31:52.000   4280219.0455  -4034415.8408  -2458268.0175   5  12   4.1993   3.7077   4.1016  -3.3154   2.9686  -2.9832   0.00    0.0
2019/01/15 09:31:53.000   4280219.0760  -4034415.6576  -2458267.9478   5  12   4.1992   3.7075   4.1012  -3.3153   2.9682  -2.9826   0.00    0.0
2019/01/15 09:31:54.000   4280219.1297  -4034415.4922  -2458268.0539   5  12   4.1992   3.7072   4.1009  -3.3151   2.9678  -2.9821   0.00    0.0
2019/01/15 09:31:55.000   4280219.0006  -4034415.4839  -2458268.2492   5  12   4.1992   3.7070   4.1005  -3.3149   2.9674  -2.9816   0.00    0.0
2019/01/15 09:31:56.000   4280218.6458  -4034415.5512  -2458268.1805   5  12   4.1992   3.7067   4.1002  -3.3147   2.9670  -2.9811   0.00    0.0
2019/01/15 09:31:57.000   4280218.6522  -4034415.7462  -2458268.2450   5  12   4.1992   3.7065   4.0998  -3.3145   2.9666  -2.9805   0.00    0.0
2019/01/15 09:31:58.000   4280218.7347  -4034415.9137  -2458268.5066   5  12   4.1991   3.7063   4.0995  -3.3143   2.9662  -2.9800   0.00    0.0
2019/01/15 09:31:59.000   4280218.6891  -4034416.0225  -2458268.4987   5  12   4.1991   3.7060   4.0992  -3.3141   2.9658  -2.9795   0.00    0.0
2019/01/15 09:32:00.000   4280218.3331  -4034415.6589  -2458268.1488   5  12   4.1991   3.7058   4.0988  -3.3140   2.9654  -2.9789   0.00    0.0
2019/01/15 09:32:01.000   4280217.9709  -4034415.2059  -2458267.8696   5  12   4.1991   3.7055   4.0985  -3.3138   2.9650  -2.9784   0.00    0.0
2019/01/15 09:32:02.000   4280217.7146  -4034414.9714  -2458267.6688   5  12   4.1991   3.7053   4.0981  -3.3136   2.9646  -2.9779   0.00    0.0
2019/01/15 09:32:03.000   4280217.6816  -4034414.9764  -2458267.4594   5  12   4.1990   3.7051   4.0978  -3.3134   2.9643  -2.9774   0.00    0.0
2019/01/15 09:32:04.000   4280217.5703  -4034414.9439  -2458267.2189   5  12   4.1990   3.7048   4.0974  -3.3132   2.9639  -2.9768   0.00    0.0
2019/01/15 09:32:05.000   4280217.4070  -4034414.8345  -2458267.0268   5  12   4.1990   3.7046   4.0971  -3.3130   2.9635  -2.9763   0.00    0.0
2019/01/15 09:32:06.000   4280216.9916  -4034414.5181  -2458267.1660   5  12   4.1990   3.7044   4.0967  -3.3129   2.9631  -2.9758   0.00    0.0
2019/01/15 09:32:07.000   4280217.0238  -4034414.5546  -2458267.4242   5  12   4.1990   3.7041   4.0964  -3.3127   2.9627  -2.9752   0.00    0.0
2019/01/15 09:32:08.000   4280217.2191  -4034414.5336  -2458267.3726   5  12   4.1989   3.7039   4.0960  -3.3125   2.9623  -2.9747   0.00    0.0
2019/01/15 09:32:09.000   4280217.3094  -4034414.6136  -2458267.3255   5  12   4.1989   3.7036   4.0957  -3.3123   2.9619  -2.9742   0.00    0.0
2019/01/15 09:32:10.000   4280217.1312  -4034414.5192  -2458267.3840   5  12   4.1989   3.7034   4.0953  -3.3121   2.9615  -2.9737   0.00    0.0
2019/01/15 09:32:11.000   4280217.2634  -4034414.7173  -2458267.6839   5  12   4.1989   3.7032   4.0950  -3.3119   2.9611  -2.9731   0.00    0.0
2019/01/15 09:32:12.000   4280217.4026  -4034414.8252  -2458267.7816   5  12   4.1989   3.7029   4.0946  -3.3118   2.9607  -2.9726   0.00    0.0
2019/01/15 09:32:13.000   4280217.7030  -4034415.0397  -2458267.8875   5  12   4.1989   3.7027   4.0943  -3.3116   2.9603  -2.9721   0.00    0.0
2019/01/15 09:32:14.000   4280218.0316  -4034415.3223  -2458267.9073   5  12   4.1988   3.7024   4.0939  -3.3114   2.9599  -2.9715   0.00    0.0
2019/01/15 09:32:15.000   4280218.3611  -4034415.5938  -2458267.8741   5  12   4.1988   3.7022   4.0936  -3.3112   2.9595  -2.9710   0.00    0.0
2019/01/15 09:32:16.000   4280218.2919  -4034415.5412  -2458267.4737   5  12   4.1988   3.7020   4.0933  -3.3110   2.9592  -2.9705   0.00    0.0
2019/01/15 09:32:17.000   4280218.0826  -4034415.3585  -2458267.0817   5  12   4.1988   3.7017   4.0929  -3.3108   2.9588  -2.9699   0.00    0.0
2019/01/15 09:32:18.000   4280217.9032  -4034415.1565  -2458266.6859   5  12   4.1988   3.7015   4.0926  -3.3107   2.9584  -2.9694   0.00    0.0
2019/01/15 09:32:19.000   4280217.6651  -4034415.0134  -2458266.5456   5  12   4.1987   3.7013   4.0922  -3.3105   2.9580  -2.9689   0.00    0.0
2019/01/15 09:32:20.000   4280217.8278  -4034415.3503  -2458266.6000   5  12   4.1987   3.7010   4.0919  -3.3103   2.9576  -2.9684   0.00    0.0
2019/01/15 09:32:21.000   4280218.4549  -4034416.0519  -2458266.8571   5  12   4.1987   3.7008   4.0915  -3.3101   2.9572  -2.9678   0.00    0.0
2019/01/15 09:32:22.000   4280219.1593  -4034416.4981  -2458267.4145   5  12   4.1987   3.7006   4.0912  -3.3099   2.9568  -2.9673   0.00    0.0
2019/01/15 09:32:23.000   4280219.6240  -4034416.5537  -2458267.7948   5  12   4.1987   3.7003   4.0908  -3.3097   2.9564  -2.9668   0.00    0.0
2019/01/15 09:32:24.000   4280219.9337  -4034416.4045  -2458267.9297   5  12   4.1987   3.7001   4.0905  -3.3096   2.9560  -2.9662   0.00    0.0
2019/01/15 09:32:25.000   4280220.1664  -4034416.4028  -2458268.0504   5  12   4.1986   3.6998   4.0901  -3.3094   2.9556  -2.9657   0.00    0.0
2019/01/15 09:32:26.000   4280219.8801  -4034416.3284  -2458267.9000   5  12   4.1986   3.6996   4.0898  -3.3092   2.9552  -2.9652   0.00    0.0
2019/01/15 09:32:27.000   4280219.4607  -4034416.1877  -2458267.8134   5  12   4.1986   3.6994   4.0894  -3.3090   2.9548  -2.9646   0.00    0.0
2019/01/15 09:32:28.000   4280219.1914  -4034416.2311  -2458267.7001   5  12   4.1986   3.6991   4.0891  -3.3088   2.9544  -2.9641   0.00    0.0
2019/01/15 09:32:29.000   4280219.1846  -4034416.2194  -2458266.9048   5  11   4.2426   3.7420   5.0654  -3.3604   3.2281  -3.2566   0.00    0.0
2019/01/15 09:32:30.000   4280219.3741  -4034416.4547  -2458266.9438   5  11   4.2424   3.7416   5.0642  -3.3600   3.2271  -3.2553   0.00    0.0
2019/01/15 09:32:31.000   4280219.4982  -4034416.6275  -2458267.0755   5  11   4.2422   3.7412   5.0630  -3.3596   3.2260  -3.2540   0.00    0.0
2019/01/15 09:32:32.000   4280219.3773  -4034416.6967  -2458267.3049   5  11   4.2419   3.7408   5.0618  -3.3592   3.2250  -3.2527   0.00    0.0
2019/01/15 09:32:33.000   4280219.1120  -4034416.6125  -2458267.2447   5  11   4.2417   3.7404   5.0606  -3.3588   3.2240  -3.2514   0.00    0.0
2019/01/15 09:32:34.000   4280218.8383  -4034416.5088  -2458267.1425   5  11   4.2415   3.7400   5.0594  -3.3584   3.2230  -3.2502   0.00    0.0
2019/01/15 09:32:35.000   4280218.7074  -4034416.4097  -2458267.1728   5  11   4.2413   3.7396   5.0582  -3.3580   3.2220  -3.2489   0.00    0.0
2019/01/15 09:32:36.000   4280218.7908  -4034416.2122  -2458267.4700   5  11   4.2411   3.7392   5.0570  -3.3576   3.2210  -3.2476   0.00    0.0
2019/01/15 09:32:37.000   4280218.6728  -4034415.9426  -2458267.5905   5  11   4.2408   3.7388   5.0558  -3.3573   3.2200  -3.2463   0.00    0.0
2019/01/15 09:32:38.000   4280218.3693  -4034415.6566  -2458267.7259   5  11   4.2406   3.7384   5.0546  -3.3569   3.2190  -3.2450   0.00    0.0
2019/01/15 09:32:39.000   4280218.2012  -4034415.4558  -2458267.7421   5  11   4.2404   3.7380   5.0534  -3.3565   3.2180  -3.2437   0.00    0.0
2019/01/15 09:32:40.000   4280218.1683  -4034415.2219  -2458267.7885   5  11   4.2402   3.7376   5.0522  -3.3561   3.2170  -3.2425   0.00    0.0
2019/01/15 09:32:41.000   4280218.1893  -4034415.1526  -2458267.7546   5  11   4.2400   3.7372   5.0510  -3.3557   3.2160  -3.2412   0.00    0.0
2019/01/15 09:32:42.000   4280218.3528  -4034415.1561  -2458267.8698   5  11   4.2398   3.7369   5.0498  -3.3553   3.2150  -3.2399   0.00    0.0
2019/01/15 09:32:43.000   4280218.4663  -4034415.1870  -2458267.9358   5  11   4.2396   3.7365   5.0486  -3.3549   3.2140  -3.2386   0.00    0.0
2019/01/15 09:32:44.000   4280218.9293  -4034415.5414  -2458268.0305   5  11   4.2393   3.7361   5.0475  -3.3545   3.2129  -3.2373   0.00    0.0
2019/01/15 09:32:45.000   4280219.5400  -4034416.1251  -2458268.5111   5  11   4.2391   3.7357   5.0463  -3.3541   3.2119  -3.2360   0.00    0.0
2019/01/15 09:32:46.000   4280219.6527  -4034416.4077  -2458268.8174   5  11   4.2389   3.7353   5.0451  -3.3537   3.2109  -3.2348   0.00    0.0
2019/01/15 09:32:47.000   4280219.5994  -4034416.4441  -2458269.0869   5  11   4.2387   3.7349   5.0439  -3.3533   3.2099  -3.2335   0.00    0.0
2019/01/15 09:32:48.000   4280219.5199  -4034416.2366  -2458269.4868   5  11   4.2385   3.7345   5.0427  -3.3529   3.2089  -3.2322   0.00    0.0
2019/01/15 09:32:49.000   4280219.4390  -4034416.1973  -2458269.8185   5  11   4.2383   3.7341   5.0415  -3.3525   3.2079  -3.2309   0.00    0.0
2019/01/15 09:32:50.000   4280217.3866  -4034414.3440  -2458259.9898   5  12   4.1983   3.6940   4.0813  -3.3049   2.9458  -2.9524   0.00    0.0
2019/01/15 09:32:51.000   4280217.5128  -4034414.3113  -2458259.5865   5  12   4.1983   3.6937   4.0809  -3.3047   2.9454  -2.9518   0.00    0.0
2019/01/15 09:32:52.000   4280217.9413  -4034414.4585  -2458259.5766   5  12   4.1982   3.6935   4.0806  -3.3045   2.9450  -2.9513   0.00    0.0
2019/01/15 09:32:53.000   4280218.3042  -4034414.6483  -2458259.5573   5  12   4.1982   3.6933   4.0802  -3.3043   2.9446  -2.9508   0.00    0.0
2019/01/15 09:32:54.000   4280217.7921  -4034414.3006  -2458259.3094   5  12   4.1982   3.6930   4.0799  -3.3041   2.9442  -2.9502   0.00    0.0
2019/01/15 09:32:55.000   4280217.2974  -4034413.9930  -2458259.2295   5  12   4.1982   3.6928   4.0795  -3.3040   2.9438  -2.9497   0.00    0.0
2019/01/15 09:32:56.000   4280216.7502  -4034413.6333  -2458259.2590   5  12   4.1982   3.6926   4.0792  -3.3038   2.9434  -2.9492   0.00    0.0
2019/01/15 09:32:57.000   4280216.5732  -4034413.4062  -2458259.2457   5  12   4.1982   3.6924   4.0788  -3.3036   2.9431  -2.9486   0.00    0.0
2019/01/15 09:32:58.000   4280215.9505  -4034413.1346  -2458258.8892   5  12   4.1982   3.6921   4.0784  -3.3034   2.9427  -2.9481   0.00    0.0
2019/01/15 09:32:59.000   4280215.3546  -4034412.8653  -2458258.4515   5  12   4.1982   3.6919   4.0781  -3.3033   2.9423  -2.9475   0.00    0.0
2019/01/15 09:33:00.000   4280215.0840  -4034412.7217  -2458258.1376   5  12   4.1982   3.6917   4.0777  -3.3031   2.9419  -2.9470   0.00    0.0
2019/01/15 09:33:01.000   4280214.9458  -4034412.6638  -2458258.1272   5  12   4.1981   3.6914   4.0774  -3.3029   2.9415  -2.9465   0.00    0.0
2019/01/15 09:33:02.000   4280215.0916  -4034412.7508  -2458258.1886   5  12   4.1981   3.6912   4.0770  -3.3027   2.9411  -2.9459   0.00    0.0
2019/01/15 09:33:03.000   4280215.4267  -4034412.7484  -2458257.9628   5  12   4.1981   3.6910   4.0767  -3.3025   2.9407  -2.9454   0.00    0.0
2019/01/15 09:33:04.000   4280215.5707  -4034412.6945  -2458257.7737   5  12   4.1981   3.6907   4.0763  -3.3024   2.9403  -2.9449   0.00    0.0
2019/01/15 09:33:05.000   4280215.3633  -4034412.4034  -2458257.5941   5  12   4.1981   3.6905   4.0759  -3.3022   2.9399  -2.9443   0.00    0.0
2019/01/15 09:33:06.000   4280214.9219  -4034412.0268  -2458257.4692   5  12   4.1981   3.6903   4.0756  -3.3020   2.9395  -2.9438   0.00    0.0
2019/01/15 09:33:07.000   4280214.5424  -4034411.7243  -2458257.4815   5  12   4.1981   3.6900   4.0752  -3.3018   2.9391  -2.9433   0.00    0.0
2019/01/15 09:33:08.000   4280214.2294  -4034411.4984  -2458257.4438   5  12   4.1981   3.6898   4.0749  -3.3016   2.9387  -2.9427   0.00    0.0
2019/01/15 09:33:09.000   4280214.0786  -4034411.5087  -2458257.4199   5  12   4.1980   3.6896   4.0745  -3.3015   2.9383  -2.9422   0.00    0.0
2019/01/15 09:33:10.000   4280214.2104  -4034411.6913  -2458257.5456   5  12   4.1980   3.6893   4.0742  -3.3013   2.9379  -2.9416   0.00    0.0
2019/01/15 09:33:11.000   4280214.3596  -4034411.8341  -2458257.7604   5  12   4.1980   3.6891   4.0738  -3.3011   2.9375  -2.9411   0.00    0.0
2019/01/15 09:33:12.000   4280214.3658  -4034411.8090  -2458257.7906   5  12   4.1980   3.6889   4.0734  -3.3009   2.9372  -2.9406   0.00    0.0
2019/01/15 09:33:13.000   4280213.9978  -4034411.5659  -2458257.5706   5  12   4.1980   3.6887   4.0731  -3.3008   2.9368  -2.9400   0.00    0.0
2019/01/15 09:33:14.000   4280213.6810  -4034411.3115  -2458257.5814   5  12   4.1980   3.6884   4.0727  -3.3006   2.9364  -2.9395   0.00    0.0
2019/01/15 09:33:15.000   4280213.6977  -4034411.4014  -2458257.6435   5  12   4.1980   3.6882   4.0724  -3.3004   2.9360  -2.9390   0.00    0.0
2019/01/15 09:33:16.000   4280213.6155  -4034411.3418  -2458257.9206   5  12   4.1980   3.6880   4.0720  -3.3002   2.9356  -2.9384   0.00    0.0
2019/01/15 09:33:17.000   4280213.5909  -4034411.3930  -2458258.4356   5  12   4.1980   3.6877   4.0717  -3.3001   2.9352  -2.9379   0.00    0.0
2019/01/15 09:33:18.000   4280213.5732  -4034411.5634  -2458258.7923   5  12   4.1980   3.6875   4.0713  -3.2999   2.9348  -2.9373   0.00    0.0
2019/01/15 09:33:19.000   4280213.8112  -4034411.9791  -2458259.2495   5  12   4.1979   3.6873   4.0709  -3.2997   2.9344  -2.9368   0.00    0.0
2019/01/15 09:33:20.000   4280214.1331  -4034412.3751  -2458259.6936   5  12   4.1979   3.6870   4.0706  -3.2995   2.9340  -2.9363   0.00    0.0
2019/01/15 09:33:21.000   4280214.2167  -4034412.6168  -2458259.8930   5  12   4.1979   3.6868   4.0702  -3.2993   2.9336  -2.9357   0.00    0.0
2019/01/15 09:33:22.000   4280214.3437  -4034412.8417  -2458259.8939   5  12   4.1979   3.6866   4.0699  -3.2992   2.9332  -2.9352   0.00    0.0
2019/01/15 09:33:23.000   4280214.5670  -4034413.1684  -2458259.9784   5  12   4.1979   3.6864   4.0695  -3.2990   2.9328  -2.9347   0.00    0.0
2019/01/15 09:33:24.000   4280214.7033  -4034413.2584  -2458260.0565   5  12   4.1979   3.6861   4.0691  -3.2988   2.9324  -2.9341   0.00    0.0
2019/01/15 09:33:25.000   4280214.8012  -4034413.3774  -2458260.0581   5  12   4.1979   3.6859   4.0688  -3.2986   2.9320  -2.9336   0.00    0.0
2019/01/15 09:33:26.000   4280214.4635  -4034413.2041  -2458259.9927   5  12   4.1979   3.6857   4.0684  -3.2985   2.9316  -2.9330   0.00    0.0
2019/01/15 09:33:27.000   4280214.1632  -4034413.0602  -2458259.7574   5  12   4.1979   3.6854   4.0681  -3.2983   2.9313  -2.9325   0.00    0.0
2019/01/15 09:33:28.000   4280214.4347  -4034413.2414  -2458259.7492   5  12   4.1979   3.6852   4.0677  -3.2981   2.9309  -2.9320   0.00    0.0
2019/01/15 09:33:29.000   4280214.7488  -4034413.5285  -2458259.9283   5  12   4.1979   3.6850   4.0673  -3.2979   2.9305  -2.9314   0.00    0.0
2019/01/15 09:33:30.000   4280215.1801  -4034413.9153  -2458260.0923   5  12   4.1978   3.6848   4.0670  -3.2978   2.9301  -2.9309   0.00    0.0
2019/01/15 09:33:31.000   4280215.5458  -4034414.1075  -2458260.2218   5  12   4.1978   3.6845   4.0666  -3.2976   2.9297  -2.9303   0.00    0.0
2019/01/15 09:33:32.000   4280215.7935  -4034414.2086  -2458260.5638   5  12   4.1978   3.6843   4.0662  -3.2974   2.9293  -2.9298   0.00    0.0
2019/01/15 09:33:33.000   4280215.8018  -4034414.1503  -2458260.6279   5  12   4.1978   3.6841   4.0659  -3.2972   2.9289  -2.9293   0.00    0.0
2019/01/15 09:33:34.000   4280216.2081  -4034414.3747  -2458260.9013   5  12   4.1978   3.6838   4.0655  -3.2971   2.9285  -2.9287   0.00    0.0
2019/01/15 09:33:35.000   4280216.5636  -4034414.6125  -2458260.7795   5  12   4.1978   3.6836   4.0652  -3.2969   2.9281  -2.9282   0.00    0.0
2019/01/15 09:33:36.000   4280216.3119  -4034414.5654  -2458260.4921   5  12   4.1978   3.6834   4.0648  -3.2967   2.9277  -2.9276   0.00    0.0
2019/01/15 09:33:37.000   4280216.2519  -4034414.7128  -2458260.2548   5  12   4.1978   3.6832   4.0644  -3.2965   2.9273  -2.9271   0.00    0.0
2019/01/15 09:33:38.000   4280215.9704  -4034414.8200  -2458260.0933   5  12   4.1978   3.6829   4.0641  -3.2964   2.9269  -2.9266   0.00    0.0
2019/01/15 09:33:39.000   4280215.7897  -4034414.8446  -2458260.0346   5  12   4.1978   3.6827   4.0637  -3.2962   2.9265  -2.9260   0.00    0.0
2019/01/15 09:33:40.000   4280215.3992  -4034414.7536  -2458259.9588   5  12   4.1978   3.6825   4.0633  -3.2960   2.9261  -2.9255   0.00    0.0
2019/01/15 09:33:41.000   4280215.2600  -4034414.7487  -2458259.8932   5  12   4.1978   3.6822   4.0630  -3.2958   2.9257  -2.9249   0.00    0.0
2019/01/15 09:33:42.000   4280215.3163  -4034415.0032  -2458259.8210   5  12   4.1978   3.6820   4.0626  -3.2957   2.9253  -2.9244   0.00    0.0
2019/01/15 09:33:43.000   4280215.5255  -4034415.5467  -2458259.8743   5  12   4.1978   3.6818   4.0623  -3.2955   2.9249  -2.9239   0.00    0.0
2019/01/15 09:33:44.000   4280215.9619  -4034416.0485  -2458260.1605   5  12   4.1977   3.6816   4.0619  -3.2953   2.9246  -2.9233   0.00    0.0
2019/01/15 09:33:45.000   4280216.3025  -4034416.4069  -2458260.6278   5  12   4.1977   3.6813   4.0615  -3.2951   2.9242  -2.9228   0.00    0.0
2019/01/15 09:33:46.000   4280216.0224  -4034416.2636  -2458261.0656   5  12   4.1977   3.6811   4.0612  -3.2950   2.9238  -2.9222   0.00    0.0
2019/01/15 09:33:47.000   4280215.6663  -4034415.9229  -2458261.5152   5  12   4.1977   3.6809   4.0608  -3.2948   2.9234  -2.9217   0.00    0.0
2019/01/15 09:33:48.000   4280215.5915  -4034415.7582  -2458261.7787   5  12   4.1977   3.6807   4.0604  -3.2946   2.9230  -2.9212   0.00    0.0
2019/01/15 09:33:49.000   4280215.6329  -4034415.7779  -2458261.8919   5  12   4.1977   3.6804   4.0601  -3.2944   2.9226  -2.9206   0.00    0.0
2019/01/15 09:33:50.000   4280215.7661  -4034415.7245  -2458261.6992   5  12   4.1977   3.6802   4.0597  -3.2943   2.9222  -2.9201   0.00    0.0
2019/01/15 09:33:51.000   4280216.2305  -4034415.9644  -2458261.7152   5  12   4.1977   3.6800   4.0593  -3.2941   2.9218  -2.9195   0.00    0.0
2019/01/15 09:33:52.000   4280216.1735  -4034415.9474  -2458261.4113   5  12   4.1977   3.6798   4.0590  -3.2939   2.9214  -2.9190   0.00    0.0
