% program   : RTKPOST ver.2.4.2
% inp file  : D:\Google Drive\UERJ\_Projeto Final\Python\tcc-guilherme\20190115_Levantamento_8min_Original.19o
% inp file  : D:\Google Drive\UERJ\_Projeto Final\20190115_Marco 91500 IBGE\brdm0150.19p
% obs start : 2019/01/15 09:34:43.0 GPST (week2036 207283.0s)
% obs end   : 2019/01/15 09:52:37.0 GPST (week2036 208357.0s)
% pos mode  : single
% elev mask : 15.0 deg
% ionos opt : off
% tropo opt : saastamoinen
% ephemeris : broadcast
% navi sys  : gps glonass galileo
%
% (x/y/z-ecef=WGS84,Q=1:fix,2:float,3:sbas,4:dgps,5:single,6:ppp,ns=# of satellites)
%  GPST                      x-ecef(m)      y-ecef(m)      z-ecef(m)   Q  ns   sdx(m)   sdy(m)   sdz(m)  sdxy(m)  sdyz(m)  sdzx(m) age(s)  ratio
2019/01/15 09:34:43.000   4280208.4226  -4034392.3677  -2458265.3588   5   8   9.2072   9.3137   6.4304  -8.2909   5.2210  -5.5042   0.00    0.0
2019/01/15 09:34:44.000   4280223.6737  -4034413.3849  -2458272.0160   5  12   6.6764   5.9636   5.9244  -5.3238   4.6966  -4.4801   0.00    0.0
2019/01/15 09:34:46.000   4280223.7480  -4034408.3588  -2458270.7972   5  12   6.6759   5.9622   5.9236  -5.3227   4.6954  -4.4787   0.00    0.0
2019/01/15 09:34:47.000   4280231.9102  -4034420.9401  -2458273.3739   5  12   6.6757   5.9615   5.9232  -5.3222   4.6948  -4.4779   0.00    0.0
2019/01/15 09:34:48.000   4280223.5492  -4034421.6037  -2458274.4853   5  12   6.6755   5.9608   5.9228  -5.3216   4.6941  -4.4772   0.00    0.0
2019/01/15 09:34:50.000   4280217.5563  -4034408.0386  -2458268.6646   5  12   6.6750   5.9594   5.9219  -5.3205   4.6929  -4.4757   0.00    0.0
2019/01/15 09:34:51.000   4280214.1737  -4034400.1218  -2458272.0848   5  12   6.6748   5.9587   5.9215  -5.3200   4.6923  -4.4750   0.00    0.0
2019/01/15 09:34:52.000   4280222.4026  -4034417.3465  -2458272.8519   5  12   6.6746   5.9580   5.9211  -5.3194   4.6916  -4.4743   0.00    0.0
2019/01/15 09:34:53.000   4280216.0114  -4034414.1098  -2458274.0346   5  12   6.6743   5.9573   5.9207  -5.3189   4.6910  -4.4735   0.00    0.0
2019/01/15 09:34:54.000   4280211.7981  -4034413.3976  -2458271.2754   5  12   6.6741   5.9566   5.9203  -5.3183   4.6904  -4.4728   0.00    0.0
2019/01/15 09:34:55.000   4280210.8309  -4034410.8081  -2458274.4424   5  12   6.6739   5.9559   5.9199  -5.3178   4.6898  -4.4720   0.00    0.0
2019/01/15 09:34:56.000   4280218.5008  -4034418.3100  -2458269.3632   5  12   6.6737   5.9552   5.9194  -5.3172   4.6891  -4.4713   0.00    0.0
2019/01/15 09:34:57.000   4280212.1298  -4034412.1641  -2458268.8238   5  12   6.6734   5.9545   5.9190  -5.3167   4.6885  -4.4706   0.00    0.0
2019/01/15 09:34:59.000   4280220.4316  -4034423.9700  -2458281.1192   5  12   6.6730   5.9532   5.9182  -5.3156   4.6873  -4.4691   0.00    0.0
2019/01/15 09:35:00.000   4280226.1620  -4034427.3845  -2458272.6384   5  12   6.6727   5.9525   5.9177  -5.3150   4.6866  -4.4684   0.00    0.0
2019/01/15 09:35:02.000   4280205.7882  -4034412.2657  -2458252.5792   5  12   6.6723   5.9511   5.9169  -5.3139   4.6854  -4.4669   0.00    0.0
2019/01/15 09:35:06.000   4280218.3664  -4034422.0529  -2458268.9128   5  12   6.6714   5.9483   5.9152  -5.3117   4.6829  -4.4639   0.00    0.0
2019/01/15 09:35:07.000   4280227.4450  -4034429.6989  -2458270.1381   5  12   6.6711   5.9476   5.9148  -5.3112   4.6823  -4.4632   0.00    0.0
2019/01/15 09:35:08.000   4280228.3506  -4034429.1831  -2458269.7205   5  12   6.6709   5.9469   5.9144  -5.3106   4.6816  -4.4625   0.00    0.0
2019/01/15 09:35:09.000   4280207.1419  -4034415.9952  -2458251.2594   5  12   6.6707   5.9462   5.9140  -5.3101   4.6810  -4.4617   0.00    0.0
2019/01/15 09:35:11.000   4280223.3932  -4034431.0912  -2458262.4704   5  12   6.6702   5.9449   5.9131  -5.3090   4.6798  -4.4602   0.00    0.0
2019/01/15 09:35:12.000   4280234.5153  -4034428.8404  -2458262.4353   5  12   6.6700   5.9442   5.9127  -5.3084   4.6791  -4.4595   0.00    0.0
2019/01/15 09:35:14.000   4280203.6001  -4034396.8128  -2458222.8074   5  12   6.6695   5.9428   5.9118  -5.3073   4.6779  -4.4580   0.00    0.0
2019/01/15 09:35:15.000   4280223.5129  -4034414.1011  -2458236.8294   5  12   6.6693   5.9421   5.9114  -5.3068   4.6772  -4.4573   0.00    0.0
2019/01/15 09:35:16.000   4280219.9802  -4034425.4343  -2458252.7567   5  12   6.6691   5.9414   5.9110  -5.3062   4.6766  -4.4565   0.00    0.0
2019/01/15 09:35:17.000   4280214.4865  -4034418.6075  -2458240.0987   5  12   6.6688   5.9407   5.9106  -5.3057   4.6760  -4.4558   0.00    0.0
2019/01/15 09:35:18.000   4280220.4971  -4034414.0543  -2458247.7949   5  12   6.6686   5.9400   5.9101  -5.3051   4.6754  -4.4551   0.00    0.0
2019/01/15 09:35:20.000   4280216.0605  -4034409.4150  -2458263.2560   5  12   6.6681   5.9386   5.9093  -5.3040   4.6741  -4.4536   0.00    0.0
2019/01/15 09:35:21.000   4280233.2937  -4034429.8246  -2458270.2037   5  12   6.6679   5.9379   5.9088  -5.3035   4.6735  -4.4528   0.00    0.0
2019/01/15 09:35:24.000   4280226.4607  -4034423.1361  -2458271.6265   5  12   6.6672   5.9359   5.9075  -5.3018   4.6716  -4.4506   0.00    0.0
2019/01/15 09:35:25.000   4280223.2590  -4034422.9377  -2458277.7317   5  12   6.6670   5.9352   5.9071  -5.3012   4.6709  -4.4498   0.00    0.0
2019/01/15 09:35:26.000   4280237.0586  -4034428.3940  -2458273.3233   5  12   6.6667   5.9345   5.9067  -5.3007   4.6703  -4.4491   0.00    0.0
2019/01/15 09:35:27.000   4280242.9830  -4034437.7404  -2458282.4226   5  12   6.6665   5.9338   5.9063  -5.3001   4.6697  -4.4483   0.00    0.0
2019/01/15 09:35:28.000   4280229.0638  -4034428.9095  -2458269.6573   5  12   6.6663   5.9331   5.9058  -5.2996   4.6691  -4.4476   0.00    0.0
2019/01/15 09:35:29.000   4280233.7778  -4034437.3240  -2458285.8252   5  12   6.6660   5.9324   5.9054  -5.2990   4.6684  -4.4469   0.00    0.0
2019/01/15 09:35:30.000   4280230.5563  -4034423.9495  -2458275.4546   5  12   6.6658   5.9317   5.9050  -5.2985   4.6678  -4.4461   0.00    0.0
2019/01/15 09:35:31.000   4280218.3349  -4034409.2772  -2458270.6322   5  12   6.6656   5.9310   5.9045  -5.2979   4.6672  -4.4454   0.00    0.0
2019/01/15 09:35:34.000   4280240.8066  -4034438.0649  -2458296.5986   5  12   6.6649   5.9289   5.9032  -5.2963   4.6653  -4.4431   0.00    0.0
2019/01/15 09:35:36.000   4280207.0232  -4034410.1749  -2458265.7874   5  12   6.6644   5.9276   5.9024  -5.2952   4.6640  -4.4416   0.00    0.0
2019/01/15 09:35:37.000   4280206.2840  -4034399.5486  -2458253.9516   5  12   6.6642   5.9269   5.9020  -5.2946   4.6634  -4.4409   0.00    0.0
2019/01/15 09:35:38.000   4280201.3217  -4034392.1459  -2458254.1970   5  12   6.6640   5.9262   5.9015  -5.2941   4.6628  -4.4401   0.00    0.0
2019/01/15 09:35:39.000   4280224.9898  -4034413.5202  -2458263.2608   5  12   6.6637   5.9255   5.9011  -5.2935   4.6621  -4.4394   0.00    0.0
2019/01/15 09:35:40.000   4280232.1455  -4034420.4539  -2458269.4410   5  12   6.6635   5.9248   5.9006  -5.2930   4.6615  -4.4386   0.00    0.0
2019/01/15 09:35:46.000   4280219.5263  -4034411.2781  -2458267.5848   5  12   6.6621   5.9207   5.8980  -5.2896   4.6577  -4.4341   0.00    0.0
2019/01/15 09:35:47.000   4280228.1972  -4034420.8164  -2458274.5174   5  12   6.6619   5.9200   5.8976  -5.2891   4.6570  -4.4334   0.00    0.0
2019/01/15 09:35:48.000   4280221.2092  -4034416.9802  -2458274.7032   5  12   6.6616   5.9193   5.8972  -5.2885   4.6564  -4.4326   0.00    0.0
2019/01/15 09:35:59.000   4280221.3931  -4034428.5817  -2458263.3333   5  12   6.6591   5.9117   5.8923  -5.2824   4.6494  -4.4244   0.00    0.0
2019/01/15 09:36:09.000   4280211.5886  -4034410.2282  -2458266.9572   5  12   6.6567   5.9048   5.8879  -5.2769   4.6431  -4.4168   0.00    0.0
2019/01/15 09:36:10.000   4280205.9819  -4034404.1519  -2458265.2591   5  12   6.6565   5.9041   5.8875  -5.2764   4.6424  -4.4161   0.00    0.0
2019/01/15 09:36:15.000   4280217.2849  -4034412.3672  -2458267.8004   5  12   6.6553   5.9007   5.8853  -5.2736   4.6392  -4.4123   0.00    0.0
2019/01/15 09:36:16.000   4280195.8522  -4034406.6327  -2458275.3372   5  12   6.6551   5.9000   5.8848  -5.2730   4.6386  -4.4115   0.00    0.0
2019/01/15 09:36:20.000   4280211.8113  -4034404.0769  -2458257.7609   5  12   6.6542   5.8972   5.8830  -5.2708   4.6360  -4.4085   0.00    0.0
2019/01/15 09:36:26.000   4280206.3662  -4034387.8516  -2458255.6962   5  12   6.6528   5.8931   5.8804  -5.2675   4.6322  -4.4039   0.00    0.0
2019/01/15 09:36:27.000   4280208.6423  -4034388.6496  -2458248.7717   5  12   6.6525   5.8924   5.8799  -5.2669   4.6316  -4.4032   0.00    0.0
2019/01/15 09:36:30.000   4280215.7181  -4034417.1652  -2458273.8590   5  12   6.6518   5.8903   5.8785  -5.2653   4.6296  -4.4009   0.00    0.0
2019/01/15 09:36:31.000   4280220.4468  -4034407.3469  -2458278.9420   5  12   6.6516   5.8896   5.8781  -5.2647   4.6290  -4.4001   0.00    0.0
2019/01/15 09:36:33.000   4280206.3298  -4034425.0021  -2458278.5554   5  12   6.6511   5.8883   5.8772  -5.2636   4.6277  -4.3986   0.00    0.0
2019/01/15 09:36:34.000   4280204.9506  -4034411.7797  -2458271.0738   5  12   6.6509   5.8876   5.8768  -5.2630   4.6271  -4.3978   0.00    0.0
2019/01/15 09:36:36.000   4280214.7507  -4034420.9315  -2458271.4664   5  12   6.6504   5.8862   5.8758  -5.2619   4.6258  -4.3963   0.00    0.0
2019/01/15 09:36:37.000   4280221.3370  -4034421.6773  -2458272.6265   5  12   6.6502   5.8855   5.8754  -5.2614   4.6251  -4.3955   0.00    0.0
2019/01/15 09:36:38.000   4280229.3006  -4034426.1815  -2458274.1459   5  12   6.6499   5.8848   5.8749  -5.2608   4.6245  -4.3947   0.00    0.0
2019/01/15 09:36:39.000   4280220.0615  -4034424.7432  -2458281.2470   5  12   6.6497   5.8841   5.8745  -5.2603   4.6238  -4.3940   0.00    0.0
2019/01/15 09:36:40.000   4280226.0512  -4034423.8156  -2458275.2751   5  12   6.6495   5.8835   5.8740  -5.2597   4.6232  -4.3932   0.00    0.0
2019/01/15 09:36:42.000   4280223.5854  -4034426.5581  -2458263.9699   5  12   6.6490   5.8821   5.8731  -5.2586   4.6219  -4.3917   0.00    0.0
2019/01/15 09:36:43.000   4280231.2003  -4034426.6175  -2458267.6095   5  12   6.6488   5.8814   5.8727  -5.2580   4.6213  -4.3909   0.00    0.0
2019/01/15 09:36:44.000   4280215.8693  -4034423.8949  -2458276.3210   5  12   6.6485   5.8807   5.8722  -5.2575   4.6206  -4.3902   0.00    0.0
2019/01/15 09:36:47.000   4280233.7244  -4034422.3084  -2458264.8461   5  12   6.6478   5.8786   5.8709  -5.2558   4.6187  -4.3879   0.00    0.0
2019/01/15 09:36:53.000   4280213.9720  -4034414.0808  -2458270.2916   5  12   6.6464   5.8745   5.8681  -5.2525   4.6148  -4.3833   0.00    0.0
2019/01/15 09:37:01.000   4280221.8846  -4034421.4165  -2458263.6888   5  12   6.6445   5.8690   5.8645  -5.2480   4.6096  -4.3771   0.00    0.0
2019/01/15 09:37:05.000   4280228.6059  -4034421.9047  -2458266.9991   5  12   6.6436   5.8663   5.8626  -5.2458   4.6071  -4.3740   0.00    0.0
2019/01/15 09:37:11.000   4280200.1968  -4034404.1632  -2458262.0428   5  12   6.6422   5.8622   5.8599  -5.2425   4.6032  -4.3694   0.00    0.0
2019/01/15 09:37:12.000   4280210.7331  -4034417.4575  -2458261.8575   5  12   6.6419   5.8615   5.8594  -5.2419   4.6025  -4.3686   0.00    0.0
2019/01/15 09:37:16.000   4280224.5333  -4034426.6439  -2458280.8728   5  12   6.6410   5.8587   5.8576  -5.2397   4.5999  -4.3655   0.00    0.0
2019/01/15 09:37:17.000   4280219.9983  -4034420.3455  -2458272.2799   5  12   6.6407   5.8580   5.8571  -5.2391   4.5993  -4.3647   0.00    0.0
2019/01/15 09:37:18.000   4280221.7141  -4034422.5089  -2458278.2199   5  12   6.6405   5.8574   5.8566  -5.2385   4.5986  -4.3640   0.00    0.0
2019/01/15 09:37:19.000   4280225.2300  -4034412.0934  -2458274.1189   5  12   6.6403   5.8567   5.8562  -5.2380   4.5980  -4.3632   0.00    0.0
2019/01/15 09:37:22.000   4280216.1040  -4034415.1250  -2458263.8720   5  12   6.6396   5.8546   5.8548  -5.2363   4.5960  -4.3609   0.00    0.0
2019/01/15 09:37:24.000   4280231.4424  -4034438.8579  -2458272.2768   5  12   6.6391   5.8532   5.8538  -5.2352   4.5947  -4.3593   0.00    0.0
2019/01/15 09:37:25.000   4280227.3980  -4034431.9051  -2458274.3343   5  12   6.6388   5.8526   5.8534  -5.2346   4.5941  -4.3585   0.00    0.0
2019/01/15 09:37:26.000   4280232.6237  -4034434.3905  -2458282.6060   5  12   6.6386   5.8519   5.8529  -5.2341   4.5934  -4.3577   0.00    0.0
2019/01/15 09:37:27.000   4280230.2282  -4034425.5768  -2458284.6907   5  12   6.6384   5.8512   5.8524  -5.2335   4.5928  -4.3570   0.00    0.0
2019/01/15 09:37:28.000   4280250.5072  -4034439.8449  -2458296.2743   5  12   6.6381   5.8505   5.8520  -5.2330   4.5921  -4.3562   0.00    0.0
2019/01/15 09:37:29.000   4280245.2077  -4034430.9903  -2458286.2105   5  12   6.6379   5.8498   5.8515  -5.2324   4.5915  -4.3554   0.00    0.0
2019/01/15 09:37:30.000   4280225.5885  -4034425.0897  -2458281.7793   5  12   6.6377   5.8491   5.8510  -5.2319   4.5908  -4.3546   0.00    0.0
2019/01/15 09:37:31.000   4280230.6506  -4034429.4212  -2458273.3609   5  12   6.6374   5.8484   5.8506  -5.2313   4.5902  -4.3539   0.00    0.0
2019/01/15 09:37:32.000   4280231.5853  -4034434.0887  -2458275.6733   5  12   6.6372   5.8478   5.8501  -5.2307   4.5895  -4.3531   0.00    0.0
2019/01/15 09:37:33.000   4280234.1179  -4034434.4025  -2458269.8287   5  12   6.6369   5.8471   5.8496  -5.2302   4.5889  -4.3523   0.00    0.0
2019/01/15 09:37:34.000   4280226.4915  -4034420.9275  -2458268.2278   5  12   6.6367   5.8464   5.8492  -5.2296   4.5882  -4.3515   0.00    0.0
2019/01/15 09:37:35.000   4280231.4350  -4034420.2728  -2458270.2422   5  12   6.6365   5.8457   5.8487  -5.2291   4.5876  -4.3507   0.00    0.0
2019/01/15 09:37:36.000   4280234.6248  -4034423.4012  -2458273.1370   5  12   6.6362   5.8450   5.8482  -5.2285   4.5869  -4.3500   0.00    0.0
2019/01/15 09:37:37.000   4280232.2770  -4034431.6932  -2458272.5144   5  12   6.6360   5.8443   5.8478  -5.2279   4.5863  -4.3492   0.00    0.0
2019/01/15 09:37:40.000   4280235.8767  -4034422.7475  -2458261.9694   5  12   6.6353   5.8423   5.8464  -5.2263   4.5843  -4.3469   0.00    0.0
2019/01/15 09:37:41.000   4280236.1714  -4034423.0587  -2458274.5669   5  12   6.6351   5.8416   5.8459  -5.2257   4.5837  -4.3461   0.00    0.0
2019/01/15 09:37:42.000   4280226.8000  -4034418.4693  -2458266.7198   5  12   6.6348   5.8409   5.8454  -5.2252   4.5830  -4.3453   0.00    0.0
2019/01/15 09:37:43.000   4280218.8363  -4034421.4483  -2458256.5490   5  12   6.6346   5.8402   5.8450  -5.2246   4.5824  -4.3445   0.00    0.0
2019/01/15 09:37:44.000   4280233.5061  -4034419.1193  -2458260.0778   5  12   6.6343   5.8395   5.8445  -5.2240   4.5817  -4.3437   0.00    0.0
2019/01/15 09:37:45.000   4280227.3531  -4034419.6369  -2458264.8466   5  12   6.6341   5.8389   5.8440  -5.2235   4.5810  -4.3429   0.00    0.0
2019/01/15 09:37:46.000   4280225.9075  -4034418.2667  -2458256.5693   5  12   6.6339   5.8382   5.8435  -5.2229   4.5804  -4.3422   0.00    0.0
2019/01/15 09:37:47.000   4280223.1013  -4034420.7777  -2458269.0612   5  12   6.6336   5.8375   5.8431  -5.2224   4.5797  -4.3414   0.00    0.0
2019/01/15 09:37:50.000   4280227.6296  -4034416.2610  -2458240.4642   5  12   6.6329   5.8354   5.8417  -5.2207   4.5778  -4.3390   0.00    0.0
2019/01/15 09:37:51.000   4280212.8093  -4034402.4409  -2458247.4550   5  12   6.6327   5.8348   5.8412  -5.2201   4.5771  -4.3383   0.00    0.0
2019/01/15 09:37:52.000   4280228.6534  -4034421.2518  -2458260.6995   5  12   6.6324   5.8341   5.8407  -5.2196   4.5765  -4.3375   0.00    0.0
2019/01/15 09:37:53.000   4280218.4646  -4034411.4347  -2458260.5997   5  12   6.6322   5.8334   5.8402  -5.2190   4.5758  -4.3367   0.00    0.0
2019/01/15 09:37:54.000   4280226.1852  -4034408.6628  -2458261.8948   5  12   6.6320   5.8327   5.8398  -5.2185   4.5752  -4.3359   0.00    0.0
2019/01/15 09:37:59.000   4280234.2694  -4034433.0846  -2458270.9513   5  12   6.6308   5.8293   5.8374  -5.2157   4.5719  -4.3320   0.00    0.0
2019/01/15 09:38:14.000   4280220.6741  -4034423.7249  -2458264.3279   5  12   6.6272   5.8190   5.8302  -5.2073   4.5620  -4.3202   0.00    0.0
2019/01/15 09:38:15.000   4280209.5815  -4034417.2850  -2458262.6347   5  12   6.6270   5.8184   5.8297  -5.2067   4.5614  -4.3194   0.00    0.0
2019/01/15 09:38:17.000   4280226.2443  -4034423.8814  -2458269.5572   5  12   6.6265   5.8170   5.8288  -5.2056   4.5601  -4.3178   0.00    0.0
2019/01/15 09:38:18.000   4280222.6874  -4034417.8903  -2458253.4181   5  12   6.6262   5.8163   5.8283  -5.2050   4.5594  -4.3170   0.00    0.0
2019/01/15 09:38:20.000   4280230.8440  -4034427.5064  -2458266.7690   5  12   6.6258   5.8149   5.8273  -5.2039   4.5581  -4.3155   0.00    0.0
2019/01/15 09:38:22.000   4280235.8640  -4034423.8006  -2458272.9574   5  12   6.6253   5.8136   5.8264  -5.2028   4.5568  -4.3139   0.00    0.0
2019/01/15 09:38:23.000   4280215.8945  -4034417.2094  -2458267.9163   5  12   6.6251   5.8129   5.8259  -5.2023   4.5561  -4.3131   0.00    0.0
2019/01/15 09:38:24.000   4280212.2987  -4034419.7371  -2458254.8263   5  12   6.6248   5.8122   5.8254  -5.2017   4.5555  -4.3123   0.00    0.0
2019/01/15 09:38:27.000   4280224.4996  -4034425.9561  -2458268.7851   5  12   6.6241   5.8102   5.8240  -5.2000   4.5535  -4.3099   0.00    0.0
2019/01/15 09:38:28.000   4280226.0434  -4034427.3702  -2458262.9485   5  12   6.6239   5.8095   5.8235  -5.1995   4.5528  -4.3091   0.00    0.0
2019/01/15 09:38:29.000   4280224.5939  -4034437.8433  -2458259.9940   5  12   6.6236   5.8088   5.8230  -5.1989   4.5522  -4.3083   0.00    0.0
2019/01/15 09:38:30.000   4280230.7040  -4034434.8209  -2458266.8112   5  12   6.6234   5.8081   5.8225  -5.1983   4.5515  -4.3075   0.00    0.0
2019/01/15 09:38:31.000   4280210.7463  -4034417.7314  -2458268.0190   5  12   6.6231   5.8075   5.8220  -5.1978   4.5508  -4.3068   0.00    0.0
2019/01/15 09:38:33.000   4280210.7212  -4034418.1264  -2458258.9503   5  12   6.6227   5.8061   5.8211  -5.1967   4.5495  -4.3052   0.00    0.0
2019/01/15 09:38:35.000   4280225.5062  -4034427.8782  -2458264.6726   5  12   6.6222   5.8047   5.8201  -5.1955   4.5482  -4.3036   0.00    0.0
2019/01/15 09:38:36.000   4280231.1342  -4034427.1049  -2458270.0260   5  12   6.6219   5.8040   5.8196  -5.1950   4.5475  -4.3028   0.00    0.0
2019/01/15 09:38:37.000   4280221.3639  -4034427.4799  -2458270.4217   5  12   6.6217   5.8034   5.8191  -5.1944   4.5469  -4.3020   0.00    0.0
2019/01/15 09:38:39.000   4280214.8662  -4034419.1823  -2458281.2634   5  12   6.6212   5.8020   5.8182  -5.1933   4.5456  -4.3004   0.00    0.0
2019/01/15 09:38:40.000   4280206.3459  -4034410.8842  -2458277.5618   5  12   6.6210   5.8013   5.8177  -5.1927   4.5449  -4.2996   0.00    0.0
2019/01/15 09:38:41.000   4280213.9494  -4034408.9298  -2458263.6333   5  12   6.6208   5.8006   5.8172  -5.1922   4.5442  -4.2988   0.00    0.0
2019/01/15 09:38:42.000   4280220.3443  -4034413.7146  -2458274.3801   5  12   6.6205   5.8000   5.8167  -5.1916   4.5436  -4.2980   0.00    0.0
2019/01/15 09:38:43.000   4280218.1751  -4034412.7420  -2458275.8956   5  12   6.6203   5.7993   5.8162  -5.1911   4.5429  -4.2972   0.00    0.0
2019/01/15 09:38:44.000   4280223.5949  -4034414.7510  -2458271.8401   5  12   6.6200   5.7986   5.8157  -5.1905   4.5423  -4.2964   0.00    0.0
2019/01/15 09:38:46.000   4280235.4182  -4034428.2327  -2458281.0790   5  12   6.6195   5.7972   5.8147  -5.1894   4.5409  -4.2948   0.00    0.0
2019/01/15 09:38:47.000   4280221.5424  -4034427.1112  -2458278.7180   5  12   6.6193   5.7966   5.8143  -5.1888   4.5403  -4.2941   0.00    0.0
2019/01/15 09:38:48.000   4280218.4626  -4034417.0278  -2458266.2538   5  12   6.6191   5.7959   5.8138  -5.1883   4.5396  -4.2933   0.00    0.0
2019/01/15 09:38:49.000   4280234.3729  -4034428.8203  -2458278.5018   5  12   6.6188   5.7952   5.8133  -5.1877   4.5389  -4.2925   0.00    0.0
2019/01/15 09:38:50.000   4280234.9403  -4034430.5894  -2458263.9417   5  12   6.6186   5.7945   5.8128  -5.1871   4.5383  -4.2917   0.00    0.0
2019/01/15 09:38:51.000   4280223.9246  -4034422.3710  -2458262.8445   5  12   6.6184   5.7938   5.8123  -5.1866   4.5376  -4.2909   0.00    0.0
2019/01/15 09:38:53.000   4280224.7806  -4034423.2330  -2458276.3053   5  12   6.6179   5.7925   5.8113  -5.1855   4.5363  -4.2893   0.00    0.0
2019/01/15 09:38:55.000   4280233.0342  -4034430.2843  -2458283.0797   5  12   6.6174   5.7911   5.8103  -5.1843   4.5350  -4.2877   0.00    0.0
2019/01/15 09:38:56.000   4280226.3037  -4034431.8175  -2458262.3756   5  12   6.6172   5.7904   5.8099  -5.1838   4.5343  -4.2869   0.00    0.0
2019/01/15 09:38:58.000   4280214.8425  -4034419.2140  -2458274.8001   5  12   6.6167   5.7891   5.8089  -5.1827   4.5330  -4.2853   0.00    0.0
2019/01/15 09:38:59.000   4280218.8795  -4034421.7082  -2458277.3910   5  12   6.6164   5.7884   5.8084  -5.1821   4.5323  -4.2845   0.00    0.0
2019/01/15 09:39:00.000   4280234.6735  -4034432.2502  -2458274.1584   5  12   6.6162   5.7877   5.8079  -5.1815   4.5317  -4.2837   0.00    0.0
2019/01/15 09:39:01.000   4280229.4142  -4034428.2842  -2458266.2309   5  12   6.6160   5.7870   5.8074  -5.1810   4.5310  -4.2829   0.00    0.0
2019/01/15 09:39:02.000   4280221.2541  -4034421.3019  -2458267.2819   5  12   6.6157   5.7864   5.8069  -5.1804   4.5303  -4.2821   0.00    0.0
2019/01/15 09:39:03.000   4280223.4640  -4034419.5821  -2458263.6786   5  12   6.6155   5.7857   5.8064  -5.1799   4.5297  -4.2813   0.00    0.0
2019/01/15 09:39:04.000   4280228.1879  -4034433.5455  -2458273.1636   5  12   6.6152   5.7850   5.8059  -5.1793   4.5290  -4.2805   0.00    0.0
2019/01/15 09:39:07.000   4280229.7731  -4034420.2167  -2458247.5887   5  12   6.6145   5.7830   5.8045  -5.1776   4.5270  -4.2781   0.00    0.0
2019/01/15 09:39:08.000   4280236.5899  -4034432.6386  -2458263.0227   5  12   6.6143   5.7823   5.8040  -5.1771   4.5263  -4.2773   0.00    0.0
2019/01/15 09:39:09.000   4280230.7267  -4034428.1819  -2458275.6120   5  12   6.6140   5.7816   5.8035  -5.1765   4.5257  -4.2765   0.00    0.0
2019/01/15 09:39:10.000   4280245.2055  -4034434.4515  -2458275.4458   5  12   6.6138   5.7809   5.8030  -5.1759   4.5250  -4.2757   0.00    0.0
2019/01/15 09:39:11.000   4280229.1481  -4034409.3752  -2458257.2478   5  12   6.6136   5.7803   5.8025  -5.1754   4.5244  -4.2749   0.00    0.0
2019/01/15 09:39:12.000   4280240.0094  -4034425.9772  -2458276.0576   5  12   6.6133   5.7796   5.8020  -5.1748   4.5237  -4.2741   0.00    0.0
2019/01/15 09:39:13.000   4280226.0563  -4034407.2116  -2458257.3864   5  12   6.6131   5.7789   5.8015  -5.1743   4.5230  -4.2733   0.00    0.0
2019/01/15 09:39:14.000   4280234.6921  -4034413.2157  -2458264.6830   5  12   6.6128   5.7782   5.8010  -5.1737   4.5224  -4.2725   0.00    0.0
2019/01/15 09:39:15.000   4280221.5325  -4034405.7770  -2458252.9974   5  12   6.6126   5.7775   5.8005  -5.1731   4.5217  -4.2717   0.00    0.0
2019/01/15 09:39:16.000   4280220.3829  -4034412.8210  -2458257.2090   5  12   6.6124   5.7769   5.8000  -5.1726   4.5210  -4.2709   0.00    0.0
2019/01/15 09:39:17.000   4280218.2853  -4034406.8606  -2458263.2970   5  12   6.6121   5.7762   5.7995  -5.1720   4.5204  -4.2701   0.00    0.0
2019/01/15 09:39:18.000   4280209.8518  -4034402.5747  -2458248.1677   5  12   6.6119   5.7755   5.7990  -5.1715   4.5197  -4.2693   0.00    0.0
2019/01/15 09:39:19.000   4280221.6941  -4034414.6580  -2458263.9407   5  12   6.6116   5.7748   5.7985  -5.1709   4.5190  -4.2685   0.00    0.0
2019/01/15 09:39:20.000   4280215.4562  -4034406.9154  -2458262.9493   5  12   6.6114   5.7742   5.7980  -5.1703   4.5184  -4.2677   0.00    0.0
2019/01/15 09:39:21.000   4280211.8186  -4034424.0237  -2458271.4407   5  12   6.6112   5.7735   5.7975  -5.1698   4.5177  -4.2669   0.00    0.0
2019/01/15 09:39:27.000   4280208.4562  -4034410.5912  -2458274.1770   5  12   6.6097   5.7694   5.7945  -5.1664   4.5137  -4.2621   0.00    0.0
2019/01/15 09:39:29.000   4280223.9969  -4034413.0506  -2458286.2088   5  12   6.6092   5.7681   5.7935  -5.1653   4.5124  -4.2604   0.00    0.0
2019/01/15 09:39:30.000   4280230.6497  -4034413.2872  -2458284.5058   5  12   6.6090   5.7674   5.7930  -5.1647   4.5117  -4.2596   0.00    0.0
2019/01/15 09:39:31.000   4280216.9296  -4034408.9773  -2458285.7092   5  12   6.6088   5.7667   5.7925  -5.1642   4.5110  -4.2588   0.00    0.0
2019/01/15 09:39:35.000   4280217.0648  -4034408.6433  -2458280.0758   5  12   6.6078   5.7640   5.7905  -5.1619   4.5084  -4.2556   0.00    0.0
2019/01/15 09:39:36.000   4280200.3247  -4034402.0819  -2458276.3480   5  12   6.6076   5.7633   5.7901  -5.1614   4.5077  -4.2548   0.00    0.0
2019/01/15 09:39:38.000   4280212.0949  -4034392.1704  -2458279.7278   5  12   6.6071   5.7620   5.7890  -5.1603   4.5064  -4.2532   0.00    0.0
2019/01/15 09:39:39.000   4280205.9425  -4034396.2510  -2458278.4277   5  12   6.6068   5.7613   5.7885  -5.1597   4.5057  -4.2524   0.00    0.0
2019/01/15 09:39:41.000   4280199.1725  -4034402.9536  -2458256.4057   5  12   6.6064   5.7599   5.7876  -5.1586   4.5044  -4.2508   0.00    0.0
2019/01/15 09:39:42.000   4280209.5422  -4034415.8526  -2458268.8024   5  12   6.6061   5.7593   5.7870  -5.1580   4.5037  -4.2500   0.00    0.0
2019/01/15 09:39:43.000   4280215.6758  -4034414.3790  -2458273.6094   5  12   6.6059   5.7586   5.7865  -5.1574   4.5030  -4.2492   0.00    0.0
2019/01/15 09:39:45.000   4280213.1225  -4034402.9204  -2458268.4766   5  12   6.6054   5.7572   5.7855  -5.1563   4.5017  -4.2476   0.00    0.0
2019/01/15 09:39:46.000   4280218.8887  -4034414.6067  -2458278.1231   5  12   6.6051   5.7566   5.7850  -5.1558   4.5010  -4.2467   0.00    0.0
2019/01/15 09:39:49.000   4280212.8060  -4034414.8555  -2458268.2833   5  11   6.8623   6.0769   5.8257  -5.4958   4.3445  -4.0879   0.00    0.0
2019/01/15 09:39:51.000   4280195.6484  -4034394.4393  -2458263.2573   5  12   6.6040   5.7532   5.7825  -5.1530   4.4977  -4.2427   0.00    0.0
2019/01/15 09:39:52.000   4280189.4651  -4034389.9477  -2458265.1824   5  11   6.8626   6.0756   5.8241  -5.4952   4.3425  -4.0852   0.00    0.0
2019/01/15 09:40:00.000   4280196.3486  -4034390.1740  -2458264.2063   5  11   6.8635   6.0719   5.8199  -5.4935   4.3369  -4.0780   0.00    0.0
2019/01/15 09:40:02.000   4280205.9728  -4034401.7159  -2458257.3494   5  12   6.6013   5.7458   5.7770  -5.1468   4.4903  -4.2338   0.00    0.0
2019/01/15 09:40:06.000   4280198.1979  -4034399.8775  -2458262.4796   5  12   6.6003   5.7431   5.7749  -5.1446   4.4876  -4.2306   0.00    0.0
2019/01/15 09:40:08.000   4280209.3721  -4034408.9683  -2458266.9633   5  12   6.5999   5.7417   5.7739  -5.1434   4.4863  -4.2289   0.00    0.0
2019/01/15 09:40:17.000   4280207.0377  -4034398.3970  -2458257.6140   5  12   6.5977   5.7356   5.7693  -5.1384   4.4802  -4.2216   0.00    0.0
2019/01/15 09:40:18.000   4280210.0183  -4034405.6090  -2458267.9296   5  12   6.5974   5.7350   5.7688  -5.1378   4.4796  -4.2208   0.00    0.0
2019/01/15 09:40:19.000   4280223.8367  -4034416.0958  -2458290.1825   5  12   6.5972   5.7343   5.7683  -5.1373   4.4789  -4.2200   0.00    0.0
2019/01/15 09:40:22.000   4280205.6542  -4034406.3302  -2458271.8121   5  12   6.5965   5.7323   5.7668  -5.1356   4.4769  -4.2175   0.00    0.0
2019/01/15 09:40:23.000   4280220.0626  -4034416.6683  -2458280.2188   5  12   6.5962   5.7316   5.7663  -5.1350   4.4762  -4.2167   0.00    0.0
2019/01/15 09:40:24.000   4280210.1841  -4034407.8790  -2458270.1151   5  12   6.5960   5.7309   5.7658  -5.1345   4.4755  -4.2159   0.00    0.0
2019/01/15 09:40:25.000   4280211.1483  -4034407.3226  -2458275.4080   5  12   6.5958   5.7303   5.7652  -5.1339   4.4749  -4.2151   0.00    0.0
2019/01/15 09:40:26.000   4280213.4027  -4034415.4754  -2458278.4071   5  12   6.5955   5.7296   5.7647  -5.1333   4.4742  -4.2143   0.00    0.0
2019/01/15 09:40:27.000   4280217.3426  -4034414.3708  -2458271.6677   5  12   6.5953   5.7289   5.7642  -5.1328   4.4735  -4.2135   0.00    0.0
2019/01/15 09:40:30.000   4280218.5621  -4034409.4240  -2458271.6283   5  12   6.5946   5.7269   5.7627  -5.1311   4.4715  -4.2110   0.00    0.0
2019/01/15 09:40:36.000   4280216.1763  -4034416.2544  -2458264.9985   5  12   6.5931   5.7229   5.7596  -5.1277   4.4674  -4.2061   0.00    0.0
2019/01/15 09:40:37.000   4280225.6584  -4034412.0345  -2458275.1029   5  12   6.5929   5.7222   5.7591  -5.1272   4.4668  -4.2053   0.00    0.0
2019/01/15 09:40:39.000   4280214.4552  -4034418.9897  -2458272.1797   5  12   6.5924   5.7208   5.7581  -5.1260   4.4654  -4.2037   0.00    0.0
2019/01/15 09:40:42.000   4280219.1934  -4034420.3842  -2458276.3420   5  12   6.5917   5.7188   5.7565  -5.1244   4.4634  -4.2012   0.00    0.0
2019/01/15 09:40:43.000   4280214.5032  -4034406.6734  -2458258.4543   5  12   6.5914   5.7182   5.7560  -5.1238   4.4627  -4.2004   0.00    0.0
2019/01/15 09:40:44.000   4280220.8034  -4034422.3053  -2458274.4667   5  12   6.5912   5.7175   5.7555  -5.1232   4.4620  -4.1996   0.00    0.0
2019/01/15 09:40:45.000   4280210.8526  -4034411.8654  -2458274.6535   5  12   6.5909   5.7168   5.7550  -5.1227   4.4614  -4.1987   0.00    0.0
2019/01/15 09:40:46.000   4280206.3901  -4034411.2532  -2458269.0490   5  12   6.5907   5.7161   5.7545  -5.1221   4.4607  -4.1979   0.00    0.0
2019/01/15 09:40:47.000   4280226.0032  -4034415.4630  -2458269.0452   5  12   6.5905   5.7155   5.7539  -5.1216   4.4600  -4.1971   0.00    0.0
2019/01/15 09:40:49.000   4280228.1341  -4034413.3098  -2458269.9261   5  12   6.5900   5.7141   5.7529  -5.1204   4.4587  -4.1955   0.00    0.0
2019/01/15 09:40:53.000   4280204.5522  -4034411.9941  -2458266.0497   5  12   6.5890   5.7114   5.7508  -5.1182   4.4560  -4.1922   0.00    0.0
2019/01/15 09:40:54.000   4280212.5756  -4034422.0551  -2458275.5367   5  12   6.5888   5.7108   5.7503  -5.1176   4.4553  -4.1914   0.00    0.0
2019/01/15 09:40:55.000   4280234.3084  -4034429.1597  -2458271.6465   5  12   6.5885   5.7101   5.7498  -5.1171   4.4546  -4.1905   0.00    0.0
2019/01/15 09:40:56.000   4280234.5292  -4034429.0272  -2458279.2979   5  12   6.5883   5.7094   5.7493  -5.1165   4.4539  -4.1897   0.00    0.0
2019/01/15 09:40:57.000   4280205.7851  -4034412.1800  -2458266.4541   5  12   6.5881   5.7088   5.7488  -5.1160   4.4533  -4.1889   0.00    0.0
2019/01/15 09:40:58.000   4280205.9249  -4034405.5179  -2458259.8777   5  12   6.5878   5.7081   5.7482  -5.1154   4.4526  -4.1881   0.00    0.0
2019/01/15 09:41:00.000   4280217.7148  -4034411.7796  -2458261.1901   5  12   6.5873   5.7068   5.7472  -5.1143   4.4512  -4.1864   0.00    0.0
2019/01/15 09:41:01.000   4280211.9453  -4034406.3507  -2458250.1689   5  12   6.5871   5.7061   5.7467  -5.1137   4.4506  -4.1856   0.00    0.0
2019/01/15 09:41:02.000   4280214.0332  -4034412.5608  -2458275.0838   5  12   6.5868   5.7054   5.7462  -5.1132   4.4499  -4.1848   0.00    0.0
2019/01/15 09:41:04.000   4280204.9140  -4034405.4152  -2458287.1759   5  12   6.5864   5.7041   5.7451  -5.1120   4.4485  -4.1831   0.00    0.0
2019/01/15 09:41:05.000   4280205.0374  -4034404.7260  -2458279.3262   5  12   6.5861   5.7034   5.7446  -5.1115   4.4479  -4.1823   0.00    0.0
2019/01/15 09:41:06.000   4280207.1582  -4034402.4575  -2458276.0447   5  12   6.5859   5.7027   5.7441  -5.1109   4.4472  -4.1815   0.00    0.0
2019/01/15 09:41:08.000   4280204.7329  -4034406.0422  -2458267.4775   5  12   6.5854   5.7014   5.7430  -5.1098   4.4458  -4.1799   0.00    0.0
2019/01/15 09:41:11.000   4280242.5370  -4034427.2888  -2458271.7236   5  12   6.5847   5.6994   5.7415  -5.1081   4.4438  -4.1774   0.00    0.0
2019/01/15 09:41:12.000   4280222.2734  -4034415.0620  -2458251.9550   5  12   6.5844   5.6987   5.7409  -5.1075   4.4431  -4.1766   0.00    0.0
2019/01/15 09:41:13.000   4280222.9397  -4034429.8726  -2458261.1094   5  12   6.5842   5.6981   5.7404  -5.1070   4.4424  -4.1757   0.00    0.0
2019/01/15 09:41:14.000   4280216.5031  -4034416.0317  -2458258.9327   5  12   6.5839   5.6974   5.7399  -5.1064   4.4418  -4.1749   0.00    0.0
2019/01/15 09:41:15.000   4280222.3878  -4034417.5152  -2458271.3778   5  12   6.5837   5.6967   5.7394  -5.1059   4.4411  -4.1741   0.00    0.0
2019/01/15 09:41:16.000   4280224.0124  -4034422.5672  -2458269.2795   5  12   6.5835   5.6960   5.7389  -5.1053   4.4404  -4.1733   0.00    0.0
2019/01/15 09:41:17.000   4280226.9688  -4034425.5975  -2458276.2335   5  12   6.5832   5.6954   5.7383  -5.1047   4.4397  -4.1724   0.00    0.0
2019/01/15 09:41:18.000   4280232.2005  -4034432.4205  -2458279.2664   5  12   6.5830   5.6947   5.7378  -5.1042   4.4390  -4.1716   0.00    0.0
2019/01/15 09:41:19.000   4280221.0740  -4034430.7267  -2458270.1627   5  12   6.5827   5.6940   5.7373  -5.1036   4.4384  -4.1708   0.00    0.0
2019/01/15 09:41:20.000   4280224.3348  -4034431.0655  -2458276.2593   5  12   6.5825   5.6934   5.7368  -5.1031   4.4377  -4.1700   0.00    0.0
2019/01/15 09:41:21.000   4280225.2878  -4034422.0246  -2458272.2931   5  12   6.5823   5.6927   5.7362  -5.1025   4.4370  -4.1691   0.00    0.0
2019/01/15 09:41:23.000   4280213.8467  -4034419.3788  -2458262.4809   5  12   6.5818   5.6914   5.7352  -5.1014   4.4357  -4.1675   0.00    0.0
2019/01/15 09:41:24.000   4280215.1511  -4034421.9736  -2458253.8593   5  12   6.5815   5.6907   5.7347  -5.1008   4.4350  -4.1667   0.00    0.0
2019/01/15 09:41:25.000   4280218.3059  -4034424.2625  -2458274.0372   5  12   6.5813   5.6900   5.7341  -5.1003   4.4343  -4.1658   0.00    0.0
2019/01/15 09:41:26.000   4280235.0480  -4034428.9649  -2458286.6567   5  12   6.5810   5.6894   5.7336  -5.0997   4.4336  -4.1650   0.00    0.0
2019/01/15 09:41:27.000   4280222.9247  -4034422.3888  -2458278.0457   5  12   6.5808   5.6887   5.7331  -5.0991   4.4329  -4.1642   0.00    0.0
2019/01/15 09:41:28.000   4280220.3770  -4034414.4354  -2458273.3585   5  12   6.5806   5.6880   5.7326  -5.0986   4.4323  -4.1634   0.00    0.0
2019/01/15 09:41:31.000   4280235.3601  -4034434.6564  -2458277.9492   5  12   6.5798   5.6860   5.7310  -5.0969   4.4302  -4.1609   0.00    0.0
2019/01/15 09:41:32.000   4280232.5066  -4034423.5268  -2458277.8255   5  12   6.5796   5.6854   5.7304  -5.0963   4.4296  -4.1600   0.00    0.0
2019/01/15 09:41:37.000   4280227.1055  -4034423.8555  -2458273.4352   5  12   6.5784   5.6820   5.7278  -5.0935   4.4262  -4.1559   0.00    0.0
2019/01/15 09:41:38.000   4280226.4217  -4034421.7833  -2458278.7270   5  12   6.5782   5.6814   5.7273  -5.0930   4.4255  -4.1551   0.00    0.0
2019/01/15 09:41:39.000   4280221.4397  -4034420.6061  -2458274.1930   5  12   6.5779   5.6807   5.7268  -5.0924   4.4248  -4.1543   0.00    0.0
2019/01/15 09:41:40.000   4280211.8529  -4034412.0364  -2458269.3089   5  12   6.5777   5.6800   5.7262  -5.0919   4.4241  -4.1534   0.00    0.0
2019/01/15 09:41:41.000   4280230.4866  -4034419.9029  -2458273.4577   5  12   6.5774   5.6794   5.7257  -5.0913   4.4234  -4.1526   0.00    0.0
2019/01/15 09:41:42.000   4280226.5904  -4034422.7478  -2458273.3488   5  12   6.5772   5.6787   5.7252  -5.0907   4.4228  -4.1518   0.00    0.0
2019/01/15 09:41:43.000   4280220.2874  -4034418.3844  -2458266.0205   5  12   6.5770   5.6780   5.7247  -5.0902   4.4221  -4.1509   0.00    0.0
2019/01/15 09:41:44.000   4280227.3542  -4034418.5996  -2458269.2528   5  12   6.5767   5.6774   5.7241  -5.0896   4.4214  -4.1501   0.00    0.0
2019/01/15 09:41:45.000   4280212.1115  -4034415.0335  -2458272.7135   5  12   6.5765   5.6767   5.7236  -5.0891   4.4207  -4.1493   0.00    0.0
2019/01/15 09:41:48.000   4280219.1130  -4034418.5038  -2458266.0493   5  12   6.5757   5.6747   5.7220  -5.0874   4.4187  -4.1468   0.00    0.0
2019/01/15 09:41:49.000   4280221.3950  -4034416.1499  -2458275.3308   5  12   6.5755   5.6740   5.7215  -5.0868   4.4180  -4.1460   0.00    0.0
2019/01/15 09:41:50.000   4280225.5026  -4034423.0389  -2458269.0013   5  12   6.5753   5.6734   5.7209  -5.0862   4.4173  -4.1451   0.00    0.0
2019/01/15 09:41:51.000   4280218.3141  -4034412.7409  -2458252.0605   5  12   6.5750   5.6727   5.7204  -5.0857   4.4166  -4.1443   0.00    0.0
2019/01/15 09:41:54.000   4280220.3362  -4034419.3954  -2458264.9876   5  12   6.5743   5.6707   5.7188  -5.0840   4.4146  -4.1418   0.00    0.0
2019/01/15 09:41:55.000   4280236.3207  -4034421.8458  -2458270.5252   5  12   6.5741   5.6700   5.7183  -5.0834   4.4139  -4.1410   0.00    0.0
2019/01/15 09:42:00.000   4280240.4280  -4034423.0756  -2458272.3555   5  12   6.5728   5.6667   5.7156  -5.0806   4.4105  -4.1368   0.00    0.0
2019/01/15 09:42:01.000   4280210.6352  -4034409.8942  -2458262.3103   5  12   6.5726   5.6661   5.7151  -5.0801   4.4098  -4.1360   0.00    0.0
2019/01/15 09:42:05.000   4280214.1020  -4034415.2490  -2458262.8917   5  12   6.5717   5.6634   5.7130  -5.0779   4.4071  -4.1327   0.00    0.0
2019/01/15 09:42:06.000   4280216.7387  -4034414.0897  -2458264.4086   5  12   6.5714   5.6627   5.7124  -5.0773   4.4064  -4.1318   0.00    0.0
2019/01/15 09:42:07.000   4280209.0249  -4034412.3388  -2458261.9914   5  12   6.5712   5.6621   5.7119  -5.0767   4.4057  -4.1310   0.00    0.0
2019/01/15 09:42:08.000   4280211.6002  -4034412.1549  -2458270.6015   5  12   6.5709   5.6614   5.7114  -5.0762   4.4051  -4.1302   0.00    0.0
2019/01/15 09:42:09.000   4280215.4551  -4034423.2853  -2458265.6469   5  12   6.5707   5.6608   5.7108  -5.0756   4.4044  -4.1293   0.00    0.0
2019/01/15 09:42:12.000   4280209.5870  -4034425.1813  -2458260.7884   5  12   6.5700   5.6588   5.7092  -5.0739   4.4023  -4.1268   0.00    0.0
2019/01/15 09:42:13.000   4280220.2743  -4034415.9636  -2458275.6389   5  12   6.5697   5.6581   5.7087  -5.0734   4.4017  -4.1260   0.00    0.0
2019/01/15 09:42:14.000   4280218.1700  -4034414.4709  -2458274.8570   5  12   6.5695   5.6574   5.7082  -5.0728   4.4010  -4.1252   0.00    0.0
2019/01/15 09:42:15.000   4280226.7036  -4034425.7567  -2458279.4214   5  12   6.5692   5.6568   5.7076  -5.0722   4.4003  -4.1243   0.00    0.0
2019/01/15 09:42:16.000   4280213.4619  -4034411.6164  -2458260.0316   5  12   6.5690   5.6561   5.7071  -5.0717   4.3996  -4.1235   0.00    0.0
2019/01/15 09:42:18.000   4280223.4833  -4034429.6439  -2458273.5986   5  12   6.5685   5.6548   5.7060  -5.0706   4.3982  -4.1218   0.00    0.0
2019/01/15 09:42:21.000   4280231.4971  -4034429.6075  -2458269.1683   5  12   6.5678   5.6528   5.7044  -5.0689   4.3962  -4.1193   0.00    0.0
2019/01/15 09:42:22.000   4280229.1258  -4034428.4037  -2458263.3052   5  12   6.5676   5.6521   5.7039  -5.0683   4.3955  -4.1185   0.00    0.0
2019/01/15 09:42:26.000   4280220.7912  -4034420.1800  -2458274.5767   5  12   6.5666   5.6495   5.7017  -5.0661   4.3928  -4.1151   0.00    0.0
2019/01/15 09:42:27.000   4280229.6072  -4034421.1328  -2458269.7145   5  12   6.5663   5.6488   5.7012  -5.0655   4.3921  -4.1143   0.00    0.0
2019/01/15 09:42:28.000   4280224.4132  -4034412.8986  -2458264.9496   5  12   6.5661   5.6482   5.7007  -5.0650   4.3914  -4.1135   0.00    0.0
2019/01/15 09:42:29.000   4280233.1055  -4034425.8953  -2458264.7572   5  12   6.5659   5.6475   5.7001  -5.0644   4.3907  -4.1126   0.00    0.0
2019/01/15 09:42:30.000   4280234.7431  -4034429.4343  -2458272.1776   5  12   6.5656   5.6468   5.6996  -5.0638   4.3900  -4.1118   0.00    0.0
2019/01/15 09:42:31.000   4280227.8318  -4034422.7088  -2458270.1823   5  12   6.5654   5.6462   5.6990  -5.0633   4.3894  -4.1110   0.00    0.0
2019/01/15 09:42:32.000   4280236.0714  -4034433.6780  -2458291.1022   5  12   6.5651   5.6455   5.6985  -5.0627   4.3887  -4.1101   0.00    0.0
2019/01/15 09:42:34.000   4280216.5048  -4034422.6147  -2458260.5531   5  12   6.5647   5.6442   5.6974  -5.0616   4.3873  -4.1085   0.00    0.0
2019/01/15 09:42:35.000   4280206.2141  -4034412.7515  -2458252.0249   5  12   6.5644   5.6435   5.6969  -5.0611   4.3866  -4.1076   0.00    0.0
2019/01/15 09:42:36.000   4280212.2977  -4034412.4405  -2458259.4377   5  12   6.5642   5.6429   5.6963  -5.0605   4.3859  -4.1068   0.00    0.0
2019/01/15 09:42:37.000   4280222.3857  -4034420.4522  -2458279.4937   5  12   6.5639   5.6422   5.6958  -5.0599   4.3853  -4.1059   0.00    0.0
2019/01/15 09:42:38.000   4280223.5958  -4034423.3977  -2458273.8729   5  12   6.5637   5.6415   5.6953  -5.0594   4.3846  -4.1051   0.00    0.0
2019/01/15 09:42:40.000   4280229.4145  -4034421.6636  -2458283.0181   5  12   6.5632   5.6402   5.6942  -5.0583   4.3832  -4.1034   0.00    0.0
2019/01/15 09:42:41.000   4280226.4717  -4034422.5159  -2458283.8336   5  12   6.5630   5.6396   5.6936  -5.0577   4.3825  -4.1026   0.00    0.0
2019/01/15 09:42:42.000   4280209.6268  -4034416.3131  -2458272.3234   5  12   6.5627   5.6389   5.6931  -5.0571   4.3818  -4.1018   0.00    0.0
2019/01/15 09:42:43.000   4280217.2080  -4034429.9210  -2458277.9666   5  12   6.5625   5.6382   5.6926  -5.0566   4.3812  -4.1009   0.00    0.0
2019/01/15 09:42:45.000   4280215.6583  -4034421.9469  -2458283.5752   5  12   6.5620   5.6369   5.6915  -5.0555   4.3798  -4.0992   0.00    0.0
2019/01/15 09:42:46.000   4280229.2803  -4034425.0698  -2458276.7356   5  12   6.5618   5.6363   5.6909  -5.0549   4.3791  -4.0984   0.00    0.0
2019/01/15 09:42:47.000   4280226.9751  -4034428.5268  -2458275.3043   5  12   6.5615   5.6356   5.6904  -5.0543   4.3784  -4.0976   0.00    0.0
2019/01/15 09:42:49.000   4280227.0219  -4034418.8271  -2458269.5182   5  12   6.5611   5.6343   5.6893  -5.0532   4.3770  -4.0959   0.00    0.0
2019/01/15 09:42:50.000   4280232.3348  -4034426.7695  -2458282.9667   5  12   6.5608   5.6336   5.6888  -5.0527   4.3764  -4.0950   0.00    0.0
2019/01/15 09:42:51.000   4280227.8846  -4034419.6925  -2458280.9870   5  12   6.5606   5.6330   5.6882  -5.0521   4.3757  -4.0942   0.00    0.0
2019/01/15 09:42:52.000   4280223.8002  -4034417.5167  -2458270.5300   5  12   6.5603   5.6323   5.6877  -5.0516   4.3750  -4.0934   0.00    0.0
2019/01/15 09:42:53.000   4280237.1547  -4034434.7585  -2458275.9225   5  12   6.5601   5.6316   5.6871  -5.0510   4.3743  -4.0925   0.00    0.0
2019/01/15 09:42:54.000   4280233.6391  -4034426.2548  -2458269.5917   5  12   6.5599   5.6310   5.6866  -5.0504   4.3736  -4.0917   0.00    0.0
2019/01/15 09:42:55.000   4280228.5396  -4034423.5998  -2458269.7686   5  12   6.5596   5.6303   5.6861  -5.0499   4.3729  -4.0909   0.00    0.0
2019/01/15 09:42:56.000   4280211.5907  -4034409.9427  -2458256.8693   5  12   6.5594   5.6297   5.6855  -5.0493   4.3723  -4.0900   0.00    0.0
2019/01/15 09:42:57.000   4280210.0980  -4034412.5417  -2458257.0507   5  12   6.5591   5.6290   5.6850  -5.0488   4.3716  -4.0892   0.00    0.0
2019/01/15 09:42:58.000   4280227.4635  -4034422.2095  -2458272.6114   5  12   6.5589   5.6284   5.6844  -5.0482   4.3709  -4.0883   0.00    0.0
2019/01/15 09:42:59.000   4280228.5093  -4034410.7662  -2458267.4319   5  12   6.5587   5.6277   5.6839  -5.0476   4.3702  -4.0875   0.00    0.0
2019/01/15 09:43:00.000   4280228.3159  -4034419.3309  -2458276.8320   5  12   6.5584   5.6270   5.6833  -5.0471   4.3695  -4.0867   0.00    0.0
2019/01/15 09:43:01.000   4280202.6987  -4034404.7877  -2458264.1321   5  12   6.5582   5.6264   5.6828  -5.0465   4.3688  -4.0858   0.00    0.0
2019/01/15 09:43:02.000   4280190.1150  -4034395.4386  -2458257.3967   5  12   6.5579   5.6257   5.6823  -5.0460   4.3682  -4.0850   0.00    0.0
2019/01/15 09:43:05.000   4280217.8667  -4034421.1474  -2458269.6375   5  12   6.5572   5.6237   5.6806  -5.0443   4.3661  -4.0825   0.00    0.0
2019/01/15 09:43:06.000   4280235.9583  -4034429.1037  -2458274.9291   5  12   6.5570   5.6231   5.6801  -5.0437   4.3654  -4.0816   0.00    0.0
2019/01/15 09:43:08.000   4280221.2109  -4034418.7145  -2458269.1245   5  12   6.5565   5.6218   5.6790  -5.0426   4.3640  -4.0799   0.00    0.0
2019/01/15 09:43:09.000   4280230.8292  -4034428.0175  -2458273.9222   5  12   6.5562   5.6211   5.6784  -5.0420   4.3633  -4.0791   0.00    0.0
2019/01/15 09:43:10.000   4280229.3265  -4034418.6045  -2458266.6401   5  12   6.5560   5.6205   5.6779  -5.0415   4.3627  -4.0782   0.00    0.0
2019/01/15 09:43:11.000   4280222.2381  -4034415.9301  -2458269.4054   5  12   6.5558   5.6198   5.6774  -5.0409   4.3620  -4.0774   0.00    0.0
2019/01/15 09:43:12.000   4280227.2535  -4034421.8963  -2458275.6947   5  12   6.5555   5.6191   5.6768  -5.0404   4.3613  -4.0766   0.00    0.0
2019/01/15 09:43:13.000   4280224.1276  -4034413.6474  -2458258.1008   5  12   6.5553   5.6185   5.6763  -5.0398   4.3606  -4.0757   0.00    0.0
2019/01/15 09:43:14.000   4280214.1056  -4034409.2153  -2458263.6329   5  12   6.5551   5.6178   5.6757  -5.0393   4.3599  -4.0749   0.00    0.0
2019/01/15 09:43:16.000   4280220.2471  -4034422.9098  -2458273.3152   5  12   6.5546   5.6165   5.6746  -5.0381   4.3585  -4.0732   0.00    0.0
2019/01/15 09:43:17.000   4280206.9210  -4034410.6680  -2458252.9498   5  12   6.5543   5.6159   5.6741  -5.0376   4.3579  -4.0724   0.00    0.0
2019/01/15 09:43:21.000   4280213.6891  -4034410.7961  -2458259.1027   5  12   6.5534   5.6132   5.6719  -5.0354   4.3551  -4.0690   0.00    0.0
2019/01/15 09:43:22.000   4280223.8413  -4034418.2433  -2458268.1461   5  12   6.5531   5.6126   5.6713  -5.0348   4.3544  -4.0681   0.00    0.0
2019/01/15 09:43:23.000   4280221.6369  -4034416.2025  -2458277.5543   5  12   6.5529   5.6119   5.6708  -5.0342   4.3537  -4.0673   0.00    0.0
2019/01/15 09:43:24.000   4280197.2690  -4034391.2635  -2458249.8407   5  12   6.5527   5.6113   5.6703  -5.0337   4.3531  -4.0665   0.00    0.0
2019/01/15 09:43:25.000   4280208.8662  -4034409.8882  -2458261.2421   5  12   6.5524   5.6106   5.6697  -5.0331   4.3524  -4.0656   0.00    0.0
2019/01/15 09:43:27.000   4280228.4897  -4034417.2060  -2458274.1111   5  12   6.5519   5.6093   5.6686  -5.0320   4.3510  -4.0639   0.00    0.0
2019/01/15 09:43:28.000   4280210.1282  -4034406.0819  -2458257.9911   5  12   6.5517   5.6086   5.6681  -5.0315   4.3503  -4.0631   0.00    0.0
2019/01/15 09:43:30.000   4280213.3098  -4034406.9223  -2458257.6007   5  12   6.5512   5.6073   5.6670  -5.0303   4.3489  -4.0614   0.00    0.0
2019/01/15 09:43:31.000   4280221.0026  -4034419.8132  -2458257.0198   5  12   6.5510   5.6067   5.6664  -5.0298   4.3482  -4.0605   0.00    0.0
2019/01/15 09:43:32.000   4280237.1261  -4034421.4768  -2458261.7042   5  12   6.5507   5.6060   5.6659  -5.0292   4.3476  -4.0597   0.00    0.0
2019/01/15 09:43:33.000   4280227.4011  -4034407.6417  -2458257.6209   5  12   6.5505   5.6054   5.6653  -5.0287   4.3469  -4.0589   0.00    0.0
2019/01/15 09:43:34.000   4280214.4477  -4034401.6162  -2458269.1478   5  12   6.5503   5.6047   5.6648  -5.0281   4.3462  -4.0580   0.00    0.0
2019/01/15 09:43:35.000   4280207.7305  -4034408.8408  -2458270.2188   5  12   6.5500   5.6041   5.6642  -5.0275   4.3455  -4.0572   0.00    0.0
2019/01/15 09:43:37.000   4280207.8921  -4034398.6414  -2458254.6972   5  12   6.5495   5.6027   5.6631  -5.0264   4.3441  -4.0555   0.00    0.0
2019/01/15 09:43:38.000   4280218.4591  -4034398.1035  -2458261.5019   5  12   6.5493   5.6021   5.6626  -5.0259   4.3434  -4.0546   0.00    0.0
2019/01/15 09:43:39.000   4280213.3519  -4034405.1729  -2458261.7007   5  12   6.5491   5.6014   5.6620  -5.0253   4.3428  -4.0538   0.00    0.0
2019/01/15 09:43:40.000   4280207.1671  -4034411.0937  -2458268.3547   5  12   6.5488   5.6008   5.6615  -5.0248   4.3421  -4.0529   0.00    0.0
2019/01/15 09:43:41.000   4280221.3053  -4034409.0840  -2458263.8802   5  12   6.5486   5.6001   5.6609  -5.0242   4.3414  -4.0521   0.00    0.0
2019/01/15 09:43:42.000   4280228.4434  -4034424.2856  -2458255.2968   5  12   6.5483   5.5995   5.6604  -5.0236   4.3407  -4.0512   0.00    0.0
2019/01/15 09:43:43.000   4280219.9475  -4034413.0476  -2458266.6514   5  12   6.5481   5.5988   5.6598  -5.0231   4.3400  -4.0504   0.00    0.0
2019/01/15 09:43:45.000   4280220.5469  -4034403.7837  -2458252.9905   5  12   6.5476   5.5975   5.6587  -5.0220   4.3386  -4.0487   0.00    0.0
2019/01/15 09:43:46.000   4280215.8247  -4034401.7622  -2458259.4087   5  12   6.5474   5.5969   5.6582  -5.0214   4.3379  -4.0479   0.00    0.0
2019/01/15 09:43:48.000   4280225.9710  -4034408.5027  -2458266.1338   5  12   6.5469   5.5955   5.6570  -5.0203   4.3366  -4.0462   0.00    0.0
2019/01/15 09:43:49.000   4280234.7150  -4034428.7397  -2458271.4590   5  12   6.5466   5.5949   5.6565  -5.0197   4.3359  -4.0453   0.00    0.0
2019/01/15 09:43:51.000   4280221.1015  -4034414.2939  -2458258.5755   5  12   6.5462   5.5936   5.6554  -5.0186   4.3345  -4.0436   0.00    0.0
2019/01/15 09:43:52.000   4280212.4469  -4034407.0934  -2458253.9804   5  12   6.5459   5.5929   5.6548  -5.0181   4.3338  -4.0428   0.00    0.0
2019/01/15 09:43:53.000   4280217.5538  -4034410.5556  -2458260.3560   5  12   6.5457   5.5923   5.6543  -5.0175   4.3331  -4.0419   0.00    0.0
2019/01/15 09:43:54.000   4280211.8703  -4034400.2498  -2458252.9126   5  12   6.5455   5.5916   5.6537  -5.0170   4.3324  -4.0411   0.00    0.0
2019/01/15 09:43:55.000   4280209.1938  -4034403.8415  -2458262.4802   5  12   6.5452   5.5910   5.6532  -5.0164   4.3317  -4.0402   0.00    0.0
2019/01/15 09:43:56.000   4280207.7015  -4034400.3904  -2458261.9627   5  12   6.5450   5.5903   5.6526  -5.0158   4.3311  -4.0394   0.00    0.0
2019/01/15 09:43:58.000   4280217.7828  -4034419.9715  -2458265.8921   5  12   6.5445   5.5890   5.6515  -5.0147   4.3297  -4.0377   0.00    0.0
2019/01/15 09:43:59.000   4280220.2575  -4034420.0823  -2458280.6220   5  12   6.5443   5.5884   5.6510  -5.0142   4.3290  -4.0368   0.00    0.0
2019/01/15 09:44:02.000   4280229.8727  -4034437.5414  -2458277.7129   5  12   6.5435   5.5864   5.6493  -5.0125   4.3269  -4.0343   0.00    0.0
2019/01/15 09:44:03.000   4280226.1268  -4034427.1995  -2458278.1528   5  12   6.5433   5.5858   5.6487  -5.0119   4.3262  -4.0334   0.00    0.0
2019/01/15 09:44:04.000   4280229.7696  -4034432.0413  -2458275.3568   5  11   7.0675   6.7613   5.6650  -5.9410   4.5134  -4.1745   0.00    0.0
2019/01/15 09:44:05.000   4280226.4673  -4034430.7598  -2458268.0350   5  11   6.5759   5.6611   5.6494  -4.9494   4.3401  -4.0201   0.00    0.0
2019/01/15 09:44:06.000   4280221.4147  -4034419.5761  -2458261.5983   5  10   7.0700   6.9447   5.6681  -5.9111   4.5506  -4.1672   0.00    0.0
2019/01/15 09:44:07.000   4280219.6627  -4034423.6223  -2458267.9469   5  10   7.0697   6.9439   5.6676  -5.9104   4.5500  -4.1663   0.00    0.0
2019/01/15 09:44:09.000   4280218.1989  -4034419.1706  -2458268.0487   5  11   7.0658   6.7576   5.6622  -5.9377   4.5100  -4.1702   0.00    0.0
2019/01/15 09:44:10.000   4280219.6939  -4034421.5028  -2458274.1037   5  11   7.0655   6.7568   5.6616  -5.9371   4.5093  -4.1694   0.00    0.0
2019/01/15 09:44:13.000   4280203.7260  -4034408.7095  -2458256.1264   5  11   7.0645   6.7546   5.6600  -5.9351   4.5072  -4.1668   0.00    0.0
2019/01/15 09:44:15.000   4280214.0691  -4034400.9909  -2458280.8779   5  12   6.5404   5.5779   5.6421  -5.0053   4.3180  -4.0233   0.00    0.0
2019/01/15 09:44:16.000   4280220.6769  -4034417.4327  -2458288.8445   5  12   6.5402   5.5773   5.6415  -5.0047   4.3173  -4.0224   0.00    0.0
2019/01/15 09:44:17.000   4280212.5971  -4034412.2130  -2458274.9430   5  12   6.5400   5.5766   5.6410  -5.0041   4.3166  -4.0216   0.00    0.0
2019/01/15 09:44:19.000   4280223.5152  -4034417.6740  -2458285.9245   5  12   6.5395   5.5753   5.6398  -5.0030   4.3152  -4.0199   0.00    0.0
2019/01/15 09:44:21.000   4280222.4555  -4034421.7182  -2458274.5147   5  12   6.5390   5.5740   5.6387  -5.0019   4.3138  -4.0182   0.00    0.0
2019/01/15 09:44:22.000   4280212.6650  -4034408.7790  -2458268.5820   5  12   6.5388   5.5734   5.6382  -5.0014   4.3132  -4.0173   0.00    0.0
2019/01/15 09:44:24.000   4280230.5626  -4034421.4805  -2458283.3238   5  12   6.5383   5.5721   5.6371  -5.0002   4.3118  -4.0156   0.00    0.0
2019/01/15 09:44:25.000   4280231.7366  -4034424.0015  -2458276.3232   5  12   6.5380   5.5714   5.6365  -4.9997   4.3111  -4.0148   0.00    0.0
2019/01/15 09:44:26.000   4280220.2016  -4034420.9318  -2458266.8296   5  12   6.5378   5.5708   5.6359  -4.9991   4.3104  -4.0139   0.00    0.0
2019/01/15 09:44:27.000   4280227.4316  -4034426.7166  -2458260.2177   5  12   6.5376   5.5701   5.6354  -4.9986   4.3097  -4.0131   0.00    0.0
2019/01/15 09:44:30.000   4280197.5053  -4034396.9152  -2458252.3191   5  12   6.5369   5.5682   5.6337  -4.9969   4.3076  -4.0105   0.00    0.0
2019/01/15 09:44:31.000   4280219.8663  -4034414.7107  -2458256.7157   5  12   6.5366   5.5675   5.6331  -4.9964   4.3069  -4.0097   0.00    0.0
2019/01/15 09:44:32.000   4280207.3787  -4034416.0027  -2458253.9294   5  12   6.5364   5.5669   5.6326  -4.9958   4.3063  -4.0088   0.00    0.0
2019/01/15 09:44:34.000   4280214.8233  -4034414.7776  -2458258.9007   5  12   6.5359   5.5656   5.6315  -4.9947   4.3049  -4.0071   0.00    0.0
2019/01/15 09:44:35.000   4280218.8524  -4034416.7912  -2458271.6453   5  12   6.5357   5.5649   5.6309  -4.9941   4.3042  -4.0062   0.00    0.0
2019/01/15 09:44:36.000   4280225.8283  -4034433.0900  -2458271.3849   5  12   6.5354   5.5643   5.6303  -4.9936   4.3035  -4.0054   0.00    0.0
2019/01/15 09:44:37.000   4280201.3835  -4034408.2312  -2458250.0429   5  12   6.5352   5.5637   5.6298  -4.9930   4.3028  -4.0045   0.00    0.0
2019/01/15 09:44:38.000   4280208.5340  -4034408.3642  -2458253.5036   5  12   6.5349   5.5630   5.6292  -4.9925   4.3021  -4.0037   0.00    0.0
2019/01/15 09:44:39.000   4280210.8317  -4034410.7797  -2458256.4600   5  12   6.5347   5.5624   5.6287  -4.9919   4.3014  -4.0028   0.00    0.0
2019/01/15 09:44:40.000   4280224.0733  -4034425.6099  -2458273.2322   5  12   6.5345   5.5617   5.6281  -4.9914   4.3007  -4.0020   0.00    0.0
2019/01/15 09:44:41.000   4280218.3861  -4034417.8610  -2458262.9717   5  12   6.5342   5.5611   5.6275  -4.9908   4.3001  -4.0011   0.00    0.0
2019/01/15 09:44:42.000   4280225.7258  -4034420.7598  -2458267.3455   5  12   6.5340   5.5604   5.6270  -4.9902   4.2994  -4.0003   0.00    0.0
2019/01/15 09:44:46.000   4280235.8245  -4034420.0131  -2458261.7156   5  12   6.5330   5.5578   5.6247  -4.9880   4.2966  -3.9969   0.00    0.0
2019/01/15 09:44:48.000   4280241.2399  -4034431.8825  -2458272.7574   5  12   6.5326   5.5565   5.6236  -4.9869   4.2952  -3.9951   0.00    0.0
2019/01/15 09:44:49.000   4280235.9431  -4034425.6101  -2458267.2646   5  12   6.5323   5.5559   5.6231  -4.9864   4.2945  -3.9943   0.00    0.0
2019/01/15 09:44:51.000   4280231.7213  -4034425.1474  -2458262.5359   5  12   6.5318   5.5546   5.6219  -4.9852   4.2931  -3.9926   0.00    0.0
2019/01/15 09:44:52.000   4280232.1644  -4034434.9388  -2458269.3070   5  12   6.5316   5.5539   5.6214  -4.9847   4.2925  -3.9917   0.00    0.0
2019/01/15 09:44:53.000   4280216.3916  -4034418.4818  -2458257.6484   5  12   6.5314   5.5533   5.6208  -4.9841   4.2918  -3.9909   0.00    0.0
2019/01/15 09:44:58.000   4280226.6077  -4034424.5294  -2458261.8413   5  12   6.5302   5.5501   5.6180  -4.9814   4.2883  -3.9866   0.00    0.0
2019/01/15 09:44:59.000   4280227.6126  -4034426.1055  -2458263.6905   5  12   6.5299   5.5494   5.6174  -4.9808   4.2876  -3.9858   0.00    0.0
2019/01/15 09:45:02.000   4280229.6978  -4034412.7826  -2458264.4962   5  12   6.5292   5.5475   5.6157  -4.9791   4.2856  -3.9832   0.00    0.0
2019/01/15 09:45:03.000   4280223.5623  -4034410.3639  -2458252.0153   5  12   6.5290   5.5468   5.6152  -4.9786   4.2849  -3.9823   0.00    0.0
2019/01/15 09:45:07.000   4280225.7242  -4034418.5275  -2458258.5302   5  12   6.5280   5.5443   5.6129  -4.9764   4.2821  -3.9789   0.00    0.0
2019/01/15 09:45:08.000   4280230.0952  -4034433.6277  -2458271.3948   5  12   6.5278   5.5436   5.6124  -4.9758   4.2814  -3.9781   0.00    0.0
2019/01/15 09:45:09.000   4280215.0316  -4034415.3932  -2458256.2478   5  12   6.5276   5.5430   5.6118  -4.9753   4.2807  -3.9772   0.00    0.0
2019/01/15 09:45:11.000   4280225.6787  -4034423.5401  -2458265.6591   5  12   6.5271   5.5417   5.6107  -4.9742   4.2793  -3.9755   0.00    0.0
2019/01/15 09:45:12.000   4280233.9568  -4034428.1142  -2458266.9905   5  12   6.5268   5.5410   5.6101  -4.9736   4.2786  -3.9746   0.00    0.0
2019/01/15 09:45:13.000   4280225.7859  -4034415.0827  -2458259.3511   5  12   6.5266   5.5404   5.6095  -4.9730   4.2780  -3.9738   0.00    0.0
2019/01/15 09:45:16.000   4280234.6547  -4034426.5666  -2458271.5614   5  12   6.5259   5.5385   5.6078  -4.9714   4.2759  -3.9712   0.00    0.0
2019/01/15 09:45:17.000   4280231.5806  -4034412.6840  -2458267.8719   5  12   6.5257   5.5378   5.6073  -4.9708   4.2752  -3.9704   0.00    0.0
2019/01/15 09:45:22.000   4280224.9910  -4034403.9252  -2458261.2821   5  12   6.5245   5.5346   5.6044  -4.9681   4.2717  -3.9661   0.00    0.0
2019/01/15 09:45:24.000   4280212.8828  -4034402.5942  -2458257.8109   5  12   6.5240   5.5333   5.6033  -4.9670   4.2704  -3.9644   0.00    0.0
2019/01/15 09:45:25.000   4280230.1109  -4034414.5002  -2458267.7055   5  12   6.5238   5.5327   5.6027  -4.9664   4.2697  -3.9635   0.00    0.0
2019/01/15 09:45:26.000   4280229.9776  -4034414.5857  -2458260.0370   5  12   6.5235   5.5320   5.6022  -4.9659   4.2690  -3.9627   0.00    0.0
2019/01/15 09:45:27.000   4280225.1300  -4034421.6812  -2458271.0674   5  12   6.5233   5.5314   5.6016  -4.9653   4.2683  -3.9618   0.00    0.0
2019/01/15 09:45:28.000   4280222.7173  -4034414.5132  -2458273.5120   5  12   6.5231   5.5307   5.6010  -4.9647   4.2676  -3.9609   0.00    0.0
2019/01/15 09:45:31.000   4280228.0285  -4034418.1554  -2458257.4642   5  12   6.5223   5.5288   5.5993  -4.9631   4.2655  -3.9584   0.00    0.0
2019/01/15 09:45:32.000   4280219.8708  -4034414.7932  -2458257.3095   5  12   6.5221   5.5282   5.5988  -4.9625   4.2648  -3.9575   0.00    0.0
2019/01/15 09:45:33.000   4280219.7322  -4034417.7140  -2458257.9833   5  12   6.5219   5.5275   5.5982  -4.9620   4.2641  -3.9567   0.00    0.0
2019/01/15 09:45:34.000   4280216.4005  -4034418.0189  -2458265.5611   5  12   6.5216   5.5269   5.5976  -4.9614   4.2634  -3.9558   0.00    0.0
2019/01/15 09:45:35.000   4280219.4927  -4034411.9555  -2458257.7278   5  12   6.5214   5.5262   5.5971  -4.9609   4.2628  -3.9549   0.00    0.0
2019/01/15 09:45:39.000   4280217.9737  -4034410.8891  -2458256.9142   5  12   6.5205   5.5237   5.5948  -4.9587   4.2600  -3.9515   0.00    0.0
2019/01/15 09:45:40.000   4280212.8633  -4034421.8078  -2458264.6470   5  12   6.5202   5.5230   5.5942  -4.9581   4.2593  -3.9506   0.00    0.0
2019/01/15 09:45:41.000   4280214.1244  -4034418.1215  -2458271.8461   5  12   6.5200   5.5224   5.5936  -4.9576   4.2586  -3.9498   0.00    0.0
2019/01/15 09:45:42.000   4280207.1032  -4034412.4638  -2458269.8705   5  12   6.5197   5.5218   5.5931  -4.9570   4.2579  -3.9489   0.00    0.0
2019/01/15 09:45:43.000   4280224.1924  -4034420.1014  -2458271.8638   5  12   6.5195   5.5211   5.5925  -4.9564   4.2572  -3.9481   0.00    0.0
2019/01/15 09:45:44.000   4280212.6008  -4034406.1348  -2458263.0271   5  12   6.5193   5.5205   5.5919  -4.9559   4.2565  -3.9472   0.00    0.0
2019/01/15 09:45:45.000   4280223.4741  -4034413.6758  -2458269.5948   5  12   6.5190   5.5198   5.5914  -4.9553   4.2558  -3.9464   0.00    0.0
2019/01/15 09:45:46.000   4280201.9603  -4034404.4339  -2458260.2540   5  12   6.5188   5.5192   5.5908  -4.9548   4.2552  -3.9455   0.00    0.0
2019/01/15 09:45:47.000   4280219.5477  -4034421.2186  -2458270.1698   5  12   6.5186   5.5186   5.5902  -4.9542   4.2545  -3.9446   0.00    0.0
2019/01/15 09:45:48.000   4280224.4039  -4034415.4946  -2458270.7330   5  12   6.5183   5.5179   5.5896  -4.9537   4.2538  -3.9438   0.00    0.0
2019/01/15 09:45:49.000   4280221.9959  -4034411.2895  -2458260.8720   5  12   6.5181   5.5173   5.5891  -4.9531   4.2531  -3.9429   0.00    0.0
