% program   : RTKPOST ver.2.4.2
% inp file  : D:\Google Drive\UERJ\_Projeto Final\Python\tcc-guilherme\20190212_Sta91500_Smoothed5sec.19o
% inp file  : D:\Google Drive\UERJ\_Projeto Final\20190212_Marco91500 IBGE\brdm0430.19p
% obs start : 2019/02/12 08:38:50.0 GPST (week2040 203930.0s)
% obs end   : 2019/02/12 10:17:44.0 GPST (week2040 209864.0s)
% pos mode  : single
% elev mask : 15.0 deg
% ionos opt : broadcast
% tropo opt : saastamoinen
% ephemeris : broadcast
% navi sys  : gps glonass galileo
%
% (x/y/z-ecef=WGS84,Q=1:fix,2:float,3:sbas,4:dgps,5:single,6:ppp,ns=# of satellites)
%  GPST                      x-ecef(m)      y-ecef(m)      z-ecef(m)   Q  ns   sdx(m)   sdy(m)   sdz(m)  sdxy(m)  sdyz(m)  sdzx(m) age(s)  ratio
2019/02/12 09:13:31.000   4280224.6509  -4034418.3607  -2458267.5539   5  11   4.6875   4.9506   3.1272  -4.0203   3.4836  -3.1158   0.00    0.0
2019/02/12 09:13:32.000   4280224.8991  -4034418.9455  -2458267.6830   5  11   4.6870   4.9495   3.1267  -4.0192   3.4828  -3.1151   0.00    0.0
2019/02/12 09:13:33.000   4280225.3825  -4034419.4016  -2458267.8213   5  11   4.6865   4.9483   3.1263  -4.0181   3.4819  -3.1144   0.00    0.0
2019/02/12 09:13:34.000   4280225.3512  -4034419.4522  -2458267.7432   5  11   4.6860   4.9472   3.1258  -4.0171   3.4811  -3.1136   0.00    0.0
2019/02/12 09:18:12.000   4280220.0172  -4034406.4516  -2458260.7271   5  10   4.8927   6.3703   3.2334  -4.6580   3.9754  -3.2654   0.00    0.0
2019/02/12 09:18:13.000   4280219.7686  -4034406.1739  -2458260.4720   5  10   4.8918   6.3683   3.2327  -4.6563   3.9740  -3.2643   0.00    0.0
2019/02/12 09:18:14.000   4280219.4731  -4034405.9251  -2458260.3941   5  10   4.8910   6.3663   3.2320  -4.6545   3.9727  -3.2632   0.00    0.0
2019/02/12 09:18:15.000   4280219.4632  -4034405.7925  -2458260.4084   5  10   4.8901   6.3643   3.2313  -4.6528   3.9713  -3.2622   0.00    0.0
2019/02/12 09:18:16.000   4280219.3757  -4034405.3600  -2458260.2364   5  10   4.8892   6.3622   3.2306  -4.6511   3.9700  -3.2611   0.00    0.0
2019/02/12 09:18:17.000   4280219.2534  -4034404.8707  -2458260.0226   5  10   4.8884   6.3602   3.2300  -4.6493   3.9686  -3.2600   0.00    0.0
2019/02/12 09:18:18.000   4280219.1303  -4034404.7852  -2458259.9145   5  10   4.8875   6.3582   3.2293  -4.6476   3.9672  -3.2590   0.00    0.0
2019/02/12 09:18:19.000   4280219.5314  -4034404.9725  -2458259.9879   5  10   4.8866   6.3562   3.2286  -4.6459   3.9659  -3.2579   0.00    0.0
2019/02/12 09:18:20.000   4280219.9336  -4034405.4067  -2458260.2582   5  10   4.8857   6.3542   3.2279  -4.6441   3.9645  -3.2568   0.00    0.0
2019/02/12 09:18:21.000   4280219.9715  -4034405.6528  -2458260.3220   5  10   4.8849   6.3522   3.2272  -4.6424   3.9632  -3.2558   0.00    0.0
2019/02/12 09:18:22.000   4280219.9060  -4034405.4464  -2458260.3950   5  10   4.8840   6.3501   3.2265  -4.6406   3.9618  -3.2547   0.00    0.0
2019/02/12 09:19:55.000   4280216.1329  -4034401.2418  -2458259.5745   5  11   4.4939   4.5308   2.9553  -3.6007   3.1615  -2.8356   0.00    0.0
2019/02/12 09:19:56.000   4280216.2474  -4034401.9374  -2458259.9616   5  11   4.4934   4.5298   2.9549  -3.5996   3.1607  -2.8349   0.00    0.0
2019/02/12 09:19:57.000   4280216.1589  -4034402.2050  -2458260.0916   5  11   4.4929   4.5287   2.9545  -3.5985   3.1599  -2.8341   0.00    0.0
2019/02/12 09:19:58.000   4280216.4029  -4034402.5840  -2458260.4022   5  11   4.4924   4.5277   2.9540  -3.5974   3.1591  -2.8334   0.00    0.0
2019/02/12 09:19:59.000   4280216.9546  -4034402.8090  -2458260.5873   5  11   4.4919   4.5266   2.9536  -3.5963   3.1583  -2.8327   0.00    0.0
2019/02/12 09:20:00.000   4280217.1309  -4034402.9685  -2458260.7242   5  11   4.4914   4.5256   2.9532  -3.5952   3.1574  -2.8319   0.00    0.0
2019/02/12 09:20:01.000   4280217.1573  -4034403.3625  -2458260.9348   5  11   4.4909   4.5246   2.9527  -3.5941   3.1566  -2.8312   0.00    0.0
2019/02/12 09:20:02.000   4280217.2193  -4034403.6989  -2458261.0495   5  11   4.4904   4.5235   2.9523  -3.5930   3.1558  -2.8304   0.00    0.0
2019/02/12 09:20:03.000   4280217.3248  -4034404.3449  -2458261.4948   5  11   4.4900   4.5225   2.9519  -3.5919   3.1550  -2.8297   0.00    0.0
2019/02/12 09:20:04.000   4280217.2967  -4034404.6679  -2458261.6227   5  11   4.4895   4.5215   2.9515  -3.5908   3.1542  -2.8290   0.00    0.0
2019/02/12 09:20:05.000   4280217.5109  -4034405.1011  -2458261.6307   5  11   4.4890   4.5204   2.9510  -3.5898   3.1533  -2.8282   0.00    0.0
2019/02/12 09:20:06.000   4280217.5544  -4034405.7318  -2458261.7110   5  11   4.4885   4.5194   2.9506  -3.5887   3.1525  -2.8275   0.00    0.0
2019/02/12 09:20:07.000   4280217.4861  -4034406.3408  -2458261.9936   5  11   4.4880   4.5184   2.9502  -3.5876   3.1517  -2.8267   0.00    0.0
2019/02/12 09:20:08.000   4280217.4145  -4034406.7409  -2458262.2216   5  11   4.4875   4.5173   2.9497  -3.5865   3.1509  -2.8260   0.00    0.0
2019/02/12 09:20:11.000   4280217.8244  -4034407.5995  -2458262.6076   5  11   4.4860   4.5142   2.9485  -3.5832   3.1484  -2.8238   0.00    0.0
2019/02/12 09:20:12.000   4280217.9520  -4034407.5774  -2458262.4033   5  11   4.4856   4.5132   2.9480  -3.5821   3.1476  -2.8230   0.00    0.0
2019/02/12 09:20:13.000   4280217.9070  -4034407.5931  -2458262.1853   5  11   4.4851   4.5122   2.9476  -3.5810   3.1468  -2.8223   0.00    0.0
2019/02/12 09:20:14.000   4280218.0727  -4034408.0491  -2458262.3162   5  11   4.4846   4.5112   2.9472  -3.5799   3.1460  -2.8216   0.00    0.0
2019/02/12 09:20:15.000   4280218.1950  -4034408.5146  -2458262.5020   5  11   4.4841   4.5101   2.9468  -3.5788   3.1452  -2.8208   0.00    0.0
2019/02/12 09:20:24.000   4280217.3732  -4034409.4212  -2458262.6017   5  11   4.4797   4.5009   2.9429  -3.5690   3.1379  -2.8142   0.00    0.0
2019/02/12 09:20:25.000   4280217.3760  -4034409.6558  -2458262.6035   5  11   4.4792   4.4998   2.9425  -3.5679   3.1370  -2.8134   0.00    0.0
2019/02/12 09:20:26.000   4280217.1771  -4034409.7903  -2458262.4444   5  11   4.4787   4.4988   2.9421  -3.5668   3.1362  -2.8127   0.00    0.0
2019/02/12 09:20:43.000   4280218.1452  -4034413.2075  -2458262.0152   5  10   4.7651   6.0746   3.1335  -4.3994   3.7751  -3.1066   0.00    0.0
2019/02/12 09:20:44.000   4280218.4461  -4034413.2491  -2458262.6877   5  10   4.7643   6.0727   3.1328  -4.3977   3.7738  -3.1056   0.00    0.0
2019/02/12 09:20:45.000   4280218.6783  -4034413.4522  -2458263.2002   5  10   4.7635   6.0708   3.1322  -4.3961   3.7725  -3.1046   0.00    0.0
2019/02/12 09:20:46.000   4280218.6027  -4034413.5186  -2458263.3392   5  10   4.7626   6.0689   3.1316  -4.3944   3.7712  -3.1035   0.00    0.0
2019/02/12 09:20:47.000   4280218.3705  -4034413.3271  -2458263.2886   5  10   4.7618   6.0670   3.1309  -4.3927   3.7699  -3.1025   0.00    0.0
2019/02/12 09:20:48.000   4280218.0950  -4034413.0456  -2458263.0190   5  10   4.7610   6.0651   3.1303  -4.3910   3.7686  -3.1015   0.00    0.0
2019/02/12 09:20:49.000   4280218.0422  -4034413.4253  -2458262.9357   5  10   4.7602   6.0632   3.1296  -4.3893   3.7673  -3.1004   0.00    0.0
2019/02/12 09:20:50.000   4280215.4336  -4034407.0280  -2458261.0706   5  11   4.4671   4.4743   2.9319  -3.5407   3.1168  -2.7949   0.00    0.0
2019/02/12 09:21:13.000   4280217.7062  -4034411.9125  -2458261.5692   5  11   4.4561   4.4511   2.9223  -3.5157   3.0982  -2.7779   0.00    0.0
2019/02/12 09:21:14.000   4280217.9296  -4034412.3442  -2458261.8124   5  11   4.4556   4.4501   2.9219  -3.5147   3.0974  -2.7772   0.00    0.0
2019/02/12 09:21:15.000   4280218.1900  -4034412.6820  -2458262.0667   5  11   4.4551   4.4491   2.9215  -3.5136   3.0966  -2.7764   0.00    0.0
2019/02/12 09:21:16.000   4280218.4880  -4034412.8247  -2458262.2249   5  11   4.4547   4.4480   2.9211  -3.5125   3.0958  -2.7757   0.00    0.0
2019/02/12 09:21:17.000   4280218.6703  -4034413.0707  -2458262.3715   5  11   4.4542   4.4470   2.9206  -3.5114   3.0950  -2.7750   0.00    0.0
2019/02/12 09:21:18.000   4280218.6934  -4034413.7742  -2458262.6240   5  11   4.4537   4.4460   2.9202  -3.5103   3.0942  -2.7742   0.00    0.0
2019/02/12 09:21:19.000   4280219.4095  -4034414.6146  -2458262.9660   5  11   4.4532   4.4450   2.9198  -3.5092   3.0934  -2.7735   0.00    0.0
2019/02/12 09:21:20.000   4280219.6860  -4034415.2142  -2458263.1148   5  11   4.4527   4.4440   2.9194  -3.5082   3.0926  -2.7728   0.00    0.0
2019/02/12 09:21:21.000   4280219.5307  -4034415.7237  -2458263.2408   5  11   4.4523   4.4430   2.9190  -3.5071   3.0918  -2.7720   0.00    0.0
2019/02/12 09:21:22.000   4280219.3702  -4034415.7136  -2458263.0568   5  11   4.4518   4.4420   2.9186  -3.5060   3.0910  -2.7713   0.00    0.0
2019/02/12 09:21:23.000   4280219.5318  -4034415.6537  -2458262.9451   5  11   4.4513   4.4410   2.9181  -3.5049   3.0902  -2.7705   0.00    0.0
2019/02/12 09:21:42.000   4280222.0785  -4034419.3491  -2458264.9312   5  11   4.4423   4.4220   2.9103  -3.4843   3.0750  -2.7565   0.00    0.0
2019/02/12 09:21:43.000   4280221.7828  -4034419.6529  -2458264.8446   5  11   4.4418   4.4210   2.9099  -3.4833   3.0742  -2.7558   0.00    0.0
2019/02/12 09:21:44.000   4280221.9193  -4034420.0792  -2458264.8877   5  11   4.4414   4.4200   2.9095  -3.4822   3.0734  -2.7550   0.00    0.0
2019/02/12 09:21:45.000   4280222.0786  -4034420.5450  -2458264.9959   5  11   4.4409   4.4191   2.9091  -3.4811   3.0726  -2.7543   0.00    0.0
2019/02/12 09:21:46.000   4280222.2975  -4034420.7024  -2458264.9741   5  11   4.4404   4.4181   2.9086  -3.4800   3.0718  -2.7536   0.00    0.0
2019/02/12 09:21:47.000   4280222.1632  -4034420.5590  -2458264.9226   5  11   4.4400   4.4171   2.9082  -3.4789   3.0710  -2.7528   0.00    0.0
2019/02/12 09:21:48.000   4280221.8877  -4034420.0769  -2458264.6894   5  11   4.4395   4.4161   2.9078  -3.4779   3.0702  -2.7521   0.00    0.0
2019/02/12 09:21:49.000   4280221.2915  -4034419.5720  -2458264.5738   5  11   4.4390   4.4151   2.9074  -3.4768   3.0694  -2.7514   0.00    0.0
2019/02/12 09:21:50.000   4280220.7830  -4034419.0994  -2458264.3785   5  11   4.4385   4.4141   2.9070  -3.4757   3.0686  -2.7506   0.00    0.0
2019/02/12 09:21:51.000   4280220.6002  -4034418.6761  -2458264.2499   5  11   4.4381   4.4131   2.9066  -3.4746   3.0678  -2.7499   0.00    0.0
2019/02/12 09:21:52.000   4280220.3663  -4034418.1784  -2458264.1016   5  11   4.4376   4.4121   2.9062  -3.4735   3.0670  -2.7491   0.00    0.0
2019/02/12 09:22:21.000   4280222.6588  -4034417.8025  -2458264.4134   5  11   4.4241   4.3835   2.8944  -3.4423   3.0440  -2.7278   0.00    0.0
2019/02/12 09:22:22.000   4280222.9993  -4034417.9823  -2458264.2132   5  11   4.4236   4.3826   2.8940  -3.4412   3.0432  -2.7271   0.00    0.0
2019/02/12 09:22:23.000   4280223.2234  -4034418.2863  -2458264.1366   5  11   4.4231   4.3816   2.8936  -3.4402   3.0424  -2.7263   0.00    0.0
2019/02/12 09:22:24.000   4280223.3585  -4034418.4383  -2458264.1801   5  11   4.4227   4.3806   2.8931  -3.4391   3.0416  -2.7256   0.00    0.0
2019/02/12 09:22:25.000   4280223.3268  -4034418.4153  -2458263.9574   5  11   4.4222   4.3796   2.8927  -3.4380   3.0408  -2.7249   0.00    0.0
2019/02/12 09:22:26.000   4280223.2389  -4034418.3326  -2458263.7386   5  11   4.4218   4.3787   2.8923  -3.4369   3.0401  -2.7241   0.00    0.0
2019/02/12 09:22:27.000   4280223.0884  -4034417.9799  -2458263.4141   5  11   4.4213   4.3777   2.8919  -3.4359   3.0393  -2.7234   0.00    0.0
2019/02/12 09:22:28.000   4280222.8419  -4034417.7936  -2458263.3176   5  11   4.4208   4.3767   2.8915  -3.4348   3.0385  -2.7227   0.00    0.0
2019/02/12 09:22:29.000   4280222.5140  -4034417.7683  -2458263.2111   5  11   4.4204   4.3757   2.8911  -3.4337   3.0377  -2.7219   0.00    0.0
2019/02/12 09:22:30.000   4280222.3817  -4034417.9084  -2458263.3743   5  11   4.4199   4.3748   2.8907  -3.4326   3.0369  -2.7212   0.00    0.0
2019/02/12 09:22:31.000   4280222.3293  -4034418.1516  -2458263.7500   5  11   4.4194   4.3738   2.8903  -3.4316   3.0361  -2.7205   0.00    0.0
2019/02/12 09:22:32.000   4280222.2632  -4034418.4424  -2458263.9498   5  11   4.4190   4.3728   2.8899  -3.4305   3.0353  -2.7197   0.00    0.0
2019/02/12 09:22:33.000   4280222.3150  -4034418.6388  -2458263.8583   5  11   4.4185   4.3718   2.8895  -3.4294   3.0345  -2.7190   0.00    0.0
2019/02/12 09:22:34.000   4280222.1656  -4034418.5782  -2458263.4655   5  11   4.4181   4.3709   2.8891  -3.4283   3.0338  -2.7183   0.00    0.0
2019/02/12 09:22:35.000   4280222.3678  -4034418.3412  -2458263.1886   5  11   4.4176   4.3699   2.8887  -3.4273   3.0330  -2.7175   0.00    0.0
2019/02/12 09:22:36.000   4280222.7052  -4034418.3700  -2458263.1879   5  11   4.4171   4.3689   2.8883  -3.4262   3.0322  -2.7168   0.00    0.0
2019/02/12 09:22:37.000   4280222.9064  -4034418.3883  -2458263.3735   5  11   4.4167   4.3679   2.8879  -3.4251   3.0314  -2.7161   0.00    0.0
2019/02/12 09:22:38.000   4280222.9629  -4034418.4936  -2458263.5769   5  11   4.4162   4.3670   2.8875  -3.4241   3.0306  -2.7153   0.00    0.0
2019/02/12 09:22:39.000   4280222.6932  -4034418.4744  -2458263.5056   5  11   4.4158   4.3660   2.8871  -3.4230   3.0298  -2.7146   0.00    0.0
2019/02/12 09:23:22.000   4280224.1868  -4034415.2232  -2458264.3397   5  11   4.3962   4.3246   2.8700  -3.3770   2.9963  -2.6831   0.00    0.0
2019/02/12 09:23:23.000   4280224.3009  -4034415.2979  -2458264.3106   5  11   4.3958   4.3237   2.8696  -3.3760   2.9955  -2.6824   0.00    0.0
2019/02/12 09:23:24.000   4280224.4405  -4034415.2386  -2458264.2027   5  11   4.3953   4.3227   2.8692  -3.3749   2.9947  -2.6816   0.00    0.0
2019/02/12 09:23:25.000   4280224.4409  -4034415.0355  -2458264.2531   5  11   4.3949   4.3218   2.8688  -3.3738   2.9939  -2.6809   0.00    0.0
2019/02/12 09:23:26.000   4280224.8870  -4034414.7685  -2458264.1457   5  11   4.3944   4.3208   2.8684  -3.3728   2.9932  -2.6802   0.00    0.0
2019/02/12 09:23:27.000   4280225.2458  -4034414.9167  -2458264.2199   5  11   4.3940   4.3199   2.8680  -3.3717   2.9924  -2.6794   0.00    0.0
2019/02/12 09:23:28.000   4280225.1975  -4034414.8879  -2458264.2553   5  11   4.3935   4.3189   2.8677  -3.3706   2.9916  -2.6787   0.00    0.0
2019/02/12 09:23:29.000   4280224.6892  -4034414.6233  -2458264.0690   5  11   4.3931   4.3180   2.8673  -3.3696   2.9908  -2.6780   0.00    0.0
2019/02/12 09:23:30.000   4280224.1261  -4034414.4281  -2458263.7822   5  11   4.3926   4.3170   2.8669  -3.3685   2.9901  -2.6773   0.00    0.0
2019/02/12 09:23:31.000   4280223.5830  -4034414.5853  -2458263.7664   5  11   4.3922   4.3161   2.8665  -3.3674   2.9893  -2.6765   0.00    0.0
2019/02/12 09:23:32.000   4280223.0970  -4034414.2758  -2458263.4090   5  11   4.3917   4.3151   2.8661  -3.3664   2.9885  -2.6758   0.00    0.0
2019/02/12 09:23:33.000   4280222.5064  -4034413.9075  -2458263.1271   5  11   4.3913   4.3142   2.8657  -3.3653   2.9877  -2.6751   0.00    0.0
2019/02/12 09:23:34.000   4280222.2604  -4034413.7619  -2458263.1031   5  11   4.3908   4.3132   2.8653  -3.3643   2.9870  -2.6743   0.00    0.0
2019/02/12 09:23:35.000   4280222.0845  -4034414.0359  -2458263.2367   5  11   4.3904   4.3123   2.8649  -3.3632   2.9862  -2.6736   0.00    0.0
2019/02/12 09:23:36.000   4280222.2437  -4034414.1567  -2458263.3398   5  11   4.3899   4.3113   2.8645  -3.3621   2.9854  -2.6729   0.00    0.0
2019/02/12 09:23:37.000   4280222.1808  -4034413.8245  -2458263.0314   5  11   4.3895   4.3104   2.8641  -3.3611   2.9846  -2.6721   0.00    0.0
2019/02/12 09:23:38.000   4280222.1122  -4034413.6361  -2458262.8089   5  11   4.3890   4.3094   2.8637  -3.3600   2.9839  -2.6714   0.00    0.0
2019/02/12 09:23:39.000   4280222.1850  -4034413.6093  -2458262.7220   5  11   4.3886   4.3085   2.8634  -3.3589   2.9831  -2.6707   0.00    0.0
2019/02/12 09:23:40.000   4280222.2506  -4034413.5181  -2458262.6526   5  11   4.3882   4.3076   2.8630  -3.3579   2.9823  -2.6700   0.00    0.0
2019/02/12 09:23:41.000   4280222.2789  -4034413.5148  -2458262.6532   5  11   4.3877   4.3066   2.8626  -3.3568   2.9816  -2.6692   0.00    0.0
2019/02/12 09:23:42.000   4280222.4034  -4034413.4423  -2458262.7043   5  11   4.3873   4.3057   2.8622  -3.3558   2.9808  -2.6685   0.00    0.0
2019/02/12 09:23:43.000   4280222.5475  -4034413.4871  -2458262.7328   5  11   4.3868   4.3047   2.8618  -3.3547   2.9800  -2.6678   0.00    0.0
2019/02/12 09:23:52.000   4280221.1356  -4034412.5282  -2458262.3165   5  11   4.3828   4.2963   2.8583  -3.3452   2.9731  -2.6612   0.00    0.0
2019/02/12 09:23:57.000   4280221.0946  -4034412.8615  -2458262.0640   5  11   4.3806   4.2916   2.8564  -3.3399   2.9693  -2.6576   0.00    0.0
2019/02/12 09:23:58.000   4280220.6707  -4034412.6700  -2458261.8411   5  11   4.3802   4.2906   2.8560  -3.3388   2.9685  -2.6568   0.00    0.0
2019/02/12 09:23:59.000   4280220.3479  -4034412.3034  -2458261.4963   5  11   4.3797   4.2897   2.8556  -3.3377   2.9677  -2.6561   0.00    0.0
2019/02/12 09:24:00.000   4280220.2739  -4034412.1423  -2458261.2889   5  11   4.3793   4.2887   2.8552  -3.3367   2.9670  -2.6554   0.00    0.0
2019/02/12 09:24:01.000   4280219.9930  -4034411.7582  -2458261.1360   5  11   4.3789   4.2878   2.8548  -3.3356   2.9662  -2.6547   0.00    0.0
2019/02/12 09:24:02.000   4280219.6996  -4034411.1640  -2458260.9193   5  11   4.3784   4.2869   2.8544  -3.3346   2.9654  -2.6539   0.00    0.0
2019/02/12 09:24:03.000   4280219.5633  -4034410.7345  -2458260.8456   5  11   4.3780   4.2859   2.8540  -3.3335   2.9647  -2.6532   0.00    0.0
2019/02/12 09:24:04.000   4280219.4294  -4034410.3305  -2458260.8804   5  11   4.3775   4.2850   2.8537  -3.3324   2.9639  -2.6525   0.00    0.0
2019/02/12 09:24:05.000   4280219.1453  -4034409.8204  -2458260.9391   5  11   4.3771   4.2841   2.8533  -3.3314   2.9631  -2.6518   0.00    0.0
2019/02/12 09:24:32.000   4280218.4719  -4034409.4938  -2458262.3597   5  11   4.3653   4.2590   2.8430  -3.3029   2.9425  -2.6322   0.00    0.0
2019/02/12 09:24:39.000   4280218.9128  -4034408.6011  -2458262.1089   5  11   4.3623   4.2526   2.8403  -3.2955   2.9372  -2.6271   0.00    0.0
2019/02/12 09:24:40.000   4280219.2084  -4034408.8792  -2458262.3792   5  11   4.3619   4.2517   2.8399  -3.2945   2.9365  -2.6264   0.00    0.0
2019/02/12 09:24:41.000   4280219.6142  -4034409.0791  -2458262.5314   5  11   4.3615   4.2508   2.8396  -3.2934   2.9357  -2.6256   0.00    0.0
2019/02/12 09:24:42.000   4280220.0413  -4034409.1961  -2458262.6095   5  11   4.3610   4.2498   2.8392  -3.2924   2.9350  -2.6249   0.00    0.0
2019/02/12 09:24:43.000   4280220.1560  -4034409.1059  -2458262.6232   5  11   4.3606   4.2489   2.8388  -3.2913   2.9342  -2.6242   0.00    0.0
2019/02/12 09:24:44.000   4280220.1720  -4034409.1563  -2458262.6968   5  11   4.3602   4.2480   2.8384  -3.2903   2.9335  -2.6235   0.00    0.0
2019/02/12 09:24:45.000   4280220.3533  -4034409.4124  -2458263.0474   5  11   4.3597   4.2471   2.8380  -3.2892   2.9327  -2.6227   0.00    0.0
2019/02/12 09:24:46.000   4280220.0173  -4034409.4373  -2458263.1396   5  11   4.3593   4.2462   2.8377  -3.2882   2.9320  -2.6220   0.00    0.0
2019/02/12 09:24:47.000   4280219.5604  -4034409.4492  -2458263.2063   5  11   4.3589   4.2453   2.8373  -3.2871   2.9312  -2.6213   0.00    0.0
2019/02/12 09:24:48.000   4280219.2824  -4034409.7361  -2458263.3028   5  11   4.3585   4.2443   2.8369  -3.2861   2.9304  -2.6206   0.00    0.0
2019/02/12 09:25:11.000   4280219.8268  -4034408.6911  -2458263.7555   5  11   4.3487   4.2234   2.8283  -3.2620   2.9132  -2.6040   0.00    0.0
2019/02/12 09:25:40.000   4280218.3620  -4034409.3932  -2458265.0112   5  11   4.3366   4.1974   2.8176  -3.2318   2.8916  -2.5831   0.00    0.0
2019/02/12 09:25:41.000   4280218.5342  -4034409.4647  -2458265.0220   5  11   4.3361   4.1965   2.8173  -3.2308   2.8908  -2.5824   0.00    0.0
2019/02/12 09:25:42.000   4280218.6923  -4034409.3966  -2458265.0320   5  11   4.3357   4.1956   2.8169  -3.2297   2.8901  -2.5817   0.00    0.0
2019/02/12 09:25:43.000   4280218.7001  -4034409.3864  -2458265.0770   5  11   4.3353   4.1947   2.8165  -3.2287   2.8893  -2.5810   0.00    0.0
2019/02/12 09:25:44.000   4280218.4321  -4034409.6407  -2458265.1968   5  11   4.3349   4.1938   2.8162  -3.2276   2.8886  -2.5802   0.00    0.0
2019/02/12 09:25:45.000   4280218.4133  -4034410.3276  -2458265.3022   5  11   4.3345   4.1930   2.8158  -3.2266   2.8879  -2.5795   0.00    0.0
2019/02/12 09:25:46.000   4280218.4421  -4034410.9132  -2458265.4359   5  11   4.3341   4.1921   2.8155  -3.2256   2.8871  -2.5788   0.00    0.0
2019/02/12 09:25:47.000   4280218.6357  -4034411.5734  -2458265.8468   5  11   4.3337   4.1912   2.8151  -3.2245   2.8864  -2.5781   0.00    0.0
2019/02/12 09:25:48.000   4280219.0975  -4034412.0319  -2458266.1771   5  11   4.3333   4.1903   2.8147  -3.2235   2.8856  -2.5774   0.00    0.0
2019/02/12 09:25:49.000   4280219.3838  -4034412.4614  -2458266.4734   5  11   4.3328   4.1894   2.8144  -3.2224   2.8849  -2.5767   0.00    0.0
2019/02/12 09:25:50.000   4280219.5059  -4034412.5180  -2458266.4576   5  11   4.3324   4.1885   2.8140  -3.2214   2.8842  -2.5759   0.00    0.0
2019/02/12 09:25:51.000   4280220.0973  -4034412.7287  -2458266.6336   5  11   4.3320   4.1876   2.8136  -3.2204   2.8834  -2.5752   0.00    0.0
2019/02/12 09:25:52.000   4280220.3868  -4034413.0069  -2458266.8855   5  11   4.3316   4.1867   2.8133  -3.2193   2.8827  -2.5745   0.00    0.0
2019/02/12 09:25:53.000   4280220.5046  -4034413.0777  -2458266.9177   5  11   4.3312   4.1859   2.8129  -3.2183   2.8819  -2.5738   0.00    0.0
2019/02/12 09:25:54.000   4280220.3591  -4034413.1943  -2458266.7406   5  11   4.3308   4.1850   2.8125  -3.2173   2.8812  -2.5731   0.00    0.0
2019/02/12 09:25:55.000   4280220.1336  -4034413.5407  -2458266.6469   5  11   4.3304   4.1841   2.8122  -3.2162   2.8805  -2.5724   0.00    0.0
2019/02/12 09:25:56.000   4280220.2457  -4034414.0192  -2458266.7055   5  11   4.3300   4.1832   2.8118  -3.2152   2.8797  -2.5716   0.00    0.0
2019/02/12 09:25:57.000   4280220.4904  -4034414.2844  -2458266.7761   5  11   4.3296   4.1823   2.8115  -3.2142   2.8790  -2.5709   0.00    0.0
2019/02/12 09:25:58.000   4280220.9596  -4034414.7638  -2458266.9054   5  11   4.3292   4.1814   2.8111  -3.2131   2.8783  -2.5702   0.00    0.0
2019/02/12 09:25:59.000   4280221.2822  -4034415.0114  -2458266.9239   5  11   4.3287   4.1806   2.8107  -3.2121   2.8775  -2.5695   0.00    0.0
2019/02/12 09:26:00.000   4280221.4914  -4034415.0703  -2458266.7032   5  11   4.3283   4.1797   2.8104  -3.2111   2.8768  -2.5688   0.00    0.0
2019/02/12 09:26:01.000   4280221.3200  -4034414.7725  -2458266.1727   5  11   4.3279   4.1788   2.8100  -3.2100   2.8761  -2.5681   0.00    0.0
2019/02/12 09:26:02.000   4280220.8961  -4034414.4170  -2458265.6822   5  11   4.3275   4.1779   2.8097  -3.2090   2.8753  -2.5674   0.00    0.0
2019/02/12 09:26:03.000   4280220.4086  -4034414.2403  -2458265.4176   5  11   4.3271   4.1770   2.8093  -3.2079   2.8746  -2.5666   0.00    0.0
2019/02/12 09:26:04.000   4280220.3612  -4034414.4275  -2458265.5172   5  11   4.3267   4.1762   2.8089  -3.2069   2.8738  -2.5659   0.00    0.0
2019/02/12 09:26:05.000   4280220.8954  -4034415.1731  -2458266.0593   5  11   4.3263   4.1753   2.8086  -3.2059   2.8731  -2.5652   0.00    0.0
2019/02/12 09:26:06.000   4280221.7718  -4034416.2368  -2458266.8341   5  11   4.3259   4.1744   2.8082  -3.2048   2.8724  -2.5645   0.00    0.0
2019/02/12 09:26:07.000   4280222.7313  -4034417.2729  -2458267.7703   5  10   4.4909   4.4631   3.5567  -3.4891   3.4204  -3.0347   0.00    0.0
2019/02/12 09:26:08.000   4280223.0499  -4034417.4373  -2458267.7371   5  10   4.4905   4.4623   3.5566  -3.4882   3.4198  -3.0341   0.00    0.0
2019/02/12 09:26:09.000   4280222.9006  -4034416.9745  -2458267.1680   5  11   4.3247   4.1718   2.8071  -3.2017   2.8702  -2.5623   0.00    0.0
2019/02/12 09:26:10.000   4280223.0472  -4034416.9527  -2458267.1948   5  11   4.3243   4.1709   2.8068  -3.2007   2.8694  -2.5616   0.00    0.0
2019/02/12 09:26:11.000   4280222.9036  -4034416.9327  -2458267.0902   5  11   4.3239   4.1700   2.8064  -3.1997   2.8687  -2.5609   0.00    0.0
2019/02/12 09:26:26.000   4280222.2175  -4034416.5620  -2458266.9237   5  11   4.3178   4.1569   2.8011  -3.1842   2.8577  -2.5502   0.00    0.0
2019/02/12 09:26:27.000   4280222.1284  -4034416.7860  -2458267.0829   5  11   4.3174   4.1560   2.8007  -3.1832   2.8570  -2.5495   0.00    0.0
2019/02/12 09:26:28.000   4280221.9648  -4034416.8735  -2458267.1829   5  11   4.3170   4.1552   2.8004  -3.1822   2.8563  -2.5488   0.00    0.0
2019/02/12 09:26:31.000   4280222.0844  -4034415.9958  -2458267.3101   5  11   4.3158   4.1526   2.7993  -3.1791   2.8541  -2.5467   0.00    0.0
2019/02/12 09:26:32.000   4280221.8772  -4034415.3457  -2458267.1937   5  11   4.3154   4.1517   2.7989  -3.1780   2.8534  -2.5459   0.00    0.0
2019/02/12 09:26:33.000   4280221.5324  -4034414.8975  -2458267.1055   5  11   4.3150   4.1508   2.7986  -3.1770   2.8527  -2.5452   0.00    0.0
2019/02/12 09:26:34.000   4280221.3484  -4034414.7349  -2458267.0708   5  11   4.3146   4.1500   2.7982  -3.1760   2.8519  -2.5445   0.00    0.0
2019/02/12 09:26:35.000   4280221.1878  -4034414.6326  -2458266.9817   5  11   4.3142   4.1491   2.7979  -3.1750   2.8512  -2.5438   0.00    0.0
2019/02/12 09:26:36.000   4280221.1326  -4034414.3942  -2458266.9512   5  11   4.3138   4.1482   2.7975  -3.1739   2.8505  -2.5431   0.00    0.0
2019/02/12 09:26:37.000   4280221.2336  -4034414.0788  -2458267.0180   5  11   4.3134   4.1474   2.7972  -3.1729   2.8497  -2.5424   0.00    0.0
2019/02/12 09:26:38.000   4280220.9048  -4034412.5514  -2458266.8696   5  10   4.5069   5.4636   2.9299  -3.8358   3.3501  -2.7572   0.00    0.0
2019/02/12 09:26:39.000   4280221.7882  -4034413.9639  -2458267.4099   5  11   4.3126   4.1456   2.7965  -3.1709   2.8483  -2.5410   0.00    0.0
2019/02/12 09:26:40.000   4280221.9757  -4034413.8592  -2458267.4376   5  11   4.3122   4.1448   2.7961  -3.1698   2.8476  -2.5403   0.00    0.0
2019/02/12 09:26:41.000   4280222.1834  -4034413.7379  -2458267.5148   5  11   4.3118   4.1439   2.7958  -3.1688   2.8468  -2.5395   0.00    0.0
2019/02/12 09:26:42.000   4280222.4002  -4034413.6027  -2458267.4736   5  11   4.3114   4.1431   2.7954  -3.1678   2.8461  -2.5388   0.00    0.0
2019/02/12 09:26:43.000   4280222.3601  -4034413.3514  -2458267.2374   5  11   4.3110   4.1422   2.7951  -3.1668   2.8454  -2.5381   0.00    0.0
2019/02/12 09:26:44.000   4280221.8393  -4034412.8692  -2458267.0191   5  11   4.3106   4.1413   2.7947  -3.1657   2.8447  -2.5374   0.00    0.0
2019/02/12 09:26:45.000   4280221.3889  -4034412.3334  -2458266.7934   5  11   4.3102   4.1405   2.7944  -3.1647   2.8439  -2.5367   0.00    0.0
2019/02/12 09:26:46.000   4280221.2771  -4034412.2356  -2458266.8139   5  11   4.3098   4.1396   2.7940  -3.1637   2.8432  -2.5360   0.00    0.0
2019/02/12 09:26:47.000   4280221.2269  -4034412.4286  -2458267.0681   5  11   4.3095   4.1388   2.7937  -3.1627   2.8425  -2.5353   0.00    0.0
2019/02/12 09:26:48.000   4280221.9606  -4034413.3814  -2458267.6551   5  10   4.5304   4.2745   2.8868  -3.3905   2.9761  -2.7282   0.00    0.0
2019/02/12 09:26:49.000   4280219.1909  -4034411.3848  -2458266.2127   5  11   4.3087   4.1370   2.7930  -3.1606   2.8411  -2.5339   0.00    0.0
2019/02/12 09:26:50.000   4280222.4704  -4034413.8902  -2458267.7422   5  11   4.3083   4.1362   2.7926  -3.1596   2.8403  -2.5331   0.00    0.0
2019/02/12 09:26:51.000   4280221.4720  -4034413.2828  -2458267.1684   5  11   4.3079   4.1353   2.7923  -3.1586   2.8396  -2.5324   0.00    0.0
2019/02/12 09:26:52.000   4280219.6792  -4034412.2691  -2458266.3266   5  11   4.3075   4.1345   2.7919  -3.1575   2.8389  -2.5317   0.00    0.0
2019/02/12 09:26:53.000   4280220.7947  -4034413.4939  -2458266.9228   5  11   4.3071   4.1336   2.7916  -3.1565   2.8382  -2.5310   0.00    0.0
2019/02/12 09:26:54.000   4280220.7919  -4034413.9476  -2458266.9735   5  11   4.3067   4.1327   2.7912  -3.1555   2.8374  -2.5303   0.00    0.0
2019/02/12 09:26:55.000   4280220.9708  -4034414.2331  -2458267.0601   5  11   4.3063   4.1319   2.7909  -3.1545   2.8367  -2.5296   0.00    0.0
2019/02/12 09:26:56.000   4280221.5692  -4034414.8165  -2458267.3232   5  11   4.3059   4.1310   2.7905  -3.1534   2.8360  -2.5289   0.00    0.0
2019/02/12 09:26:57.000   4280222.4644  -4034415.6207  -2458267.8362   5  11   4.3055   4.1302   2.7902  -3.1524   2.8353  -2.5282   0.00    0.0
2019/02/12 09:27:08.000   4280221.8608  -4034416.6240  -2458267.1415   5  11   4.3012   4.1208   2.7863  -3.1412   2.8274  -2.5204   0.00    0.0
2019/02/12 09:27:09.000   4280222.5322  -4034417.1741  -2458267.5403   5  11   4.3008   4.1199   2.7860  -3.1402   2.8267  -2.5197   0.00    0.0
2019/02/12 09:27:10.000   4280223.2038  -4034417.6976  -2458267.8926   5  11   4.3004   4.1191   2.7856  -3.1391   2.8259  -2.5190   0.00    0.0
2019/02/12 09:27:11.000   4280223.5142  -4034418.0277  -2458268.1527   5  11   4.3001   4.1182   2.7853  -3.1381   2.8252  -2.5183   0.00    0.0
2019/02/12 09:27:12.000   4280223.5065  -4034418.2752  -2458268.2508   5  11   4.2997   4.1174   2.7850  -3.1371   2.8245  -2.5176   0.00    0.0
2019/02/12 09:27:13.000   4280223.3376  -4034418.2457  -2458268.3589   5  11   4.2993   4.1165   2.7846  -3.1361   2.8238  -2.5169   0.00    0.0
2019/02/12 09:27:14.000   4280223.2082  -4034418.3683  -2458268.4767   5  11   4.2989   4.1157   2.7843  -3.1351   2.8231  -2.5161   0.00    0.0
2019/02/12 09:27:15.000   4280223.1076  -4034418.3987  -2458268.5157   5  11   4.2985   4.1149   2.7839  -3.1340   2.8224  -2.5154   0.00    0.0
2019/02/12 09:27:16.000   4280223.2942  -4034418.8026  -2458268.5913   5  11   4.2981   4.1140   2.7836  -3.1330   2.8216  -2.5147   0.00    0.0
2019/02/12 09:27:17.000   4280223.4561  -4034419.1268  -2458268.5636   5  11   4.2977   4.1132   2.7832  -3.1320   2.8209  -2.5140   0.00    0.0
2019/02/12 09:27:18.000   4280223.8281  -4034419.5092  -2458268.5317   5  11   4.2973   4.1123   2.7829  -3.1310   2.8202  -2.5133   0.00    0.0
2019/02/12 09:27:19.000   4280223.9894  -4034419.7256  -2458268.5184   5  11   4.2970   4.1115   2.7825  -3.1300   2.8195  -2.5126   0.00    0.0
2019/02/12 09:27:20.000   4280224.1390  -4034419.7193  -2458268.5160   5  11   4.2966   4.1106   2.7822  -3.1290   2.8188  -2.5119   0.00    0.0
2019/02/12 09:27:21.000   4280224.0925  -4034419.6596  -2458268.5510   5  11   4.2962   4.1098   2.7819  -3.1279   2.8181  -2.5112   0.00    0.0
2019/02/12 09:27:22.000   4280224.1643  -4034419.9101  -2458268.6046   5  11   4.2958   4.1089   2.7815  -3.1269   2.8174  -2.5105   0.00    0.0
2019/02/12 09:27:23.000   4280224.3254  -4034420.3762  -2458268.8718   5  11   4.2954   4.1081   2.7812  -3.1259   2.8166  -2.5098   0.00    0.0
2019/02/12 09:27:24.000   4280224.4158  -4034420.6558  -2458269.0239   5  11   4.2950   4.1072   2.7808  -3.1249   2.8159  -2.5091   0.00    0.0
2019/02/12 09:27:25.000   4280224.2175  -4034420.7713  -2458268.9911   5  11   4.2947   4.1064   2.7805  -3.1239   2.8152  -2.5084   0.00    0.0
2019/02/12 09:27:26.000   4280224.1958  -4034420.7428  -2458268.8555   5  11   4.2943   4.1056   2.7801  -3.1228   2.8145  -2.5077   0.00    0.0
2019/02/12 09:27:27.000   4280223.7481  -4034420.3901  -2458268.5298   5  11   4.2939   4.1047   2.7798  -3.1218   2.8138  -2.5070   0.00    0.0
2019/02/12 09:27:28.000   4280223.5316  -4034420.2755  -2458268.3291   5  11   4.2935   4.1039   2.7795  -3.1208   2.8131  -2.5063   0.00    0.0
2019/02/12 09:27:29.000   4280223.4668  -4034420.0204  -2458268.1570   5  11   4.2931   4.1030   2.7791  -3.1198   2.8124  -2.5056   0.00    0.0
2019/02/12 09:27:30.000   4280223.4094  -4034419.8999  -2458268.1051   5  11   4.2927   4.1022   2.7788  -3.1188   2.8117  -2.5049   0.00    0.0
2019/02/12 09:27:31.000   4280223.5897  -4034420.0415  -2458268.1884   5  11   4.2924   4.1014   2.7784  -3.1178   2.8109  -2.5041   0.00    0.0
2019/02/12 09:27:32.000   4280223.7922  -4034420.1838  -2458268.2349   5  11   4.2920   4.1005   2.7781  -3.1168   2.8102  -2.5034   0.00    0.0
2019/02/12 09:27:33.000   4280223.9703  -4034420.3565  -2458268.3350   5  11   4.2916   4.0997   2.7778  -3.1157   2.8095  -2.5027   0.00    0.0
2019/02/12 09:27:34.000   4280224.4054  -4034420.9674  -2458268.7489   5  11   4.2912   4.0988   2.7774  -3.1147   2.8088  -2.5020   0.00    0.0
2019/02/12 09:27:35.000   4280224.7561  -4034421.5190  -2458269.1169   5  11   4.2908   4.0980   2.7771  -3.1137   2.8081  -2.5013   0.00    0.0
2019/02/12 09:27:36.000   4280224.8983  -4034421.7973  -2458269.2597   5  11   4.2905   4.0972   2.7767  -3.1127   2.8074  -2.5006   0.00    0.0
2019/02/12 09:27:37.000   4280224.6033  -4034422.1417  -2458269.3787   5  11   4.2901   4.0963   2.7764  -3.1117   2.8067  -2.4999   0.00    0.0
2019/02/12 09:27:38.000   4280224.3804  -4034422.7110  -2458269.5080   5  11   4.2897   4.0955   2.7761  -3.1107   2.8060  -2.4992   0.00    0.0
2019/02/12 09:27:39.000   4280224.2960  -4034423.1581  -2458269.5732   5  11   4.2893   4.0947   2.7757  -3.1097   2.8053  -2.4985   0.00    0.0
2019/02/12 09:27:40.000   4280224.2574  -4034423.4406  -2458269.6583   5  11   4.2889   4.0938   2.7754  -3.1086   2.8046  -2.4978   0.00    0.0
2019/02/12 09:27:41.000   4280226.8991  -4034427.8378  -2458270.9915   5  10   4.5038   4.6025   2.8687  -3.5430   3.0647  -2.6900   0.00    0.0
2019/02/12 09:27:42.000   4280223.9376  -4034423.4495  -2458269.2959   5  11   4.2882   4.0921   2.7747  -3.1066   2.8031  -2.4964   0.00    0.0
2019/02/12 09:27:43.000   4280224.3228  -4034423.7152  -2458269.3504   5  11   4.2878   4.0913   2.7744  -3.1056   2.8024  -2.4957   0.00    0.0
2019/02/12 09:27:44.000   4280224.5869  -4034423.6351  -2458269.3606   5  11   4.2874   4.0905   2.7740  -3.1046   2.8017  -2.4950   0.00    0.0
2019/02/12 09:27:45.000   4280220.5090  -4034412.3715  -2458266.7422   5  10   4.4656   5.3621   2.8968  -3.7374   3.2777  -2.6956   0.00    0.0
2019/02/12 09:27:46.000   4280220.7756  -4034412.7234  -2458267.1159   5  10   4.4650   5.3606   2.8964  -3.7359   3.2767  -2.6947   0.00    0.0
2019/02/12 09:27:47.000   4280220.6248  -4034412.8616  -2458267.1287   5  10   4.4644   5.3591   2.8959  -3.7345   3.2756  -2.6938   0.00    0.0
2019/02/12 09:27:48.000   4280220.6874  -4034413.2785  -2458267.1365   5  10   4.4638   5.3576   2.8954  -3.7330   3.2746  -2.6929   0.00    0.0
2019/02/12 09:27:49.000   4280220.5545  -4034413.4697  -2458267.0188   5  10   4.4632   5.3561   2.8949  -3.7316   3.2735  -2.6920   0.00    0.0
2019/02/12 09:27:50.000   4280220.3563  -4034413.6476  -2458266.8802   5  10   4.4626   5.3546   2.8944  -3.7301   3.2725  -2.6911   0.00    0.0
2019/02/12 09:27:51.000   4280220.2802  -4034413.2719  -2458266.7611   5  10   4.4620   5.3532   2.8940  -3.7287   3.2714  -2.6902   0.00    0.0
2019/02/12 09:27:52.000   4280220.3393  -4034412.7829  -2458266.7057   5  10   4.4614   5.3517   2.8935  -3.7272   3.2703  -2.6892   0.00    0.0
2019/02/12 09:27:53.000   4280220.1433  -4034412.0119  -2458266.5153   5  10   4.4608   5.3502   2.8930  -3.7258   3.2693  -2.6883   0.00    0.0
2019/02/12 09:27:54.000   4280219.7262  -4034411.4350  -2458266.3381   5  10   4.4603   5.3487   2.8925  -3.7243   3.2682  -2.6874   0.00    0.0
2019/02/12 09:27:55.000   4280219.4994  -4034411.2484  -2458266.1237   5  10   4.4597   5.3473   2.8920  -3.7229   3.2672  -2.6865   0.00    0.0
2019/02/12 09:27:56.000   4280219.3334  -4034411.0080  -2458265.9003   5  10   4.4591   5.3458   2.8916  -3.7214   3.2661  -2.6856   0.00    0.0
2019/02/12 09:27:57.000   4280219.4948  -4034411.1029  -2458265.9419   5  10   4.4585   5.3443   2.8911  -3.7200   3.2651  -2.6847   0.00    0.0
2019/02/12 09:27:58.000   4280219.8172  -4034411.1931  -2458265.9174   5  10   4.4579   5.3428   2.8906  -3.7185   3.2640  -2.6838   0.00    0.0
2019/02/12 09:27:59.000   4280220.2774  -4034411.5671  -2458266.1850   5  10   4.4573   5.3414   2.8901  -3.7171   3.2630  -2.6829   0.00    0.0
2019/02/12 09:28:00.000   4280220.2446  -4034411.7376  -2458266.2114   5  10   4.4567   5.3399   2.8897  -3.7157   3.2619  -2.6820   0.00    0.0
2019/02/12 09:28:01.000   4280219.7526  -4034411.5901  -2458265.8857   5  10   4.4561   5.3384   2.8892  -3.7142   3.2608  -2.6811   0.00    0.0
2019/02/12 09:28:02.000   4280219.5401  -4034411.4205  -2458265.7488   5  10   4.4555   5.3370   2.8887  -3.7128   3.2598  -2.6802   0.00    0.0
2019/02/12 09:28:03.000   4280219.4254  -4034411.3434  -2458265.5845   5  10   4.4549   5.3355   2.8882  -3.7113   3.2587  -2.6793   0.00    0.0
2019/02/12 09:28:04.000   4280219.7093  -4034411.6102  -2458265.6754   5  10   4.4543   5.3340   2.8878  -3.7099   3.2577  -2.6784   0.00    0.0
2019/02/12 09:28:05.000   4280220.3248  -4034411.8554  -2458265.9665   5  10   4.4538   5.3326   2.8873  -3.7085   3.2566  -2.6775   0.00    0.0
2019/02/12 09:28:06.000   4280220.6961  -4034412.2693  -2458266.3490   5  10   4.4532   5.3311   2.8868  -3.7070   3.2556  -2.6766   0.00    0.0
2019/02/12 09:28:07.000   4280221.1643  -4034412.5181  -2458266.8022   5  10   4.4526   5.3296   2.8863  -3.7056   3.2545  -2.6757   0.00    0.0
2019/02/12 09:28:08.000   4280221.4616  -4034412.7874  -2458267.1040   5  10   4.4520   5.3282   2.8859  -3.7041   3.2535  -2.6748   0.00    0.0
2019/02/12 09:28:09.000   4280221.3745  -4034412.9002  -2458267.1161   5  10   4.4514   5.3267   2.8854  -3.7027   3.2525  -2.6739   0.00    0.0
2019/02/12 09:28:11.000   4280226.1738  -4034428.1796  -2458269.9453   5  11   4.2773   4.0681   2.7650  -3.0773   2.7827  -2.4760   0.00    0.0
2019/02/12 09:28:13.000   4280219.5566  -4034411.3978  -2458264.6744   5  10   4.4491   5.3209   2.8835  -3.6970   3.2483  -2.6703   0.00    0.0
2019/02/12 09:29:01.000   4280217.4503  -4034413.3397  -2458265.8267   5  10   4.4217   5.2520   2.8613  -3.6288   3.1987  -2.6275   0.00    0.0
2019/02/12 09:29:02.000   4280217.2213  -4034413.0285  -2458265.7267   5  10   4.4211   5.2506   2.8609  -3.6273   3.1977  -2.6266   0.00    0.0
2019/02/12 09:29:03.000   4280217.2002  -4034413.0359  -2458265.8233   5  10   4.4206   5.2492   2.8604  -3.6259   3.1967  -2.6257   0.00    0.0
2019/02/12 09:29:04.000   4280216.8687  -4034413.1997  -2458265.9564   5  10   4.4200   5.2478   2.8600  -3.6245   3.1957  -2.6249   0.00    0.0
2019/02/12 09:29:05.000   4280216.6729  -4034413.3375  -2458266.0366   5  10   4.4195   5.2464   2.8595  -3.6231   3.1947  -2.6240   0.00    0.0
2019/02/12 09:29:08.000   4280217.2403  -4034413.6598  -2458265.6539   5  10   4.4178   5.2422   2.8582  -3.6189   3.1916  -2.6213   0.00    0.0
2019/02/12 09:29:09.000   4280217.7190  -4034413.9433  -2458265.6055   5  10   4.4172   5.2408   2.8577  -3.6175   3.1906  -2.6205   0.00    0.0
2019/02/12 09:29:10.000   4280218.3160  -4034414.3446  -2458265.8465   5  10   4.4167   5.2394   2.8573  -3.6161   3.1896  -2.6196   0.00    0.0
2019/02/12 09:29:11.000   4280218.8161  -4034414.5418  -2458265.9155   5  10   4.4161   5.2379   2.8568  -3.6147   3.1886  -2.6187   0.00    0.0
2019/02/12 09:29:12.000   4280219.0926  -4034414.5426  -2458265.7762   5  10   4.4156   5.2365   2.8564  -3.6133   3.1876  -2.6178   0.00    0.0
2019/02/12 09:29:13.000   4280219.2837  -4034414.3583  -2458265.4723   5  10   4.4150   5.2351   2.8559  -3.6119   3.1866  -2.6169   0.00    0.0
2019/02/12 09:29:14.000   4280219.3168  -4034414.5055  -2458265.5235   5  10   4.4145   5.2337   2.8555  -3.6105   3.1855  -2.6160   0.00    0.0
2019/02/12 09:29:15.000   4280219.6597  -4034414.8014  -2458265.6920   5  10   4.4139   5.2323   2.8550  -3.6091   3.1845  -2.6152   0.00    0.0
2019/02/12 09:29:16.000   4280219.8119  -4034414.9228  -2458265.8158   5  10   4.4134   5.2309   2.8546  -3.6077   3.1835  -2.6143   0.00    0.0
2019/02/12 09:29:17.000   4280220.1595  -4034414.9695  -2458266.0175   5  10   4.4128   5.2295   2.8542  -3.6063   3.1825  -2.6134   0.00    0.0
2019/02/12 09:30:04.000   4280219.0143  -4034415.2474  -2458265.8333   5  10   4.3876   5.1649   2.8336  -3.5412   3.1357  -2.5725   0.00    0.0
2019/02/12 09:30:05.000   4280218.7955  -4034415.0773  -2458265.8491   5  10   4.3871   5.1635   2.8331  -3.5398   3.1347  -2.5716   0.00    0.0
2019/02/12 09:30:06.000   4280218.9092  -4034414.8688  -2458265.7363   5  10   4.3866   5.1622   2.8327  -3.5384   3.1337  -2.5707   0.00    0.0
2019/02/12 09:30:07.000   4280219.2123  -4034414.8707  -2458265.5459   5  10   4.3860   5.1608   2.8323  -3.5371   3.1327  -2.5699   0.00    0.0
2019/02/12 09:30:08.000   4280219.6252  -4034415.2315  -2458265.5573   5  10   4.3855   5.1595   2.8318  -3.5357   3.1317  -2.5690   0.00    0.0
2019/02/12 09:30:09.000   4280219.6567  -4034415.2754  -2458265.6136   5  10   4.3850   5.1581   2.8314  -3.5343   3.1307  -2.5681   0.00    0.0
2019/02/12 09:30:10.000   4280219.0565  -4034415.1168  -2458265.7177   5  10   4.3845   5.1568   2.8310  -3.5330   3.1298  -2.5673   0.00    0.0
2019/02/12 09:30:11.000   4280218.1460  -4034414.7610  -2458265.8882   5  10   4.3840   5.1554   2.8306  -3.5316   3.1288  -2.5664   0.00    0.0
2019/02/12 09:30:12.000   4280217.1357  -4034414.1354  -2458265.8368   5  10   4.3834   5.1541   2.8301  -3.5302   3.1278  -2.5656   0.00    0.0
2019/02/12 09:30:13.000   4280216.4454  -4034413.6579  -2458265.8686   5  10   4.3829   5.1527   2.8297  -3.5288   3.1268  -2.5647   0.00    0.0
2019/02/12 09:30:14.000   4280216.3838  -4034413.5800  -2458265.8031   5  10   4.3824   5.1514   2.8293  -3.5275   3.1258  -2.5638   0.00    0.0
2019/02/12 09:30:15.000   4280216.3315  -4034413.6124  -2458265.6651   5  10   4.3819   5.1500   2.8289  -3.5261   3.1249  -2.5630   0.00    0.0
2019/02/12 09:30:16.000   4280216.4413  -4034413.5577  -2458265.4945   5  10   4.3814   5.1487   2.8284  -3.5247   3.1239  -2.5621   0.00    0.0
2019/02/12 09:30:17.000   4280216.4880  -4034413.4976  -2458265.3260   5  10   4.3808   5.1474   2.8280  -3.5234   3.1229  -2.5613   0.00    0.0
2019/02/12 09:30:18.000   4280216.7611  -4034413.4553  -2458265.1290   5  10   4.3803   5.1460   2.8276  -3.5220   3.1219  -2.5604   0.00    0.0
2019/02/12 09:30:19.000   4280217.3251  -4034413.8372  -2458264.9174   5  10   4.3798   5.1447   2.8272  -3.5207   3.1210  -2.5595   0.00    0.0
2019/02/12 09:30:20.000   4280217.8853  -4034413.9043  -2458264.9194   5  10   4.3793   5.1433   2.8267  -3.5193   3.1200  -2.5587   0.00    0.0
2019/02/12 09:30:21.000   4280218.2146  -4034414.0877  -2458265.0875   5  10   4.3788   5.1420   2.8263  -3.5179   3.1190  -2.5578   0.00    0.0
2019/02/12 09:30:22.000   4280218.0557  -4034414.1388  -2458265.2962   5  10   4.3783   5.1407   2.8259  -3.5166   3.1180  -2.5570   0.00    0.0
2019/02/12 09:30:23.000   4280217.5663  -4034414.0680  -2458265.2669   5  10   4.3778   5.1393   2.8255  -3.5152   3.1171  -2.5561   0.00    0.0
2019/02/12 09:30:24.000   4280217.0606  -4034413.9808  -2458264.9965   5  10   4.3772   5.1380   2.8250  -3.5138   3.1161  -2.5552   0.00    0.0
2019/02/12 09:30:25.000   4280217.3944  -4034414.2229  -2458264.8970   5  10   4.3767   5.1366   2.8246  -3.5125   3.1151  -2.5544   0.00    0.0
2019/02/12 09:30:26.000   4280218.1019  -4034414.6074  -2458265.0405   5  10   4.3762   5.1353   2.8242  -3.5111   3.1141  -2.5535   0.00    0.0
2019/02/12 09:30:27.000   4280218.7243  -4034414.8544  -2458265.2058   5  10   4.3757   5.1340   2.8238  -3.5098   3.1132  -2.5527   0.00    0.0
2019/02/12 09:30:28.000   4280219.4413  -4034415.2923  -2458265.6113   5  10   4.3752   5.1326   2.8234  -3.5084   3.1122  -2.5518   0.00    0.0
2019/02/12 09:30:29.000   4280219.6149  -4034415.5004  -2458265.9318   5  10   4.3747   5.1313   2.8229  -3.5070   3.1112  -2.5510   0.00    0.0
2019/02/12 09:30:30.000   4280219.3462  -4034415.3648  -2458265.9557   5  10   4.3742   5.1300   2.8225  -3.5057   3.1103  -2.5501   0.00    0.0
2019/02/12 09:30:31.000   4280219.2648  -4034415.5952  -2458266.1636   5  10   4.3737   5.1286   2.8221  -3.5043   3.1093  -2.5492   0.00    0.0
2019/02/12 09:30:32.000   4280219.1020  -4034415.7445  -2458266.2114   5  10   4.3731   5.1273   2.8217  -3.5030   3.1083  -2.5484   0.00    0.0
2019/02/12 09:30:33.000   4280218.7646  -4034415.8175  -2458266.2010   5  10   4.3726   5.1260   2.8213  -3.5016   3.1073  -2.5475   0.00    0.0
2019/02/12 09:30:34.000   4280218.5920  -4034415.8186  -2458266.0695   5  10   4.3721   5.1247   2.8208  -3.5002   3.1064  -2.5467   0.00    0.0
2019/02/12 09:30:35.000   4280218.4046  -4034415.5193  -2458265.9214   5  10   4.3716   5.1233   2.8204  -3.4989   3.1054  -2.5458   0.00    0.0
2019/02/12 09:30:36.000   4280217.9184  -4034415.3825  -2458265.8450   5  10   4.3711   5.1220   2.8200  -3.4975   3.1044  -2.5450   0.00    0.0
2019/02/12 09:30:37.000   4280217.7948  -4034415.3345  -2458265.8464   5  10   4.3706   5.1207   2.8196  -3.4962   3.1035  -2.5441   0.00    0.0
2019/02/12 09:30:38.000   4280217.9251  -4034415.3889  -2458265.8918   5  10   4.3701   5.1194   2.8192  -3.4948   3.1025  -2.5433   0.00    0.0
2019/02/12 09:30:39.000   4280217.9889  -4034415.3457  -2458265.9391   5  10   4.3696   5.1180   2.8188  -3.4935   3.1015  -2.5424   0.00    0.0
2019/02/12 09:30:40.000   4280218.2624  -4034415.2036  -2458265.9183   5  10   4.3691   5.1167   2.8183  -3.4921   3.1006  -2.5416   0.00    0.0
2019/02/12 09:30:41.000   4280218.4766  -4034414.9885  -2458265.8782   5  10   4.3686   5.1154   2.8179  -3.4908   3.0996  -2.5407   0.00    0.0
2019/02/12 09:30:42.000   4280218.8261  -4034414.8268  -2458265.8456   5  10   4.3681   5.1141   2.8175  -3.4894   3.0987  -2.5399   0.00    0.0
2019/02/12 09:30:43.000   4280219.1020  -4034414.8354  -2458265.8079   5  10   4.3676   5.1128   2.8171  -3.4881   3.0977  -2.5390   0.00    0.0
2019/02/12 09:30:44.000   4280219.1258  -4034414.8440  -2458265.7691   5  10   4.3671   5.1114   2.8167  -3.4867   3.0967  -2.5381   0.00    0.0
2019/02/12 09:30:45.000   4280219.3184  -4034415.4473  -2458265.9265   5  10   4.3666   5.1101   2.8163  -3.4854   3.0958  -2.5373   0.00    0.0
2019/02/12 09:30:46.000   4280219.4195  -4034415.9205  -2458266.0638   5  10   4.3661   5.1088   2.8158  -3.4840   3.0948  -2.5364   0.00    0.0
2019/02/12 09:30:47.000   4280219.6850  -4034416.1546  -2458266.1639   5  10   4.3656   5.1075   2.8154  -3.4827   3.0938  -2.5356   0.00    0.0
2019/02/12 09:30:48.000   4280220.0545  -4034416.0820  -2458266.1282   5  10   4.3651   5.1062   2.8150  -3.4813   3.0929  -2.5347   0.00    0.0
2019/02/12 09:30:49.000   4280220.4422  -4034416.4786  -2458266.1944   5  10   4.3646   5.1049   2.8146  -3.4800   3.0919  -2.5339   0.00    0.0
2019/02/12 09:30:50.000   4280220.2720  -4034416.6189  -2458266.1195   5  10   4.3641   5.1035   2.8142  -3.4786   3.0910  -2.5330   0.00    0.0
2019/02/12 09:30:51.000   4280220.2008  -4034416.6562  -2458266.0416   5  10   4.3636   5.1022   2.8138  -3.4773   3.0900  -2.5322   0.00    0.0
2019/02/12 09:30:52.000   4280220.4311  -4034416.6690  -2458266.0485   5  10   4.3631   5.1009   2.8134  -3.4759   3.0890  -2.5313   0.00    0.0
2019/02/12 09:30:53.000   4280220.5453  -4034416.9153  -2458266.2184   5  10   4.3626   5.0996   2.8130  -3.4746   3.0881  -2.5305   0.00    0.0
2019/02/12 09:30:54.000   4280220.3708  -4034416.9462  -2458266.3313   5  10   4.3621   5.0983   2.8125  -3.4732   3.0871  -2.5296   0.00    0.0
2019/02/12 09:30:55.000   4280220.0138  -4034416.6891  -2458266.3911   5  10   4.3616   5.0970   2.8121  -3.4719   3.0862  -2.5288   0.00    0.0
2019/02/12 09:30:56.000   4280219.9403  -4034416.1947  -2458266.3141   5  10   4.3611   5.0957   2.8117  -3.4705   3.0852  -2.5280   0.00    0.0
2019/02/12 09:30:57.000   4280220.1437  -4034415.6400  -2458266.1216   5  10   4.3606   5.0944   2.8113  -3.4692   3.0843  -2.5271   0.00    0.0
2019/02/12 09:30:58.000   4280220.2650  -4034415.4902  -2458266.1876   5  10   4.3601   5.0931   2.8109  -3.4679   3.0833  -2.5263   0.00    0.0
2019/02/12 09:30:59.000   4280220.4212  -4034415.5617  -2458266.2392   5  10   4.3596   5.0918   2.8105  -3.4665   3.0823  -2.5254   0.00    0.0
2019/02/12 09:31:00.000   4280220.7331  -4034415.6614  -2458266.3826   5  10   4.3591   5.0905   2.8101  -3.4652   3.0814  -2.5246   0.00    0.0
2019/02/12 09:31:01.000   4280221.0198  -4034415.7290  -2458266.5038   5  10   4.3586   5.0892   2.8097  -3.4638   3.0804  -2.5237   0.00    0.0
2019/02/12 09:31:06.000   4280220.5080  -4034415.3357  -2458266.3629   5  10   4.3561   5.0827   2.8076  -3.4571   3.0757  -2.5195   0.00    0.0
2019/02/12 09:31:07.000   4280220.4115  -4034414.9878  -2458266.1852   5  10   4.3556   5.0814   2.8072  -3.4558   3.0747  -2.5186   0.00    0.0
2019/02/12 09:31:14.000   4280222.1223  -4034416.7318  -2458267.0176   5  10   4.3522   5.0723   2.8044  -3.4464   3.0681  -2.5127   0.00    0.0
2019/02/12 09:31:15.000   4280222.0057  -4034416.8357  -2458266.9243   5  10   4.3517   5.0710   2.8040  -3.4451   3.0671  -2.5119   0.00    0.0
2019/02/12 09:31:16.000   4280221.9169  -4034416.7563  -2458266.6278   5  10   4.3513   5.0697   2.8036  -3.4438   3.0662  -2.5111   0.00    0.0
2019/02/12 09:31:17.000   4280221.6247  -4034416.4674  -2458266.2643   5  10   4.3508   5.0684   2.8032  -3.4424   3.0653  -2.5102   0.00    0.0
2019/02/12 09:31:18.000   4280221.3477  -4034415.9625  -2458265.9546   5  10   4.3503   5.0671   2.8028  -3.4411   3.0643  -2.5094   0.00    0.0
2019/02/12 09:31:19.000   4280220.9756  -4034415.5053  -2458265.7658   5  10   4.3498   5.0658   2.8024  -3.4398   3.0634  -2.5085   0.00    0.0
2019/02/12 09:31:20.000   4280220.9572  -4034414.9152  -2458265.4104   5  10   4.3493   5.0646   2.8020  -3.4384   3.0624  -2.5077   0.00    0.0
2019/02/12 09:31:21.000   4280221.4523  -4034414.8443  -2458265.5484   5  10   4.3488   5.0633   2.8016  -3.4371   3.0615  -2.5068   0.00    0.0
2019/02/12 09:31:22.000   4280222.0903  -4034415.3788  -2458265.7591   5  10   4.3483   5.0620   2.8012  -3.4358   3.0605  -2.5060   0.00    0.0
2019/02/12 09:31:23.000   4280222.4879  -4034415.8417  -2458266.0449   5  10   4.3479   5.0607   2.8008  -3.4344   3.0596  -2.5052   0.00    0.0
2019/02/12 09:31:24.000   4280222.4120  -4034416.4560  -2458266.4575   5  10   4.3474   5.0594   2.8004  -3.4331   3.0586  -2.5043   0.00    0.0
2019/02/12 09:31:25.000   4280222.0239  -4034416.7999  -2458266.9250   5  10   4.3469   5.0581   2.8000  -3.4318   3.0577  -2.5035   0.00    0.0
2019/02/12 09:31:26.000   4280221.2855  -4034416.5032  -2458266.8380   5  10   4.3464   5.0569   2.7996  -3.4305   3.0568  -2.5026   0.00    0.0
2019/02/12 09:31:27.000   4280220.6541  -4034416.2321  -2458266.5903   5  10   4.3459   5.0556   2.7992  -3.4291   3.0558  -2.5018   0.00    0.0
2019/02/12 09:31:28.000   4280220.5345  -4034416.2705  -2458266.5390   5  10   4.3455   5.0543   2.7988  -3.4278   3.0549  -2.5010   0.00    0.0
2019/02/12 09:31:29.000   4280220.2602  -4034416.2703  -2458266.2501   5  10   4.3450   5.0530   2.7984  -3.4265   3.0539  -2.5001   0.00    0.0
2019/02/12 09:31:30.000   4280219.4733  -4034415.9252  -2458265.7997   5  10   4.3445   5.0517   2.7980  -3.4252   3.0530  -2.4993   0.00    0.0
2019/02/12 09:31:31.000   4280218.7973  -4034415.6684  -2458265.5075   5  10   4.3440   5.0505   2.7976  -3.4238   3.0521  -2.4985   0.00    0.0
2019/02/12 09:31:32.000   4280218.5855  -4034415.6279  -2458265.5701   5  10   4.3435   5.0492   2.7972  -3.4225   3.0511  -2.4976   0.00    0.0
2019/02/12 09:31:35.000   4280219.0845  -4034416.1916  -2458266.0040   5  10   4.3421   5.0454   2.7960  -3.4185   3.0483  -2.4951   0.00    0.0
2019/02/12 09:31:36.000   4280219.4320  -4034416.7857  -2458266.2320   5  10   4.3416   5.0441   2.7956  -3.4172   3.0474  -2.4943   0.00    0.0
2019/02/12 09:31:37.000   4280219.8601  -4034417.1160  -2458266.3814   5  10   4.3412   5.0428   2.7952  -3.4159   3.0465  -2.4934   0.00    0.0
2019/02/12 09:31:38.000   4280220.0032  -4034417.2739  -2458266.2540   5  10   4.3407   5.0415   2.7948  -3.4146   3.0455  -2.4926   0.00    0.0
2019/02/12 09:31:39.000   4280219.8561  -4034417.3800  -2458266.0633   5  10   4.3402   5.0403   2.7944  -3.4132   3.0446  -2.4918   0.00    0.0
2019/02/12 09:31:40.000   4280219.6860  -4034417.5771  -2458265.9714   5  10   4.3397   5.0390   2.7940  -3.4119   3.0437  -2.4909   0.00    0.0
2019/02/12 09:31:41.000   4280219.2281  -4034417.8423  -2458265.9792   5  10   4.3393   5.0377   2.7936  -3.4106   3.0427  -2.4901   0.00    0.0
2019/02/12 09:31:42.000   4280218.6186  -4034418.0466  -2458266.1082   5  10   4.3388   5.0365   2.7932  -3.4093   3.0418  -2.4893   0.00    0.0
2019/02/12 09:31:43.000   4280218.4026  -4034418.3226  -2458266.2343   5  10   4.3383   5.0352   2.7928  -3.4080   3.0409  -2.4884   0.00    0.0
2019/02/12 09:31:44.000   4280218.3549  -4034418.5131  -2458266.2605   5  10   4.3378   5.0339   2.7924  -3.4066   3.0399  -2.4876   0.00    0.0
2019/02/12 09:31:45.000   4280218.5463  -4034418.4882  -2458266.3352   5  10   4.3374   5.0327   2.7920  -3.4053   3.0390  -2.4868   0.00    0.0
2019/02/12 09:31:46.000   4280219.1295  -4034418.5795  -2458266.5538   5  10   4.3369   5.0314   2.7916  -3.4040   3.0381  -2.4859   0.00    0.0
2019/02/12 09:31:47.000   4280219.3108  -4034418.4043  -2458266.6264   5  10   4.3364   5.0301   2.7912  -3.4027   3.0371  -2.4851   0.00    0.0
2019/02/12 09:31:52.000   4280218.5572  -4034418.5109  -2458267.1002   5  10   4.3341   5.0238   2.7893  -3.3961   3.0325  -2.4809   0.00    0.0
2019/02/12 09:31:53.000   4280219.2155  -4034418.9512  -2458267.7030   5  10   4.3336   5.0226   2.7889  -3.3948   3.0316  -2.4801   0.00    0.0
2019/02/12 09:31:54.000   4280219.9514  -4034419.5872  -2458268.3791   5  10   4.3332   5.0213   2.7885  -3.3935   3.0306  -2.4793   0.00    0.0
2019/02/12 09:31:55.000   4280220.6582  -4034420.1572  -2458268.7814   5  10   4.3327   5.0201   2.7881  -3.3922   3.0297  -2.4784   0.00    0.0
2019/02/12 09:31:56.000   4280221.3180  -4034420.8047  -2458269.1501   5  10   4.3322   5.0188   2.7877  -3.3909   3.0288  -2.4776   0.00    0.0
2019/02/12 09:31:57.000   4280221.6182  -4034421.0719  -2458269.3128   5  10   4.3318   5.0176   2.7873  -3.3895   3.0279  -2.4768   0.00    0.0
2019/02/12 09:31:58.000   4280221.6488  -4034421.0714  -2458269.3080   5  10   4.3313   5.0163   2.7869  -3.3882   3.0269  -2.4760   0.00    0.0
2019/02/12 09:31:59.000   4280221.4439  -4034421.0164  -2458269.1635   5  10   4.3308   5.0150   2.7866  -3.3869   3.0260  -2.4751   0.00    0.0
2019/02/12 09:32:00.000   4280221.6313  -4034421.0196  -2458269.1748   5  10   4.3304   5.0138   2.7862  -3.3856   3.0251  -2.4743   0.00    0.0
2019/02/12 09:32:02.000   4280222.3482  -4034421.3194  -2458269.3985   5  10   4.3294   5.0113   2.7854  -3.3830   3.0233  -2.4726   0.00    0.0
2019/02/12 09:32:03.000   4280222.6074  -4034421.6428  -2458269.6550   5  10   4.3290   5.0100   2.7850  -3.3817   3.0223  -2.4718   0.00    0.0
2019/02/12 09:32:40.000   4280222.9749  -4034415.5002  -2458266.8982   5  10   4.3123   4.9644   2.7709  -3.3336   2.9886  -2.4414   0.00    0.0
2019/02/12 09:32:45.000   4280223.4712  -4034416.1382  -2458266.4744   5  10   4.3100   4.9583   2.7691  -3.3272   2.9841  -2.4373   0.00    0.0
2019/02/12 09:32:46.000   4280223.5787  -4034416.0357  -2458266.3429   5  10   4.3096   4.9571   2.7687  -3.3259   2.9832  -2.4365   0.00    0.0
2019/02/12 09:32:47.000   4280223.5166  -4034415.7801  -2458266.1496   5  10   4.3092   4.9559   2.7683  -3.3246   2.9823  -2.4357   0.00    0.0
2019/02/12 09:32:48.000   4280223.5972  -4034415.6349  -2458265.9873   5  10   4.3087   4.9547   2.7679  -3.3233   2.9814  -2.4349   0.00    0.0
2019/02/12 09:32:49.000   4280223.5789  -4034415.7322  -2458266.1106   5  10   4.3083   4.9535   2.7676  -3.3220   2.9805  -2.4340   0.00    0.0
2019/02/12 09:32:50.000   4280223.3812  -4034415.5837  -2458266.1107   5  10   4.3079   4.9523   2.7672  -3.3208   2.9796  -2.4332   0.00    0.0
2019/02/12 09:32:51.000   4280223.0607  -4034415.2401  -2458265.7885   5  10   4.3074   4.9511   2.7668  -3.3195   2.9787  -2.4324   0.00    0.0
2019/02/12 09:32:52.000   4280223.0613  -4034414.9196  -2458265.4816   5  10   4.3070   4.9499   2.7665  -3.3182   2.9778  -2.4316   0.00    0.0
2019/02/12 09:32:53.000   4280223.0361  -4034414.6396  -2458265.0456   5  10   4.3065   4.9487   2.7661  -3.3169   2.9769  -2.4308   0.00    0.0
2019/02/12 09:32:54.000   4280222.8556  -4034414.5821  -2458264.7965   5  10   4.3061   4.9475   2.7657  -3.3156   2.9761  -2.4300   0.00    0.0
2019/02/12 09:32:55.000   4280222.7238  -4034414.7408  -2458264.6913   5  10   4.3057   4.9463   2.7654  -3.3144   2.9752  -2.4292   0.00    0.0
2019/02/12 09:32:56.000   4280222.7386  -4034414.9355  -2458264.6302   5  10   4.3052   4.9451   2.7650  -3.3131   2.9743  -2.4283   0.00    0.0
2019/02/12 09:32:57.000   4280223.0440  -4034415.2375  -2458264.7940   5  10   4.3048   4.9438   2.7646  -3.3118   2.9734  -2.4275   0.00    0.0
2019/02/12 09:32:58.000   4280223.5790  -4034415.7024  -2458265.0084   5  10   4.3044   4.9426   2.7642  -3.3105   2.9725  -2.4267   0.00    0.0
2019/02/12 09:32:59.000   4280223.8545  -4034415.6986  -2458264.9823   5  10   4.3039   4.9414   2.7639  -3.3092   2.9716  -2.4259   0.00    0.0
2019/02/12 09:33:00.000   4280224.1108  -4034415.5008  -2458264.8696   5  10   4.3035   4.9402   2.7635  -3.3080   2.9707  -2.4251   0.00    0.0
2019/02/12 09:33:01.000   4280224.0149  -4034415.0387  -2458264.3906   5  10   4.3031   4.9390   2.7631  -3.3067   2.9698  -2.4243   0.00    0.0
2019/02/12 09:33:02.000   4280224.0390  -4034414.6328  -2458263.9317   5  10   4.3026   4.9378   2.7628  -3.3054   2.9689  -2.4235   0.00    0.0
2019/02/12 09:33:03.000   4280223.5201  -4034414.4151  -2458263.5609   5  10   4.3022   4.9366   2.7624  -3.3041   2.9680  -2.4227   0.00    0.0
2019/02/12 09:33:04.000   4280223.0031  -4034414.4114  -2458263.5207   5  10   4.3018   4.9354   2.7620  -3.3028   2.9671  -2.4218   0.00    0.0
2019/02/12 09:33:05.000   4280222.3688  -4034414.6094  -2458263.5086   5  10   4.3013   4.9343   2.7617  -3.3016   2.9662  -2.4210   0.00    0.0
2019/02/12 09:33:06.000   4280222.2287  -4034414.9386  -2458263.5612   5  10   4.3009   4.9331   2.7613  -3.3003   2.9654  -2.4202   0.00    0.0
2019/02/12 09:33:07.000   4280222.2991  -4034415.5040  -2458263.7598   5  10   4.3005   4.9319   2.7610  -3.2990   2.9645  -2.4194   0.00    0.0
2019/02/12 09:33:08.000   4280222.5217  -4034415.9832  -2458263.9786   5  10   4.3001   4.9307   2.7606  -3.2977   2.9636  -2.4186   0.00    0.0
2019/02/12 09:33:09.000   4280222.6073  -4034416.2675  -2458263.9735   5  10   4.2996   4.9295   2.7602  -3.2965   2.9627  -2.4178   0.00    0.0
2019/02/12 09:33:10.000   4280222.6180  -4034416.5109  -2458263.9467   5  10   4.2992   4.9283   2.7599  -3.2952   2.9618  -2.4170   0.00    0.0
2019/02/12 09:33:11.000   4280222.7986  -4034416.6398  -2458263.9992   5  10   4.2988   4.9271   2.7595  -3.2939   2.9609  -2.4162   0.00    0.0
2019/02/12 09:33:12.000   4280222.6289  -4034416.7979  -2458264.2137   5  10   4.2983   4.9259   2.7591  -3.2926   2.9600  -2.4154   0.00    0.0
2019/02/12 09:33:31.000   4280222.6854  -4034414.6165  -2458264.7380   5   9   4.6976   6.1310   2.9477  -4.2101   3.5421  -2.7891   0.00    0.0
2019/02/12 09:33:34.000   4280223.2041  -4034414.3405  -2458264.5490   5   9   4.6954   6.1254   2.9460  -4.2049   3.5384  -2.7860   0.00    0.0
2019/02/12 09:33:35.000   4280222.9613  -4034414.1171  -2458264.5403   5   9   4.6946   6.1235   2.9455  -4.2032   3.5371  -2.7849   0.00    0.0
2019/02/12 09:33:36.000   4280222.5208  -4034414.3029  -2458264.7846   5   9   4.6939   6.1217   2.9450  -4.2015   3.5358  -2.7839   0.00    0.0
2019/02/12 09:33:37.000   4280221.8992  -4034414.4756  -2458265.0338   5   9   4.6932   6.1198   2.9444  -4.1998   3.5346  -2.7828   0.00    0.0
