% program   : RTKPOST ver.2.4.2
% inp file  : D:\Google Drive\UERJ\_Projeto Final\Python\tcc-guilherme\20190212_Sta91500_Smoothed.19o
% inp file  : D:\Google Drive\UERJ\_Projeto Final\20190212_Marco91500 IBGE\riod0431.19o
% inp file  : D:\Google Drive\UERJ\_Projeto Final\20190212_Marco91500 IBGE\brdm0430.19p
% obs start : 2019/02/12 08:38:50.0 GPST (week2040 203930.0s)
% obs end   : 2019/02/12 10:17:44.0 GPST (week2040 209864.0s)
% pos mode  : kinematic
% freqs     : L1
% solution  : forward
% elev mask : 15.0 deg
% dynamics  : off
% tidecorr  : off
% ionos opt : broadcast
% tropo opt : saastamoinen
% ephemeris : broadcast
% navi sys  : gps glonass galileo
% amb res   : fix and hold
% amb glo   : on
% val thres : 3.0
% antenna1  :                       ( 0.0000  0.0000  0.0000)
% antenna2  :                       ( 0.0000  0.0000  0.0080)
% ref pos   :  4280294.8840  -4034431.2298  -2458141.3831
%
% (x/y/z-ecef=WGS84,Q=1:fix,2:float,3:sbas,4:dgps,5:single,6:ppp,ns=# of satellites)
%  GPST                      x-ecef(m)      y-ecef(m)      z-ecef(m)   Q  ns   sdx(m)   sdy(m)   sdz(m)  sdxy(m)  sdyz(m)  sdzx(m) age(s)  ratio
2019/02/12 09:13:31.000   4280224.6509  -4034418.3607  -2458267.5539   5  11  30.0000  30.0000  30.0000   0.0000   0.0000   0.0000   1.00    0.0
2019/02/12 09:13:32.000   4280224.8991  -4034418.9455  -2458267.6830   5  11  30.0000  30.0000  30.0000   0.0000   0.0000   0.0000   2.00    0.0
2019/02/12 09:13:33.000   4280225.3825  -4034419.4016  -2458267.8213   5  11  30.0000  30.0000  30.0000   0.0000   0.0000   0.0000   3.00    0.0
2019/02/12 09:13:34.000   4280225.3512  -4034419.4522  -2458267.7432   5  11  30.0000  30.0000  30.0000   0.0000   0.0000   0.0000   4.00    0.0
2019/02/12 09:14:15.000   4280233.5822  -4034415.0880  -2458267.2816   5  12  30.0000  30.0000  30.0000   0.0000   0.0000   0.0000  -0.00    0.0
2019/02/12 09:18:12.000   4280220.0172  -4034406.4516  -2458260.7271   5  10  30.0000  30.0000  30.0000   0.0000   0.0000   0.0000  12.00    0.0
2019/02/12 09:18:13.000   4280219.7686  -4034406.1739  -2458260.4720   5  10  30.0000  30.0000  30.0000   0.0000   0.0000   0.0000  13.00    0.0
2019/02/12 09:18:14.000   4280219.4731  -4034405.9251  -2458260.3941   5  10  30.0000  30.0000  30.0000   0.0000   0.0000   0.0000  14.00    0.0
2019/02/12 09:18:15.000   4280219.4632  -4034405.7925  -2458260.4084   5  10  30.0000  30.0000  30.0000   0.0000   0.0000   0.0000  -0.00    0.0
2019/02/12 09:18:16.000   4280219.3757  -4034405.3600  -2458260.2364   5  10  30.0000  30.0000  30.0000   0.0000   0.0000   0.0000   1.00    0.0
2019/02/12 09:18:17.000   4280219.2534  -4034404.8707  -2458260.0226   5  10  30.0000  30.0000  30.0000   0.0000   0.0000   0.0000   2.00    0.0
2019/02/12 09:18:18.000   4280219.1303  -4034404.7852  -2458259.9145   5  10  30.0000  30.0000  30.0000   0.0000   0.0000   0.0000   3.00    0.0
2019/02/12 09:18:19.000   4280219.5314  -4034404.9725  -2458259.9879   5  10  30.0000  30.0000  30.0000   0.0000   0.0000   0.0000   4.00    0.0
2019/02/12 09:18:20.000   4280219.9336  -4034405.4067  -2458260.2582   5  10  30.0000  30.0000  30.0000   0.0000   0.0000   0.0000   5.00    0.0
2019/02/12 09:18:21.000   4280219.9715  -4034405.6528  -2458260.3220   5  10  30.0000  30.0000  30.0000   0.0000   0.0000   0.0000   6.00    0.0
2019/02/12 09:18:22.000   4280219.9060  -4034405.4464  -2458260.3950   5  10  30.0000  30.0000  30.0000   0.0000   0.0000   0.0000   7.00    0.0
2019/02/12 09:18:24.000   4280218.1805  -4034400.2520  -2458259.4048   5  11  30.0000  30.0000  30.0000   0.0000   0.0000   0.0000   9.00    0.0
2019/02/12 09:18:25.000   4280220.5396  -4034405.8456  -2458260.9720   5  11  30.0000  30.0000  30.0000   0.0000   0.0000   0.0000  10.00    0.0
2019/02/12 09:19:55.000   4280225.5264  -4034424.3496  -2458265.8255   5  11  30.0000  30.0000  30.0000   0.0000   0.0000   0.0000  10.00    0.0
2019/02/12 09:19:56.000   4280225.5416  -4034424.8050  -2458266.1465   5  11  30.0000  30.0000  30.0000   0.0000   0.0000   0.0000  11.00    0.0
2019/02/12 09:19:57.000   4280225.3543  -4034424.8343  -2458266.2108   5  11  30.0000  30.0000  30.0000   0.0000   0.0000   0.0000  12.00    0.0
2019/02/12 09:19:58.000   4280225.5007  -4034424.9775  -2458266.4563   5  11  30.0000  30.0000  30.0000   0.0000   0.0000   0.0000  13.00    0.0
2019/02/12 09:19:59.000   4280225.9561  -4034424.9697  -2458266.5774   5  11  30.0000  30.0000  30.0000   0.0000   0.0000   0.0000  14.00    0.0
2019/02/12 09:20:00.000   4280226.0368  -4034424.8984  -2458266.6506   5  11  30.0000  30.0000  30.0000   0.0000   0.0000   0.0000  -0.00    0.0
2019/02/12 09:20:01.000   4280225.9686  -4034425.0639  -2458266.7983   5  11  30.0000  30.0000  30.0000   0.0000   0.0000   0.0000   1.00    0.0
2019/02/12 09:20:02.000   4280225.9372  -4034425.1747  -2458266.8508   5  11  30.0000  30.0000  30.0000   0.0000   0.0000   0.0000   2.00    0.0
2019/02/12 09:20:03.000   4280225.9501  -4034425.5968  -2458267.2345   5  11  30.0000  30.0000  30.0000   0.0000   0.0000   0.0000   3.00    0.0
2019/02/12 09:20:04.000   4280225.8302  -4034425.6978  -2458267.3013   5  11  30.0000  30.0000  30.0000   0.0000   0.0000   0.0000   4.00    0.0
2019/02/12 09:20:05.000   4280225.9539  -4034425.9122  -2458267.2490   5  11  30.0000  30.0000  30.0000   0.0000   0.0000   0.0000   5.00    0.0
2019/02/12 09:20:06.000   4280225.9081  -4034426.3269  -2458267.2700   5  11  30.0000  30.0000  30.0000   0.0000   0.0000   0.0000   6.00    0.0
2019/02/12 09:20:07.000   4280225.7509  -4034426.7208  -2458267.4934   5  11  30.0000  30.0000  30.0000   0.0000   0.0000   0.0000   7.00    0.0
2019/02/12 09:20:08.000   4280225.5918  -4034426.9093  -2458267.6631   5  11  30.0000  30.0000  30.0000   0.0000   0.0000   0.0000   8.00    0.0
2019/02/12 09:20:11.000   4280225.7440  -4034427.1441  -2458267.8776   5  11  30.0000  30.0000  30.0000   0.0000   0.0000   0.0000  11.00    0.0
2019/02/12 09:20:12.000   4280225.7873  -4034426.9183  -2458267.6172   5  11  30.0000  30.0000  30.0000   0.0000   0.0000   0.0000  12.00    0.0
2019/02/12 09:20:13.000   4280225.6589  -4034426.7324  -2458267.3437   5  11  30.0000  30.0000  30.0000   0.0000   0.0000   0.0000  13.00    0.0
2019/02/12 09:20:14.000   4280225.7424  -4034426.9894  -2458267.4200   5  11  30.0000  30.0000  30.0000   0.0000   0.0000   0.0000  14.00    0.0
2019/02/12 09:20:15.000   4280225.7835  -4034427.2580  -2458267.5517   5  11  30.0000  30.0000  30.0000   0.0000   0.0000   0.0000  -0.00    0.0
2019/02/12 09:20:24.000   4280224.2647  -4034426.4770  -2458267.1877   5  11  30.0000  30.0000  30.0000   0.0000   0.0000   0.0000   9.00    0.0
2019/02/12 09:20:25.000   4280224.1942  -4034426.5337  -2458267.1406   5  11  30.0000  30.0000  30.0000   0.0000   0.0000   0.0000  10.00    0.0
2019/02/12 09:20:26.000   4280223.9226  -4034426.4922  -2458266.9332   5  11  30.0000  30.0000  30.0000   0.0000   0.0000   0.0000  11.00    0.0
2019/02/12 09:20:43.000   4280218.1452  -4034413.2075  -2458262.0152   5  10  30.0000  30.0000  30.0000   0.0000   0.0000   0.0000  13.00    0.0
2019/02/12 09:20:44.000   4280218.4461  -4034413.2491  -2458262.6877   5  10  30.0000  30.0000  30.0000   0.0000   0.0000   0.0000  14.00    0.0
2019/02/12 09:20:45.000   4280218.6783  -4034413.4522  -2458263.2002   5  10  30.0000  30.0000  30.0000   0.0000   0.0000   0.0000  -0.00    0.0
2019/02/12 09:20:46.000   4280218.6027  -4034413.5186  -2458263.3392   5  10  30.0000  30.0000  30.0000   0.0000   0.0000   0.0000   1.00    0.0
2019/02/12 09:20:47.000   4280218.3705  -4034413.3271  -2458263.2886   5  10  30.0000  30.0000  30.0000   0.0000   0.0000   0.0000   2.00    0.0
2019/02/12 09:20:48.000   4280218.0950  -4034413.0456  -2458263.0190   5  10  30.0000  30.0000  30.0000   0.0000   0.0000   0.0000   3.00    0.0
2019/02/12 09:20:49.000   4280218.0422  -4034413.4253  -2458262.9357   5  10  30.0000  30.0000  30.0000   0.0000   0.0000   0.0000   4.00    0.0
2019/02/12 09:20:50.000   4280220.6483  -4034420.0131  -2458264.5411   5  11  30.0000  30.0000  30.0000   0.0000   0.0000   0.0000   5.00    0.0
2019/02/12 09:21:13.000   4280221.7843  -4034422.1182  -2458264.2834   5  11  30.0000  30.0000  30.0000   0.0000   0.0000   0.0000  13.00    0.0
2019/02/12 09:21:14.000   4280221.9646  -4034422.4438  -2458264.4979   5  11  30.0000  30.0000  30.0000   0.0000   0.0000   0.0000  14.00    0.0
2019/02/12 09:21:15.000   4280222.1823  -4034422.6769  -2458264.7238   5  11  30.0000  30.0000  30.0000   0.0000   0.0000   0.0000  -0.00    0.0
2019/02/12 09:21:16.000   4280222.4381  -4034422.7156  -2458264.8538   5  11  30.0000  30.0000  30.0000   0.0000   0.0000   0.0000   1.00    0.0
2019/02/12 09:21:17.000   4280222.5783  -4034422.8584  -2458264.9724   5  11  30.0000  30.0000  30.0000   0.0000   0.0000   0.0000   2.00    0.0
2019/02/12 09:21:18.000   4280222.5601  -4034423.4602  -2458265.1974   5  11  30.0000  30.0000  30.0000   0.0000   0.0000   0.0000   3.00    0.0
2019/02/12 09:21:19.000   4280223.2358  -4034424.2006  -2458265.5126   5  11  30.0000  30.0000  30.0000   0.0000   0.0000   0.0000   4.00    0.0
2019/02/12 09:21:20.000   4280223.4720  -4034424.7007  -2458265.6345   5  11  30.0000  30.0000  30.0000   0.0000   0.0000   0.0000   5.00    0.0
2019/02/12 09:21:21.000   4280223.2766  -4034425.1118  -2458265.7338   5  11  30.0000  30.0000  30.0000   0.0000   0.0000   0.0000   6.00    0.0
2019/02/12 09:21:22.000   4280223.0761  -4034425.0037  -2458265.5232   5  11  30.0000  30.0000  30.0000   0.0000   0.0000   0.0000   7.00    0.0
2019/02/12 09:21:23.000   4280223.1982  -4034424.8467  -2458265.3852   5  11  30.0000  30.0000  30.0000   0.0000   0.0000   0.0000   8.00    0.0
2019/02/12 09:21:42.000   4280225.0727  -4034426.8861  -2458266.9239   5  11  30.0000  30.0000  30.0000   0.0000   0.0000   0.0000  12.00    0.0
2019/02/12 09:21:43.000   4280224.7451  -4034427.1112  -2458266.8160   5  11  30.0000  30.0000  30.0000   0.0000   0.0000   0.0000  13.00    0.0
2019/02/12 09:21:44.000   4280224.8500  -4034427.4596  -2458266.8381   5  11  30.0000  30.0000  30.0000   0.0000   0.0000   0.0000  14.00    0.0
2019/02/12 09:21:45.000   4280224.9782  -4034427.8488  -2458266.9256   5  11  30.0000  30.0000  30.0000   0.0000   0.0000   0.0000  -0.00    0.0
2019/02/12 09:21:46.000   4280225.1660  -4034427.9297  -2458266.8831   5  11  30.0000  30.0000  30.0000   0.0000   0.0000   0.0000   1.00    0.0
2019/02/12 09:21:47.000   4280225.0013  -4034427.7111  -2458266.8114   5  11  30.0000  30.0000  30.0000   0.0000   0.0000   0.0000   2.00    0.0
2019/02/12 09:21:48.000   4280224.6953  -4034427.1539  -2458266.5580   5  11  30.0000  30.0000  30.0000   0.0000   0.0000   0.0000   3.00    0.0
2019/02/12 09:21:49.000   4280224.0693  -4034426.5756  -2458266.4224   5  11  30.0000  30.0000  30.0000   0.0000   0.0000   0.0000   4.00    0.0
2019/02/12 09:21:50.000   4280223.5307  -4034426.0295  -2458266.2072   5  11  30.0000  30.0000  30.0000   0.0000   0.0000   0.0000   5.00    0.0
2019/02/12 09:21:51.000   4280223.3182  -4034425.5336  -2458266.0589   5  11  30.0000  30.0000  30.0000   0.0000   0.0000   0.0000   6.00    0.0
2019/02/12 09:21:52.000   4280223.0550  -4034424.9639  -2458265.8911   5  11  30.0000  30.0000  30.0000   0.0000   0.0000   0.0000   7.00    0.0
2019/02/12 09:22:21.000   4280224.6301  -4034422.8110  -2458265.7256   5  11  30.0000  30.0000  30.0000   0.0000   0.0000   0.0000   6.00    0.0
2019/02/12 09:22:22.000   4280224.9496  -4034422.9383  -2458265.5114   5  11  30.0000  30.0000  30.0000   0.0000   0.0000   0.0000   7.00    0.0
2019/02/12 09:22:23.000   4280225.1533  -4034423.1912  -2458265.4212   5  11  30.0000  30.0000  30.0000   0.0000   0.0000   0.0000   8.00    0.0
2019/02/12 09:22:24.000   4280225.2677  -4034423.2919  -2458265.4509   5  11  30.0000  30.0000  30.0000   0.0000   0.0000   0.0000   9.00    0.0
2019/02/12 09:22:25.000   4280225.2156  -4034423.2182  -2458265.2147   5  11  30.0000  30.0000  30.0000   0.0000   0.0000   0.0000  10.00    0.0
2019/02/12 09:22:26.000   4280225.1079  -4034423.0862  -2458264.9827   5  11  30.0000  30.0000  30.0000   0.0000   0.0000   0.0000  11.00    0.0
2019/02/12 09:22:27.000   4280224.9370  -4034422.6832  -2458264.6446   5  11  30.0000  30.0000  30.0000   0.0000   0.0000   0.0000  12.00    0.0
2019/02/12 09:22:28.000   4280224.6705  -4034422.4474  -2458264.5348   5  11  30.0000  30.0000  30.0000   0.0000   0.0000   0.0000  13.00    0.0
2019/02/12 09:22:29.000   4280224.3229  -4034422.3734  -2458264.4152   5  11  30.0000  30.0000  30.0000   0.0000   0.0000   0.0000  14.00    0.0
2019/02/12 09:22:30.000   4280224.1713  -4034422.4657  -2458264.5656   5  11  30.0000  30.0000  30.0000   0.0000   0.0000   0.0000  -0.00    0.0
2019/02/12 09:22:31.000   4280224.1001  -4034422.6619  -2458264.9289   5  11  30.0000  30.0000  30.0000   0.0000   0.0000   0.0000   1.00    0.0
2019/02/12 09:22:32.000   4280224.0153  -4034422.9057  -2458265.1161   5  11  30.0000  30.0000  30.0000   0.0000   0.0000   0.0000   2.00    0.0
2019/02/12 09:22:33.000   4280224.0485  -4034423.0557  -2458265.0123   5  11  30.0000  30.0000  30.0000   0.0000   0.0000   0.0000   3.00    0.0
2019/02/12 09:22:34.000   4280223.8805  -4034422.9492  -2458264.6071   5  11  30.0000  30.0000  30.0000   0.0000   0.0000   0.0000   4.00    0.0
2019/02/12 09:22:35.000   4280224.0640  -4034422.6656  -2458264.3178   5  11  30.0000  30.0000  30.0000   0.0000   0.0000   0.0000   5.00    0.0
2019/02/12 09:22:36.000   4280224.3837  -4034422.6502  -2458264.3053   5  11  30.0000  30.0000  30.0000   0.0000   0.0000   0.0000   6.00    0.0
2019/02/12 09:22:37.000   4280224.5672  -4034422.6242  -2458264.4792   5  11  30.0000  30.0000  30.0000   0.0000   0.0000   0.0000   7.00    0.0
2019/02/12 09:22:38.000   4280224.6061  -4034422.6853  -2458264.6707   5  11  30.0000  30.0000  30.0000   0.0000   0.0000   0.0000   8.00    0.0
2019/02/12 09:22:39.000   4280224.3187  -4034422.6222  -2458264.5877   5  11  30.0000  30.0000  30.0000   0.0000   0.0000   0.0000   9.00    0.0
2019/02/12 09:23:22.000   4280225.2112  -4034417.8659  -2458265.0219   5  11  30.0000  30.0000  30.0000   0.0000   0.0000   0.0000   7.00    0.0
2019/02/12 09:23:23.000   4280225.3146  -4034417.9135  -2458264.9857   5  11  30.0000  30.0000  30.0000   0.0000   0.0000   0.0000   8.00    0.0
2019/02/12 09:23:24.000   4280225.4433  -4034417.8269  -2458264.8706   5  11  30.0000  30.0000  30.0000   0.0000   0.0000   0.0000   9.00    0.0
2019/02/12 09:23:25.000   4280225.4328  -4034417.5964  -2458264.9137   5  11  30.0000  30.0000  30.0000   0.0000   0.0000   0.0000  10.00    0.0
2019/02/12 09:23:26.000   4280225.8684  -4034417.3029  -2458264.7993   5  11  30.0000  30.0000  30.0000   0.0000   0.0000   0.0000  11.00    0.0
2019/02/12 09:23:27.000   4280226.2170  -4034417.4248  -2458264.8666   5  11  30.0000  30.0000  30.0000   0.0000   0.0000   0.0000  12.00    0.0
2019/02/12 09:23:28.000   4280226.1586  -4034417.3706  -2458264.8953   5  11  30.0000  30.0000  30.0000   0.0000   0.0000   0.0000  13.00    0.0
2019/02/12 09:23:29.000   4280225.6393  -4034417.0790  -2458264.7018   5  11  30.0000  30.0000  30.0000   0.0000   0.0000   0.0000  14.00    0.0
2019/02/12 09:23:30.000   4280225.0657  -4034416.8581  -2458264.4081   5  11  30.0000  30.0000  30.0000   0.0000   0.0000   0.0000  -0.00    0.0
2019/02/12 09:23:31.000   4280224.5122  -4034416.9892  -2458264.3854   5  11  30.0000  30.0000  30.0000   0.0000   0.0000   0.0000   1.00    0.0
2019/02/12 09:23:32.000   4280224.0164  -4034416.6550  -2458264.0214   5  11  30.0000  30.0000  30.0000   0.0000   0.0000   0.0000   2.00    0.0
2019/02/12 09:23:33.000   4280223.4158  -4034416.2615  -2458263.7329   5  11  30.0000  30.0000  30.0000   0.0000   0.0000   0.0000   3.00    0.0
2019/02/12 09:23:34.000   4280223.1604  -4034416.0920  -2458263.7025   5  11  30.0000  30.0000  30.0000   0.0000   0.0000   0.0000   4.00    0.0
2019/02/12 09:23:35.000   4280222.9747  -4034416.3414  -2458263.8297   5  11  30.0000  30.0000  30.0000   0.0000   0.0000   0.0000   5.00    0.0
2019/02/12 09:23:36.000   4280223.1244  -4034416.4383  -2458263.9265   5  11  30.0000  30.0000  30.0000   0.0000   0.0000   0.0000   6.00    0.0
2019/02/12 09:23:37.000   4280223.0521  -4034416.0823  -2458263.6119   5  11  30.0000  30.0000  30.0000   0.0000   0.0000   0.0000   7.00    0.0
2019/02/12 09:23:38.000   4280222.9741  -4034415.8700  -2458263.3831   5  11  30.0000  30.0000  30.0000   0.0000   0.0000   0.0000   8.00    0.0
2019/02/12 09:23:39.000   4280223.0378  -4034415.8199  -2458263.2900   5  11  30.0000  30.0000  30.0000   0.0000   0.0000   0.0000   9.00    0.0
2019/02/12 09:23:40.000   4280223.0942  -4034415.7056  -2458263.2145   5  11  30.0000  30.0000  30.0000   0.0000   0.0000   0.0000  10.00    0.0
2019/02/12 09:23:41.000   4280223.1136  -4034415.6797  -2458263.2093   5  11  30.0000  30.0000  30.0000   0.0000   0.0000   0.0000  11.00    0.0
2019/02/12 09:23:42.000   4280223.2291  -4034415.5847  -2458263.2544   5  11  30.0000  30.0000  30.0000   0.0000   0.0000   0.0000  12.00    0.0
2019/02/12 09:23:43.000   4280223.3646  -4034415.6075  -2458263.2771   5  11  30.0000  30.0000  30.0000   0.0000   0.0000   0.0000  13.00    0.0
2019/02/12 09:23:52.000   4280221.8775  -4034414.4578  -2458262.8107   5  11  30.0000  30.0000  30.0000   0.0000   0.0000   0.0000   7.00    0.0
2019/02/12 09:23:57.000   4280221.7977  -4034414.6925  -2458262.5324   5  11  30.0000  30.0000  30.0000   0.0000   0.0000   0.0000  12.00    0.0
2019/02/12 09:23:58.000   4280221.3662  -4034414.4818  -2458262.3045   5  11  30.0000  30.0000  30.0000   0.0000   0.0000   0.0000  13.00    0.0
2019/02/12 09:23:59.000   4280221.0361  -4034414.0967  -2458261.9549   5  11  30.0000  30.0000  30.0000   0.0000   0.0000   0.0000  14.00    0.0
2019/02/12 09:24:00.000   4280220.9548  -4034413.9170  -2458261.7425   5  11  30.0000  30.0000  30.0000   0.0000   0.0000   0.0000  -0.00    0.0
2019/02/12 09:24:01.000   4280220.6664  -4034413.5138  -2458261.5846   5  11  30.0000  30.0000  30.0000   0.0000   0.0000   0.0000   1.00    0.0
2019/02/12 09:24:02.000   4280220.3659  -4034412.9016  -2458261.3633   5  11  30.0000  30.0000  30.0000   0.0000   0.0000   0.0000   2.00    0.0
2019/02/12 09:24:03.000   4280220.2224  -4034412.4537  -2458261.2848   5  11  30.0000  30.0000  30.0000   0.0000   0.0000   0.0000   3.00    0.0
2019/02/12 09:24:04.000   4280220.0817  -4034412.0324  -2458261.3150   5  11  30.0000  30.0000  30.0000   0.0000   0.0000   0.0000   4.00    0.0
2019/02/12 09:24:05.000   4280219.7903  -4034411.5038  -2458261.3689   5  11  30.0000  30.0000  30.0000   0.0000   0.0000   0.0000   5.00    0.0
2019/02/12 09:24:32.000   4280218.9548  -4034410.7630  -2458262.6816   5  11  30.0000  30.0000  30.0000   0.0000   0.0000   0.0000   2.00    0.0
2019/02/12 09:24:39.000   4280219.3607  -4034409.7804  -2458262.4074   5  11  30.0000  30.0000  30.0000   0.0000   0.0000   0.0000   9.00    0.0
2019/02/12 09:24:40.000   4280219.6516  -4034410.0465  -2458262.6746   5  11  30.0000  30.0000  30.0000   0.0000   0.0000   0.0000  10.00    0.0
2019/02/12 09:24:41.000   4280220.0525  -4034410.2339  -2458262.8236   5  11  30.0000  30.0000  30.0000   0.0000   0.0000   0.0000  11.00    0.0
2019/02/12 09:24:42.000   4280220.4750  -4034410.3389  -2458262.8986   5  11  30.0000  30.0000  30.0000   0.0000   0.0000   0.0000  12.00    0.0
2019/02/12 09:24:43.000   4280220.5850  -4034410.2368  -2458262.9092   5  11  30.0000  30.0000  30.0000   0.0000   0.0000   0.0000  13.00    0.0
2019/02/12 09:24:44.000   4280220.5964  -4034410.2753  -2458262.9797   5  11  30.0000  30.0000  30.0000   0.0000   0.0000   0.0000  14.00    0.0
2019/02/12 09:24:45.000   4280220.7730  -4034410.5194  -2458263.3272   5  11  30.0000  30.0000  30.0000   0.0000   0.0000   0.0000  -0.00    0.0
2019/02/12 09:24:46.000   4280220.4327  -4034410.5331  -2458263.4165   5  11  30.0000  30.0000  30.0000   0.0000   0.0000   0.0000   1.00    0.0
2019/02/12 09:24:47.000   4280219.9714  -4034410.5337  -2458263.4803   5  11  30.0000  30.0000  30.0000   0.0000   0.0000   0.0000   2.00    0.0
2019/02/12 09:24:48.000   4280219.6890  -4034410.8093  -2458263.5739   5  11  30.0000  30.0000  30.0000   0.0000   0.0000   0.0000   3.00    0.0
2019/02/12 09:25:11.000   4280220.1446  -4034409.5350  -2458263.9674   5  11  30.0000  30.0000  30.0000   0.0000   0.0000   0.0000  11.00    0.0
2019/02/12 09:25:40.000   4280218.5946  -4034410.0157  -2458265.1663   5  11  30.0000  30.0000  30.0000   0.0000   0.0000   0.0000  10.00    0.0
2019/02/12 09:25:41.000   4280218.7642  -4034410.0805  -2458265.1754   5  11  30.0000  30.0000  30.0000   0.0000   0.0000   0.0000  11.00    0.0
2019/02/12 09:25:42.000   4280218.9199  -4034410.0063  -2458265.1839   5  11  30.0000  30.0000  30.0000   0.0000   0.0000   0.0000  12.00    0.0
2019/02/12 09:25:43.000   4280218.9252  -4034409.9894  -2458265.2271   5  11  30.0000  30.0000  30.0000   0.0000   0.0000   0.0000  13.00    0.0
2019/02/12 09:25:44.000   4280218.6548  -4034410.2376  -2458265.3454   5  11  30.0000  30.0000  30.0000   0.0000   0.0000   0.0000  14.00    0.0
2019/02/12 09:25:45.000   4280218.6337  -4034410.9184  -2458265.4492   5  11  30.0000  30.0000  30.0000   0.0000   0.0000   0.0000  -0.00    0.0
2019/02/12 09:25:46.000   4280218.6601  -4034411.4978  -2458265.5814   5  11  30.0000  30.0000  30.0000   0.0000   0.0000   0.0000   1.00    0.0
2019/02/12 09:25:47.000   4280218.8515  -4034412.1519  -2458265.9907   5  11  30.0000  30.0000  30.0000   0.0000   0.0000   0.0000   2.00    0.0
2019/02/12 09:25:48.000   4280219.3109  -4034412.6043  -2458266.3195   5  11  30.0000  30.0000  30.0000   0.0000   0.0000   0.0000   3.00    0.0
2019/02/12 09:25:49.000   4280219.5949  -4034413.0277  -2458266.6142   5  11  30.0000  30.0000  30.0000   0.0000   0.0000   0.0000   4.00    0.0
2019/02/12 09:25:50.000   4280219.7148  -4034413.0788  -2458266.5970   5  11  30.0000  30.0000  30.0000   0.0000   0.0000   0.0000   5.00    0.0
2019/02/12 09:25:51.000   4280220.3039  -4034413.2834  -2458266.7714   5  11  30.0000  30.0000  30.0000   0.0000   0.0000   0.0000   6.00    0.0
2019/02/12 09:25:52.000   4280220.5913  -4034413.5561  -2458267.0219   5  11  30.0000  30.0000  30.0000   0.0000   0.0000   0.0000   7.00    0.0
2019/02/12 09:25:53.000   4280220.7070  -4034413.6214  -2458267.0527   5  11  30.0000  30.0000  30.0000   0.0000   0.0000   0.0000   8.00    0.0
2019/02/12 09:25:54.000   4280220.5592  -4034413.7320  -2458266.8741   5  11  30.0000  30.0000  30.0000   0.0000   0.0000   0.0000   9.00    0.0
2019/02/12 09:25:55.000   4280220.3316  -4034414.0729  -2458266.7790   5  11  30.0000  30.0000  30.0000   0.0000   0.0000   0.0000  10.00    0.0
2019/02/12 09:25:56.000   4280220.4416  -4034414.5459  -2458266.8362   5  11  30.0000  30.0000  30.0000   0.0000   0.0000   0.0000  11.00    0.0
2019/02/12 09:25:57.000   4280220.6842  -4034414.8057  -2458266.9054   5  11  30.0000  30.0000  30.0000   0.0000   0.0000   0.0000  12.00    0.0
2019/02/12 09:25:58.000   4280221.1514  -4034415.2796  -2458267.0333   5  11  30.0000  30.0000  30.0000   0.0000   0.0000   0.0000  13.00    0.0
2019/02/12 09:25:59.000   4280221.4718  -4034415.5217  -2458267.0505   5  11  30.0000  30.0000  30.0000   0.0000   0.0000   0.0000  14.00    0.0
2019/02/12 09:26:00.000   4280221.6790  -4034415.5752  -2458266.8284   5  11  30.0000  30.0000  30.0000   0.0000   0.0000   0.0000  -0.00    0.0
2019/02/12 09:26:01.000   4280221.5057  -4034415.2725  -2458266.2966   5  11  30.0000  30.0000  30.0000   0.0000   0.0000   0.0000   1.00    0.0
2019/02/12 09:26:02.000   4280221.0797  -4034414.9116  -2458265.8047   5  11  30.0000  30.0000  30.0000   0.0000   0.0000   0.0000   2.00    0.0
2019/02/12 09:26:03.000   4280220.5903  -4034414.7300  -2458265.5388   5  11  30.0000  30.0000  30.0000   0.0000   0.0000   0.0000   3.00    0.0
2019/02/12 09:26:04.000   4280220.5409  -4034414.9117  -2458265.6371   5  11  30.0000  30.0000  30.0000   0.0000   0.0000   0.0000   4.00    0.0
2019/02/12 09:26:05.000   4280221.0730  -4034415.6519  -2458266.1778   5  11  30.0000  30.0000  30.0000   0.0000   0.0000   0.0000   5.00    0.0
2019/02/12 09:26:06.000   4280221.9478  -4034416.7113  -2458266.9515   5  11  30.0000  30.0000  30.0000   0.0000   0.0000   0.0000   6.00    0.0
2019/02/12 09:26:07.000   4280222.9461  -4034417.7956  -2458267.9594   5  10  30.0000  30.0000  30.0000   0.0000   0.0000   0.0000   7.00    0.0
2019/02/12 09:26:08.000   4280223.2622  -4034417.9540  -2458267.9240   5  10  30.0000  30.0000  30.0000   0.0000   0.0000   0.0000   8.00    0.0
2019/02/12 09:26:09.000   4280223.0714  -4034417.4348  -2458267.2820   5  11  30.0000  30.0000  30.0000   0.0000   0.0000   0.0000   9.00    0.0
2019/02/12 09:26:10.000   4280223.2159  -4034417.4076  -2458267.3073   5  11  30.0000  30.0000  30.0000   0.0000   0.0000   0.0000  10.00    0.0
2019/02/12 09:26:11.000   4280223.0704  -4034417.3828  -2458267.2016   5  11  30.0000  30.0000  30.0000   0.0000   0.0000   0.0000  11.00    0.0
2019/02/12 09:26:26.000   4280222.3593  -4034416.9466  -2458267.0184   5  11  30.0000  30.0000  30.0000   0.0000   0.0000   0.0000  11.00    0.0
2019/02/12 09:26:27.000   4280222.2687  -4034417.1664  -2458267.1765   5  11  30.0000  30.0000  30.0000   0.0000   0.0000   0.0000  12.00    0.0
2019/02/12 09:26:28.000   4280222.1037  -4034417.2503  -2458267.2756   5  11  30.0000  30.0000  30.0000   0.0000   0.0000   0.0000  13.00    0.0
2019/02/12 09:26:31.000   4280222.2188  -4034416.3606  -2458267.3998   5  11  30.0000  30.0000  30.0000   0.0000   0.0000   0.0000   1.00    0.0
2019/02/12 09:26:32.000   4280222.0102  -4034415.7069  -2458267.2825   5  11  30.0000  30.0000  30.0000   0.0000   0.0000   0.0000   2.00    0.0
2019/02/12 09:26:33.000   4280221.6640  -4034415.2551  -2458267.1934   5  11  30.0000  30.0000  30.0000   0.0000   0.0000   0.0000   3.00    0.0
2019/02/12 09:26:34.000   4280221.4785  -4034415.0883  -2458267.1577   5  11  30.0000  30.0000  30.0000   0.0000   0.0000   0.0000   4.00    0.0
2019/02/12 09:26:35.000   4280221.3165  -4034414.9824  -2458267.0677   5  11  30.0000  30.0000  30.0000   0.0000   0.0000   0.0000   5.00    0.0
2019/02/12 09:26:36.000   4280221.2599  -4034414.7404  -2458267.0362   5  11  30.0000  30.0000  30.0000   0.0000   0.0000   0.0000   6.00    0.0
2019/02/12 09:26:37.000   4280221.3596  -4034414.4214  -2458267.1021   5  11  30.0000  30.0000  30.0000   0.0000   0.0000   0.0000   7.00    0.0
2019/02/12 09:26:38.000   4280220.9048  -4034412.5514  -2458266.8696   5  10  30.0000  30.0000  30.0000   0.0000   0.0000   0.0000   8.00    0.0
2019/02/12 09:26:39.000   4280221.9115  -4034414.2994  -2458267.4922   5  11  30.0000  30.0000  30.0000   0.0000   0.0000   0.0000   9.00    0.0
2019/02/12 09:26:40.000   4280222.0976  -4034414.1911  -2458267.5190   5  11  30.0000  30.0000  30.0000   0.0000   0.0000   0.0000  10.00    0.0
2019/02/12 09:26:41.000   4280222.3042  -4034414.0668  -2458267.5955   5  11  30.0000  30.0000  30.0000   0.0000   0.0000   0.0000  11.00    0.0
2019/02/12 09:26:42.000   4280222.5197  -4034413.9280  -2458267.5534   5  11  30.0000  30.0000  30.0000   0.0000   0.0000   0.0000  12.00    0.0
2019/02/12 09:26:43.000   4280222.4784  -4034413.6738  -2458267.3164   5  11  30.0000  30.0000  30.0000   0.0000   0.0000   0.0000  13.00    0.0
2019/02/12 09:26:44.000   4280221.9560  -4034413.1873  -2458267.0971   5  11  30.0000  30.0000  30.0000   0.0000   0.0000   0.0000  14.00    0.0
2019/02/12 09:26:45.000   4280221.5045  -4034412.6486  -2458266.8706   5  11  30.0000  30.0000  30.0000   0.0000   0.0000   0.0000  -0.00    0.0
2019/02/12 09:26:46.000   4280221.3914  -4034412.5473  -2458266.8902   5  11  30.0000  30.0000  30.0000   0.0000   0.0000   0.0000   1.00    0.0
2019/02/12 09:26:47.000   4280221.3400  -4034412.7372  -2458267.1436   5  11  30.0000  30.0000  30.0000   0.0000   0.0000   0.0000   2.00    0.0
2019/02/12 09:26:48.000   4280222.0908  -4034413.7006  -2458267.7394   5  10  30.0000  30.0000  30.0000   0.0000   0.0000   0.0000   3.00    0.0
2019/02/12 09:26:49.000   4280219.3016  -4034411.6869  -2458266.2866   5  11  30.0000  30.0000  30.0000   0.0000   0.0000   0.0000   4.00    0.0
2019/02/12 09:26:50.000   4280223.2458  -4034414.6994  -2458268.1623   5  11  30.0000  30.0000  30.0000   0.0000   0.0000   0.0000   5.00    0.0
2019/02/12 09:26:51.000   4280221.1774  -4034413.2704  -2458267.0310   5  11  30.0000  30.0000  30.0000   0.0000   0.0000   0.0000   6.00    0.0
2019/02/12 09:26:52.000   4280217.9537  -4034411.1592  -2458265.4437   5  11  30.0000  30.0000  30.0000   0.0000   0.0000   0.0000   7.00    0.0
2019/02/12 09:26:53.000   4280224.2583  -4034416.3534  -2458268.7423   5  11  30.0000  30.0000  30.0000   0.0000   0.0000   0.0000   8.00    0.0
2019/02/12 09:26:54.000   4280224.7078  -4034417.1504  -2458269.0284   5  11  30.0000  30.0000  30.0000   0.0000   0.0000   0.0000   9.00    0.0
2019/02/12 09:26:55.000   4280220.7666  -4034414.2813  -2458266.9690   5  11  30.0000  30.0000  30.0000   0.0000   0.0000   0.0000  10.00    0.0
2019/02/12 09:26:56.000   4280219.4032  -4034413.3628  -2458266.2105   5  11  30.0000  30.0000  30.0000   0.0000   0.0000   0.0000  11.00    0.0
2019/02/12 09:26:57.000   4280220.1346  -4034414.0406  -2458266.6381   5  11  30.0000  30.0000  30.0000   0.0000   0.0000   0.0000  12.00    0.0
2019/02/12 09:27:08.000   4280218.0437  -4034413.8960  -2458265.1684   5  11  30.0000  30.0000  30.0000   0.0000   0.0000   0.0000   8.00    0.0
2019/02/12 09:27:09.000   4280218.7555  -4034414.4762  -2458265.5882   5  11  30.0000  30.0000  30.0000   0.0000   0.0000   0.0000   9.00    0.0
2019/02/12 09:27:10.000   4280219.4665  -4034415.0286  -2458265.9610   5  11  30.0000  30.0000  30.0000   0.0000   0.0000   0.0000  10.00    0.0
2019/02/12 09:27:11.000   4280219.8162  -4034415.3874  -2458266.2414   5  11  30.0000  30.0000  30.0000   0.0000   0.0000   0.0000  11.00    0.0
2019/02/12 09:27:12.000   4280219.8476  -4034415.6639  -2458266.3599   5  11  30.0000  30.0000  30.0000   0.0000   0.0000   0.0000  12.00    0.0
2019/02/12 09:27:13.000   4280219.7176  -4034415.6632  -2458266.4881   5  11  30.0000  30.0000  30.0000   0.0000   0.0000   0.0000  13.00    0.0
2019/02/12 09:27:14.000   4280219.6265  -4034415.8142  -2458266.6258   5  11  30.0000  30.0000  30.0000   0.0000   0.0000   0.0000  14.00    0.0
2019/02/12 09:27:15.000   4280219.5642  -4034415.8729  -2458266.6847   5  11  30.0000  30.0000  30.0000   0.0000   0.0000   0.0000  -0.00    0.0
2019/02/12 09:27:16.000   4280219.7877  -4034416.3036  -2458266.7794   5  11  30.0000  30.0000  30.0000   0.0000   0.0000   0.0000   1.00    0.0
2019/02/12 09:27:17.000   4280219.9870  -4034416.6557  -2458266.7711   5  11  30.0000  30.0000  30.0000   0.0000   0.0000   0.0000   2.00    0.0
2019/02/12 09:27:18.000   4280220.3950  -4034417.0642  -2458266.7579   5  11  30.0000  30.0000  30.0000   0.0000   0.0000   0.0000   3.00    0.0
2019/02/12 09:27:19.000   4280220.5930  -4034417.3079  -2458266.7636   5  11  30.0000  30.0000  30.0000   0.0000   0.0000   0.0000   4.00    0.0
2019/02/12 09:27:20.000   4280220.7783  -4034417.3275  -2458266.7797   5  11  30.0000  30.0000  30.0000   0.0000   0.0000   0.0000   5.00    0.0
2019/02/12 09:27:21.000   4280220.7676  -4034417.2941  -2458266.8333   5  11  30.0000  30.0000  30.0000   0.0000   0.0000   0.0000   6.00    0.0
2019/02/12 09:27:22.000   4280220.8746  -4034417.5708  -2458266.9052   5  11  30.0000  30.0000  30.0000   0.0000   0.0000   0.0000   7.00    0.0
2019/02/12 09:27:23.000   4280221.0703  -4034418.0622  -2458267.1903   5  11  30.0000  30.0000  30.0000   0.0000   0.0000   0.0000   8.00    0.0
2019/02/12 09:27:24.000   4280221.1948  -4034418.3667  -2458267.3601   5  11  30.0000  30.0000  30.0000   0.0000   0.0000   0.0000   9.00    0.0
2019/02/12 09:27:25.000   4280221.0308  -4034418.5077  -2458267.3451   5  11  30.0000  30.0000  30.0000   0.0000   0.0000   0.0000  10.00    0.0
2019/02/12 09:27:26.000   4280221.0429  -4034418.5040  -2458267.2270   5  11  30.0000  30.0000  30.0000   0.0000   0.0000   0.0000  11.00    0.0
2019/02/12 09:27:27.000   4280220.6291  -4034418.1762  -2458266.9190   5  11  30.0000  30.0000  30.0000   0.0000   0.0000   0.0000  12.00    0.0
2019/02/12 09:27:28.000   4280220.4461  -4034418.0866  -2458266.7357   5  11  30.0000  30.0000  30.0000   0.0000   0.0000   0.0000  13.00    0.0
2019/02/12 09:27:29.000   4280220.4141  -4034417.8555  -2458266.5806   5  11  30.0000  30.0000  30.0000   0.0000   0.0000   0.0000  14.00    0.0
2019/02/12 09:27:30.000   4280220.3889  -4034417.7585  -2458266.5454   5  11  30.0000  30.0000  30.0000   0.0000   0.0000   0.0000  -0.00    0.0
2019/02/12 09:27:31.000   4280220.6011  -4034417.9238  -2458266.6453   5  11  30.0000  30.0000  30.0000   0.0000   0.0000   0.0000   1.00    0.0
2019/02/12 09:27:32.000   4280220.8351  -4034418.0889  -2458266.7081   5  11  30.0000  30.0000  30.0000   0.0000   0.0000   0.0000   2.00    0.0
2019/02/12 09:27:33.000   4280221.0445  -4034418.2846  -2458266.8244   5  11  30.0000  30.0000  30.0000   0.0000   0.0000   0.0000   3.00    0.0
2019/02/12 09:27:34.000   4280221.5104  -4034418.9182  -2458267.2543   5  11  30.0000  30.0000  30.0000   0.0000   0.0000   0.0000   4.00    0.0
2019/02/12 09:27:35.000   4280221.8919  -4034419.4925  -2458267.6383   5  11  30.0000  30.0000  30.0000   0.0000   0.0000   0.0000   5.00    0.0
2019/02/12 09:27:36.000   4280222.0644  -4034419.7927  -2458267.7968   5  11  30.0000  30.0000  30.0000   0.0000   0.0000   0.0000   6.00    0.0
2019/02/12 09:27:37.000   4280221.7996  -4034420.1594  -2458267.9314   5  11  30.0000  30.0000  30.0000   0.0000   0.0000   0.0000   7.00    0.0
2019/02/12 09:27:38.000   4280221.6068  -4034420.7509  -2458268.0763   5  11  30.0000  30.0000  30.0000   0.0000   0.0000   0.0000   8.00    0.0
2019/02/12 09:27:39.000   4280221.5514  -4034421.2190  -2458268.1566   5  11  30.0000  30.0000  30.0000   0.0000   0.0000   0.0000   9.00    0.0
2019/02/12 09:27:40.000   4280221.5421  -4034421.5233  -2458268.2569   5  11  30.0000  30.0000  30.0000   0.0000   0.0000   0.0000  10.00    0.0
2019/02/12 09:27:41.000   4280224.9228  -4034427.0273  -2458269.9805   5  10  30.0000  30.0000  30.0000   0.0000   0.0000   0.0000  11.00    0.0
2019/02/12 09:27:42.000   4280221.2798  -4034421.5741  -2458267.9243   5  11  30.0000  30.0000  30.0000   0.0000   0.0000   0.0000  12.00    0.0
2019/02/12 09:27:43.000   4280221.6932  -4034421.8604  -2458267.9934   5  11  30.0000  30.0000  30.0000   0.0000   0.0000   0.0000  13.00    0.0
2019/02/12 09:27:44.000   4280221.9850  -4034421.8002  -2458268.0179   5  11  30.0000  30.0000  30.0000   0.0000   0.0000   0.0000  14.00    0.0
2019/02/12 09:27:45.000   4280217.5267  -4034409.4213  -2458265.1410   5  10  30.0000  30.0000  30.0000   0.0000   0.0000   0.0000  -0.00    0.0
2019/02/12 09:27:46.000   4280217.8256  -4034409.8061  -2458265.5321   5  10  30.0000  30.0000  30.0000   0.0000   0.0000   0.0000   1.00    0.0
2019/02/12 09:27:47.000   4280217.7064  -4034409.9768  -2458265.5620   5  10  30.0000  30.0000  30.0000   0.0000   0.0000   0.0000   2.00    0.0
2019/02/12 09:27:48.000   4280217.8004  -4034410.4258  -2458265.5868   5  10  30.0000  30.0000  30.0000   0.0000   0.0000   0.0000   3.00    0.0
2019/02/12 09:27:49.000   4280217.6988  -4034410.6491  -2458265.4861   5  10  30.0000  30.0000  30.0000   0.0000   0.0000   0.0000   4.00    0.0
2019/02/12 09:27:50.000   4280217.5310  -4034410.8580  -2458265.3639   5  10  30.0000  30.0000  30.0000   0.0000   0.0000   0.0000   5.00    0.0
2019/02/12 09:27:51.000   4280217.4855  -4034410.5136  -2458265.2613   5  10  30.0000  30.0000  30.0000   0.0000   0.0000   0.0000   6.00    0.0
2019/02/12 09:27:52.000   4280217.5748  -4034410.0555  -2458265.2222   5  10  30.0000  30.0000  30.0000   0.0000   0.0000   0.0000   7.00    0.0
2019/02/12 09:27:53.000   4280217.4086  -4034409.3149  -2458265.0479   5  10  30.0000  30.0000  30.0000   0.0000   0.0000   0.0000   8.00    0.0
2019/02/12 09:27:54.000   4280217.0207  -4034408.7679  -2458264.8865   5  10  30.0000  30.0000  30.0000   0.0000   0.0000   0.0000   9.00    0.0
2019/02/12 09:27:55.000   4280216.8231  -4034408.6111  -2458264.6878   5  10  30.0000  30.0000  30.0000   0.0000   0.0000   0.0000  10.00    0.0
2019/02/12 09:27:56.000   4280216.6858  -4034408.4000  -2458264.4800   5  10  30.0000  30.0000  30.0000   0.0000   0.0000   0.0000  11.00    0.0
2019/02/12 09:27:57.000   4280216.8756  -4034408.5238  -2458264.5369   5  10  30.0000  30.0000  30.0000   0.0000   0.0000   0.0000  12.00    0.0
2019/02/12 09:27:58.000   4280217.2262  -4034408.6427  -2458264.5275   5  10  30.0000  30.0000  30.0000   0.0000   0.0000   0.0000  13.00    0.0
2019/02/12 09:27:59.000   4280217.7145  -4034409.0454  -2458264.8103   5  10  30.0000  30.0000  30.0000   0.0000   0.0000   0.0000  14.00    0.0
2019/02/12 09:28:00.000   4280217.7091  -4034409.2437  -2458264.8515   5  10  30.0000  30.0000  30.0000   0.0000   0.0000   0.0000  -0.00    0.0
2019/02/12 09:28:01.000   4280217.2446  -4034409.1244  -2458264.5407   5  10  30.0000  30.0000  30.0000   0.0000   0.0000   0.0000   1.00    0.0
2019/02/12 09:28:02.000   4280217.0589  -4034408.9821  -2458264.4183   5  10  30.0000  30.0000  30.0000   0.0000   0.0000   0.0000   2.00    0.0
2019/02/12 09:28:03.000   4280216.9710  -4034408.9322  -2458264.2684   5  10  30.0000  30.0000  30.0000   0.0000   0.0000   0.0000   3.00    0.0
2019/02/12 09:28:04.000   4280217.2811  -4034409.2257  -2458264.3735   5  10  30.0000  30.0000  30.0000   0.0000   0.0000   0.0000   4.00    0.0
2019/02/12 09:28:05.000   4280217.9226  -4034409.4974  -2458264.6787   5  10  30.0000  30.0000  30.0000   0.0000   0.0000   0.0000   5.00    0.0
2019/02/12 09:28:06.000   4280218.3199  -4034409.9376  -2458265.0751   5  10  30.0000  30.0000  30.0000   0.0000   0.0000   0.0000   6.00    0.0
2019/02/12 09:28:07.000   4280218.8137  -4034410.2125  -2458265.5422   5  10  30.0000  30.0000  30.0000   0.0000   0.0000   0.0000   7.00    0.0
2019/02/12 09:28:08.000   4280219.1364  -4034410.5077  -2458265.8577   5  10  30.0000  30.0000  30.0000   0.0000   0.0000   0.0000   8.00    0.0
2019/02/12 09:28:09.000   4280219.0740  -4034410.6456  -2458265.8832   5  10  30.0000  30.0000  30.0000   0.0000   0.0000   0.0000   9.00    0.0
2019/02/12 09:28:13.000   4280217.3538  -4034409.2424  -2458263.4941   5  10  30.0000  30.0000  30.0000   0.0000   0.0000   0.0000  13.00    0.0
2019/02/12 09:29:01.000   4280216.1395  -4034412.0815  -2458265.1267   5  10  30.0000  30.0000  30.0000   0.0000   0.0000   0.0000   1.00    0.0
2019/02/12 09:29:02.000   4280215.9248  -4034411.7846  -2458265.0343   5  10  30.0000  30.0000  30.0000   0.0000   0.0000   0.0000   2.00    0.0
2019/02/12 09:29:03.000   4280215.9176  -4034411.8058  -2458265.1384   5  10  30.0000  30.0000  30.0000   0.0000   0.0000   0.0000   3.00    0.0
2019/02/12 09:29:04.000   4280215.5999  -4034411.9834  -2458265.2790   5  10  30.0000  30.0000  30.0000   0.0000   0.0000   0.0000   4.00    0.0
2019/02/12 09:29:05.000   4280215.4175  -4034412.1345  -2458265.3663   5  10  30.0000  30.0000  30.0000   0.0000   0.0000   0.0000   5.00    0.0
2019/02/12 09:29:08.000   4280216.0252  -4034412.4968  -2458265.0053   5  10  30.0000  30.0000  30.0000   0.0000   0.0000   0.0000   8.00    0.0
2019/02/12 09:29:09.000   4280216.5170  -4034412.7933  -2458264.9638   5  10  30.0000  30.0000  30.0000   0.0000   0.0000   0.0000   9.00    0.0
2019/02/12 09:29:10.000   4280217.1268  -4034413.2074  -2458265.2118   5  10  30.0000  30.0000  30.0000   0.0000   0.0000   0.0000  10.00    0.0
2019/02/12 09:29:11.000   4280217.6398  -4034413.4173  -2458265.2876   5  10  30.0000  30.0000  30.0000   0.0000   0.0000   0.0000  11.00    0.0
2019/02/12 09:29:12.000   4280217.9288  -4034413.4306  -2458265.1551   5  10  30.0000  30.0000  30.0000   0.0000   0.0000   0.0000  12.00    0.0
2019/02/12 09:29:13.000   4280218.1324  -4034413.2587  -2458264.8580   5  10  30.0000  30.0000  30.0000   0.0000   0.0000   0.0000  13.00    0.0
2019/02/12 09:29:14.000   4280218.1779  -4034413.4182  -2458264.9158   5  10  30.0000  30.0000  30.0000   0.0000   0.0000   0.0000  14.00    0.0
2019/02/12 09:29:15.000   4280218.5331  -4034413.7263  -2458265.0909   5  10  30.0000  30.0000  30.0000   0.0000   0.0000   0.0000  -0.00    0.0
2019/02/12 09:29:16.000   4280218.6974  -4034413.8596  -2458265.2211   5  10  30.0000  30.0000  30.0000   0.0000   0.0000   0.0000   1.00    0.0
2019/02/12 09:29:17.000   4280219.0573  -4034413.9185  -2458265.4295   5  10  30.0000  30.0000  30.0000   0.0000   0.0000   0.0000   2.00    0.0
2019/02/12 09:29:27.000   4280223.4345  -4034425.0343  -2458267.5732   5  11  30.0000  30.0000  30.0000   0.0000   0.0000   0.0000  12.00    0.0
2019/02/12 09:29:28.000   4280224.0740  -4034426.8685  -2458268.0752   5  11  30.0000  30.0000  30.0000   0.0000   0.0000   0.0000  13.00    0.0
2019/02/12 09:29:29.000   4280223.4470  -4034425.7430  -2458267.6905   5  11  30.0000  30.0000  30.0000   0.0000   0.0000   0.0000  14.00    0.0
2019/02/12 09:29:30.000   4280222.7399  -4034424.2185  -2458267.1245   5  11  30.0000  30.0000  30.0000   0.0000   0.0000   0.0000  -0.00    0.0
2019/02/12 09:29:31.000   4280221.2388  -4034421.0249  -2458266.0387   5  11  30.0000  30.0000  30.0000   0.0000   0.0000   0.0000   1.00    0.0
2019/02/12 09:29:32.000   4280220.1676  -4034419.4024  -2458265.4435   5  11  30.0000  30.0000  30.0000   0.0000   0.0000   0.0000   2.00    0.0
2019/02/12 09:29:33.000   4280219.7399  -4034419.3494  -2458265.3974   5  11  30.0000  30.0000  30.0000   0.0000   0.0000   0.0000   3.00    0.0
2019/02/12 09:29:34.000   4280220.4958  -4034421.6075  -2458266.0862   5  11  30.0000  30.0000  30.0000   0.0000   0.0000   0.0000   4.00    0.0
2019/02/12 09:29:35.000   4280221.3227  -4034423.8798  -2458266.6883   5  11  30.0000  30.0000  30.0000   0.0000   0.0000   0.0000   5.00    0.0
2019/02/12 09:29:36.000   4280221.5868  -4034424.4076  -2458266.7416   5  11  30.0000  30.0000  30.0000   0.0000   0.0000   0.0000   6.00    0.0
2019/02/12 09:29:37.000   4280221.7341  -4034424.3092  -2458266.5991   5  11  30.0000  30.0000  30.0000   0.0000   0.0000   0.0000   7.00    0.0
2019/02/12 09:29:38.000   4280221.8123  -4034424.1522  -2458266.5569   5  11  30.0000  30.0000  30.0000   0.0000   0.0000   0.0000   8.00    0.0
2019/02/12 09:29:39.000   4280221.8528  -4034424.3944  -2458266.7859   5  11  30.0000  30.0000  30.0000   0.0000   0.0000   0.0000   9.00    0.0
2019/02/12 09:29:40.000   4280222.0899  -4034424.6151  -2458266.9781   5  11  30.0000  30.0000  30.0000   0.0000   0.0000   0.0000  10.00    0.0
2019/02/12 09:29:41.000   4280222.0248  -4034425.0872  -2458267.1365   5  11  30.0000  30.0000  30.0000   0.0000   0.0000   0.0000  11.00    0.0
2019/02/12 09:29:42.000   4280221.5376  -4034425.2378  -2458267.1812   5  11  30.0000  30.0000  30.0000   0.0000   0.0000   0.0000  12.00    0.0
2019/02/12 09:29:43.000   4280221.1745  -4034425.2997  -2458267.2547   5  11  30.0000  30.0000  30.0000   0.0000   0.0000   0.0000  13.00    0.0
2019/02/12 09:29:44.000   4280221.5385  -4034425.3451  -2458267.4821   5  11  30.0000  30.0000  30.0000   0.0000   0.0000   0.0000  14.00    0.0
2019/02/12 09:29:45.000   4280221.7684  -4034425.4387  -2458267.6749   5  11  30.0000  30.0000  30.0000   0.0000   0.0000   0.0000  -0.00    0.0
2019/02/12 09:29:46.000   4280221.9039  -4034425.5744  -2458267.8020   5  11  30.0000  30.0000  30.0000   0.0000   0.0000   0.0000   1.00    0.0
2019/02/12 09:29:47.000   4280222.0399  -4034425.8005  -2458267.9808   5  11  30.0000  30.0000  30.0000   0.0000   0.0000   0.0000   2.00    0.0
2019/02/12 09:29:48.000   4280222.2569  -4034425.8782  -2458267.9672   5  11  30.0000  30.0000  30.0000   0.0000   0.0000   0.0000   3.00    0.0
2019/02/12 09:29:49.000   4280222.2356  -4034425.8078  -2458267.7534   5  11  30.0000  30.0000  30.0000   0.0000   0.0000   0.0000   4.00    0.0
2019/02/12 09:29:50.000   4280222.3657  -4034425.7797  -2458267.5938   5  11  30.0000  30.0000  30.0000   0.0000   0.0000   0.0000   5.00    0.0
2019/02/12 09:29:51.000   4280222.6351  -4034425.8320  -2458267.6165   5  11  30.0000  30.0000  30.0000   0.0000   0.0000   0.0000   6.00    0.0
2019/02/12 09:29:52.000   4280223.2948  -4034426.1187  -2458267.8542   5  11  30.0000  30.0000  30.0000   0.0000   0.0000   0.0000   7.00    0.0
2019/02/12 09:29:53.000   4280223.6813  -4034425.9889  -2458267.7783   5  11  30.0000  30.0000  30.0000   0.0000   0.0000   0.0000   8.00    0.0
2019/02/12 09:29:54.000   4280223.7191  -4034425.5912  -2458267.5455   5  11  30.0000  30.0000  30.0000   0.0000   0.0000   0.0000   9.00    0.0
2019/02/12 09:29:55.000   4280223.8291  -4034425.5374  -2458267.5461   5  11  30.0000  30.0000  30.0000   0.0000   0.0000   0.0000  10.00    0.0
2019/02/12 09:29:56.000   4280223.8842  -4034425.8579  -2458267.7696   5  11  30.0000  30.0000  30.0000   0.0000   0.0000   0.0000  11.00    0.0
2019/02/12 09:29:57.000   4280223.8214  -4034426.3294  -2458268.0439   5  11  30.0000  30.0000  30.0000   0.0000   0.0000   0.0000  12.00    0.0
2019/02/12 09:29:58.000   4280223.9010  -4034426.8697  -2458268.2769   5  11  30.0000  30.0000  30.0000   0.0000   0.0000   0.0000  13.00    0.0
2019/02/12 09:29:59.000   4280224.0245  -4034427.4425  -2458268.5313   5  11  30.0000  30.0000  30.0000   0.0000   0.0000   0.0000  14.00    0.0
2019/02/12 09:30:00.000   4280224.1972  -4034427.4657  -2458268.6844   5  11  30.0000  30.0000  30.0000   0.0000   0.0000   0.0000  -0.00    0.0
2019/02/12 09:30:01.000   4280223.8246  -4034427.1876  -2458268.5710   5  11  30.0000  30.0000  30.0000   0.0000   0.0000   0.0000   1.00    0.0
2019/02/12 09:30:02.000   4280223.2024  -4034426.6710  -2458268.3706   5  11  30.0000  30.0000  30.0000   0.0000   0.0000   0.0000   2.00    0.0
2019/02/12 09:30:03.000   4280222.4711  -4034426.0239  -2458268.0587   5  11  30.0000  30.0000  30.0000   0.0000   0.0000   0.0000   3.00    0.0
2019/02/12 09:30:04.000   4280218.3513  -4034414.6276  -2458265.4806   5  10  30.0000  30.0000  30.0000   0.0000   0.0000   0.0000   4.00    0.0
2019/02/12 09:30:05.000   4280218.1398  -4034414.4647  -2458265.5003   5  10  30.0000  30.0000  30.0000   0.0000   0.0000   0.0000   5.00    0.0
2019/02/12 09:30:06.000   4280218.2603  -4034414.2628  -2458265.3912   5  10  30.0000  30.0000  30.0000   0.0000   0.0000   0.0000   6.00    0.0
2019/02/12 09:30:07.000   4280218.5704  -4034414.2715  -2458265.2046   5  10  30.0000  30.0000  30.0000   0.0000   0.0000   0.0000   7.00    0.0
2019/02/12 09:30:08.000   4280218.9904  -4034414.6392  -2458265.2197   5  10  30.0000  30.0000  30.0000   0.0000   0.0000   0.0000   8.00    0.0
2019/02/12 09:30:09.000   4280219.0285  -4034414.6895  -2458265.2795   5  10  30.0000  30.0000  30.0000   0.0000   0.0000   0.0000   9.00    0.0
2019/02/12 09:30:10.000   4280218.4351  -4034414.5375  -2458265.3872   5  10  30.0000  30.0000  30.0000   0.0000   0.0000   0.0000  10.00    0.0
2019/02/12 09:30:11.000   4280217.5313  -4034414.1882  -2458265.5614   5  10  30.0000  30.0000  30.0000   0.0000   0.0000   0.0000  11.00    0.0
2019/02/12 09:30:12.000   4280216.5277  -4034413.5691  -2458265.5135   5  10  30.0000  30.0000  30.0000   0.0000   0.0000   0.0000  12.00    0.0
2019/02/12 09:30:13.000   4280215.8439  -4034413.0979  -2458265.5488   5  10  30.0000  30.0000  30.0000   0.0000   0.0000   0.0000  13.00    0.0
2019/02/12 09:30:14.000   4280215.7887  -4034413.0262  -2458265.4868   5  10  30.0000  30.0000  30.0000   0.0000   0.0000   0.0000  14.00    0.0
2019/02/12 09:30:15.000   4280215.7427  -4034413.0647  -2458265.3521   5  10  30.0000  30.0000  30.0000   0.0000   0.0000   0.0000  -0.00    0.0
2019/02/12 09:30:16.000   4280215.8589  -4034413.0161  -2458265.1849   5  10  30.0000  30.0000  30.0000   0.0000   0.0000   0.0000   1.00    0.0
2019/02/12 09:30:17.000   4280215.9121  -4034412.9623  -2458265.0199   5  10  30.0000  30.0000  30.0000   0.0000   0.0000   0.0000   2.00    0.0
2019/02/12 09:30:18.000   4280216.1913  -4034412.9260  -2458264.8261   5  10  30.0000  30.0000  30.0000   0.0000   0.0000   0.0000   3.00    0.0
2019/02/12 09:30:19.000   4280216.7614  -4034413.3137  -2458264.6177   5  10  30.0000  30.0000  30.0000   0.0000   0.0000   0.0000   4.00    0.0
2019/02/12 09:30:20.000   4280217.3277  -4034413.3867  -2458264.6230   5  10  30.0000  30.0000  30.0000   0.0000   0.0000   0.0000   5.00    0.0
2019/02/12 09:30:21.000   4280217.6630  -4034413.5760  -2458264.7944   5  10  30.0000  30.0000  30.0000   0.0000   0.0000   0.0000   6.00    0.0
2019/02/12 09:30:22.000   4280217.5099  -4034413.6327  -2458265.0062   5  10  30.0000  30.0000  30.0000   0.0000   0.0000   0.0000   7.00    0.0
2019/02/12 09:30:23.000   4280217.0264  -4034413.5675  -2458264.9800   5  10  30.0000  30.0000  30.0000   0.0000   0.0000   0.0000   8.00    0.0
2019/02/12 09:30:24.000   4280216.5266  -4034413.4860  -2458264.7128   5  10  30.0000  30.0000  30.0000   0.0000   0.0000   0.0000   9.00    0.0
2019/02/12 09:30:25.000   4280216.8662  -4034413.7337  -2458264.6163   5  10  30.0000  30.0000  30.0000   0.0000   0.0000   0.0000  10.00    0.0
2019/02/12 09:30:26.000   4280217.5793  -4034414.1236  -2458264.7629   5  10  30.0000  30.0000  30.0000   0.0000   0.0000   0.0000  11.00    0.0
2019/02/12 09:30:27.000   4280218.2073  -4034414.3760  -2458264.9311   5  10  30.0000  30.0000  30.0000   0.0000   0.0000   0.0000  12.00    0.0
2019/02/12 09:30:28.000   4280218.9299  -4034414.8193  -2458265.3396   5  10  30.0000  30.0000  30.0000   0.0000   0.0000   0.0000  13.00    0.0
2019/02/12 09:30:29.000   4280219.1091  -4034415.0328  -2458265.6631   5  10  30.0000  30.0000  30.0000   0.0000   0.0000   0.0000  14.00    0.0
2019/02/12 09:30:30.000   4280218.8457  -4034414.9023  -2458265.6899   5  10  30.0000  30.0000  30.0000   0.0000   0.0000   0.0000  -0.00    0.0
2019/02/12 09:30:31.000   4280218.7697  -4034415.1379  -2458265.9007   5  10  30.0000  30.0000  30.0000   0.0000   0.0000   0.0000   1.00    0.0
2019/02/12 09:30:32.000   4280218.6121  -4034415.2921  -2458265.9512   5  10  30.0000  30.0000  30.0000   0.0000   0.0000   0.0000   2.00    0.0
2019/02/12 09:30:33.000   4280218.2802  -4034415.3705  -2458265.9438   5  10  30.0000  30.0000  30.0000   0.0000   0.0000   0.0000   3.00    0.0
2019/02/12 09:30:34.000   4280218.1127  -4034415.3765  -2458265.8150   5  10  30.0000  30.0000  30.0000   0.0000   0.0000   0.0000   4.00    0.0
2019/02/12 09:30:35.000   4280217.9305  -4034415.0822  -2458265.6697   5  10  30.0000  30.0000  30.0000   0.0000   0.0000   0.0000   5.00    0.0
2019/02/12 09:30:36.000   4280217.4494  -4034414.9503  -2458265.5960   5  10  30.0000  30.0000  30.0000   0.0000   0.0000   0.0000   6.00    0.0
2019/02/12 09:30:37.000   4280217.3309  -4034414.9071  -2458265.6001   5  10  30.0000  30.0000  30.0000   0.0000   0.0000   0.0000   7.00    0.0
2019/02/12 09:30:38.000   4280217.4661  -4034414.9663  -2458265.6481   5  10  30.0000  30.0000  30.0000   0.0000   0.0000   0.0000   8.00    0.0
2019/02/12 09:30:39.000   4280217.5349  -4034414.9280  -2458265.6982   5  10  30.0000  30.0000  30.0000   0.0000   0.0000   0.0000   9.00    0.0
2019/02/12 09:30:40.000   4280217.8132  -4034414.7904  -2458265.6798   5  10  30.0000  30.0000  30.0000   0.0000   0.0000   0.0000  10.00    0.0
2019/02/12 09:30:41.000   4280218.0323  -4034414.5799  -2458265.6424   5  10  30.0000  30.0000  30.0000   0.0000   0.0000   0.0000  11.00    0.0
2019/02/12 09:30:42.000   4280218.3866  -4034414.4229  -2458265.6123   5  10  30.0000  30.0000  30.0000   0.0000   0.0000   0.0000  12.00    0.0
2019/02/12 09:30:43.000   4280218.6671  -4034414.4360  -2458265.5771   5  10  30.0000  30.0000  30.0000   0.0000   0.0000   0.0000  13.00    0.0
2019/02/12 09:30:44.000   4280218.6958  -4034414.4491  -2458265.5409   5  10  30.0000  30.0000  30.0000   0.0000   0.0000   0.0000  14.00    0.0
2019/02/12 09:30:45.000   4280218.8928  -4034415.0567  -2458265.7006   5  10  30.0000  30.0000  30.0000   0.0000   0.0000   0.0000  -0.00    0.0
2019/02/12 09:30:46.000   4280218.9986  -4034415.5344  -2458265.8404   5  10  30.0000  30.0000  30.0000   0.0000   0.0000   0.0000   1.00    0.0
2019/02/12 09:30:47.000   4280219.2685  -4034415.7727  -2458265.9429   5  10  30.0000  30.0000  30.0000   0.0000   0.0000   0.0000   2.00    0.0
2019/02/12 09:30:48.000   4280219.6424  -4034415.7043  -2458265.9095   5  10  30.0000  30.0000  30.0000   0.0000   0.0000   0.0000   3.00    0.0
2019/02/12 09:30:49.000   4280220.0346  -4034416.1051  -2458265.9781   5  10  30.0000  30.0000  30.0000   0.0000   0.0000   0.0000   4.00    0.0
2019/02/12 09:30:50.000   4280219.8689  -4034416.2498  -2458265.9056   5  10  30.0000  30.0000  30.0000   0.0000   0.0000   0.0000   5.00    0.0
2019/02/12 09:30:51.000   4280219.8020  -4034416.2911  -2458265.8300   5  10  30.0000  30.0000  30.0000   0.0000   0.0000   0.0000   6.00    0.0
2019/02/12 09:30:52.000   4280220.0366  -4034416.3080  -2458265.8393   5  10  30.0000  30.0000  30.0000   0.0000   0.0000   0.0000   7.00    0.0
2019/02/12 09:30:53.000   4280220.1552  -4034416.5586  -2458266.0115   5  10  30.0000  30.0000  30.0000   0.0000   0.0000   0.0000   8.00    0.0
2019/02/12 09:30:54.000   4280219.9848  -4034416.5934  -2458266.1266   5  10  30.0000  30.0000  30.0000   0.0000   0.0000   0.0000   9.00    0.0
2019/02/12 09:30:55.000   4280219.6319  -4034416.3401  -2458266.1885   5  10  30.0000  30.0000  30.0000   0.0000   0.0000   0.0000  10.00    0.0
2019/02/12 09:30:56.000   4280219.5625  -4034415.8496  -2458266.1137   5  10  30.0000  30.0000  30.0000   0.0000   0.0000   0.0000  11.00    0.0
2019/02/12 09:30:57.000   4280219.7698  -4034415.2987  -2458265.9234   5  10  30.0000  30.0000  30.0000   0.0000   0.0000   0.0000  12.00    0.0
2019/02/12 09:30:58.000   4280219.8953  -4034415.1528  -2458265.9915   5  10  30.0000  30.0000  30.0000   0.0000   0.0000   0.0000  13.00    0.0
2019/02/12 09:30:59.000   4280220.0554  -4034415.2281  -2458266.0452   5  10  30.0000  30.0000  30.0000   0.0000   0.0000   0.0000  14.00    0.0
2019/02/12 09:31:00.000   4280220.3713  -4034415.3315  -2458266.1908   5  10  30.0000  30.0000  30.0000   0.0000   0.0000   0.0000  -0.00    0.0
2019/02/12 09:31:01.000   4280220.6619  -4034415.4029  -2458266.3140   5  10  30.0000  30.0000  30.0000   0.0000   0.0000   0.0000   1.00    0.0
2019/02/12 09:31:06.000   4280220.1688  -4034415.0273  -2458266.1831   5  10  30.0000  30.0000  30.0000   0.0000   0.0000   0.0000   6.00    0.0
2019/02/12 09:31:07.000   4280220.0760  -4034414.6829  -2458266.0074   5  10  30.0000  30.0000  30.0000   0.0000   0.0000   0.0000   7.00    0.0
2019/02/12 09:31:14.000   4280221.8113  -4034416.4501  -2458266.8528   5  10  30.0000  30.0000  30.0000   0.0000   0.0000   0.0000  14.00    0.0
2019/02/12 09:31:15.000   4280221.6982  -4034416.5573  -2458266.7613   5  10  30.0000  30.0000  30.0000   0.0000   0.0000   0.0000  -0.00    0.0
2019/02/12 09:31:16.000   4280221.6126  -4034416.4809  -2458266.4665   5  10  30.0000  30.0000  30.0000   0.0000   0.0000   0.0000   1.00    0.0
2019/02/12 09:31:17.000   4280221.3239  -4034416.1953  -2458266.1049   5  10  30.0000  30.0000  30.0000   0.0000   0.0000   0.0000   2.00    0.0
2019/02/12 09:31:18.000   4280221.0499  -4034415.6933  -2458265.7969   5  10  30.0000  30.0000  30.0000   0.0000   0.0000   0.0000   3.00    0.0
2019/02/12 09:31:19.000   4280220.6810  -4034415.2391  -2458265.6098   5  10  30.0000  30.0000  30.0000   0.0000   0.0000   0.0000   4.00    0.0
2019/02/12 09:31:20.000   4280220.6658  -4034414.6520  -2458265.2561   5  10  30.0000  30.0000  30.0000   0.0000   0.0000   0.0000   5.00    0.0
2019/02/12 09:31:21.000   4280221.1639  -4034414.5839  -2458265.3957   5  10  30.0000  30.0000  30.0000   0.0000   0.0000   0.0000   6.00    0.0
2019/02/12 09:31:22.000   4280221.8049  -4034415.1213  -2458265.6079   5  10  30.0000  30.0000  30.0000   0.0000   0.0000   0.0000   7.00    0.0
2019/02/12 09:31:23.000   4280222.2057  -4034415.5873  -2458265.8955   5  10  30.0000  30.0000  30.0000   0.0000   0.0000   0.0000   8.00    0.0
2019/02/12 09:31:24.000   4280222.1329  -4034416.2043  -2458266.3096   5  10  30.0000  30.0000  30.0000   0.0000   0.0000   0.0000   9.00    0.0
2019/02/12 09:31:25.000   4280221.7478  -4034416.5511  -2458266.7787   5  10  30.0000  30.0000  30.0000   0.0000   0.0000   0.0000  10.00    0.0
2019/02/12 09:31:26.000   4280221.0124  -4034416.2572  -2458266.6934   5  10  30.0000  30.0000  30.0000   0.0000   0.0000   0.0000  11.00    0.0
2019/02/12 09:31:27.000   4280220.3840  -4034415.9889  -2458266.4473   5  10  30.0000  30.0000  30.0000   0.0000   0.0000   0.0000  12.00    0.0
2019/02/12 09:31:28.000   4280220.2674  -4034416.0301  -2458266.3975   5  10  30.0000  30.0000  30.0000   0.0000   0.0000   0.0000  13.00    0.0
2019/02/12 09:31:29.000   4280219.9959  -4034416.0325  -2458266.1101   5  10  30.0000  30.0000  30.0000   0.0000   0.0000   0.0000  14.00    0.0
2019/02/12 09:31:30.000   4280219.2119  -4034415.6902  -2458265.6613   5  10  30.0000  30.0000  30.0000   0.0000   0.0000   0.0000  -0.00    0.0
2019/02/12 09:31:31.000   4280218.5386  -4034415.4360  -2458265.3706   5  10  30.0000  30.0000  30.0000   0.0000   0.0000   0.0000   1.00    0.0
2019/02/12 09:31:32.000   4280218.3295  -4034415.3980  -2458265.4345   5  10  30.0000  30.0000  30.0000   0.0000   0.0000   0.0000   2.00    0.0
2019/02/12 09:31:35.000   4280218.8366  -4034415.9692  -2458265.8728   5  10  30.0000  30.0000  30.0000   0.0000   0.0000   0.0000   5.00    0.0
2019/02/12 09:31:36.000   4280219.1868  -4034416.5659  -2458266.1022   5  10  30.0000  30.0000  30.0000   0.0000   0.0000   0.0000   6.00    0.0
2019/02/12 09:31:37.000   4280219.6176  -4034416.8988  -2458266.2531   5  10  30.0000  30.0000  30.0000   0.0000   0.0000   0.0000   7.00    0.0
2019/02/12 09:31:38.000   4280219.7633  -4034417.0590  -2458266.1270   5  10  30.0000  30.0000  30.0000   0.0000   0.0000   0.0000   8.00    0.0
2019/02/12 09:31:39.000   4280219.6187  -4034417.1675  -2458265.9377   5  10  30.0000  30.0000  30.0000   0.0000   0.0000   0.0000   9.00    0.0
2019/02/12 09:31:40.000   4280219.4512  -4034417.3670  -2458265.8471   5  10  30.0000  30.0000  30.0000   0.0000   0.0000   0.0000  10.00    0.0
2019/02/12 09:31:41.000   4280218.9958  -4034417.6346  -2458265.8563   5  10  30.0000  30.0000  30.0000   0.0000   0.0000   0.0000  11.00    0.0
2019/02/12 09:31:42.000   4280218.3889  -4034417.8413  -2458265.9867   5  10  30.0000  30.0000  30.0000   0.0000   0.0000   0.0000  12.00    0.0
2019/02/12 09:31:43.000   4280218.1754  -4034418.1197  -2458266.1141   5  10  30.0000  30.0000  30.0000   0.0000   0.0000   0.0000  13.00    0.0
2019/02/12 09:31:44.000   4280218.1301  -4034418.3123  -2458266.1415   5  10  30.0000  30.0000  30.0000   0.0000   0.0000   0.0000  14.00    0.0
2019/02/12 09:31:45.000   4280218.3239  -4034418.2898  -2458266.2176   5  10  30.0000  30.0000  30.0000   0.0000   0.0000   0.0000  -0.00    0.0
2019/02/12 09:31:46.000   4280218.9095  -4034418.3832  -2458266.4374   5  10  30.0000  30.0000  30.0000   0.0000   0.0000   0.0000   1.00    0.0
2019/02/12 09:31:47.000   4280219.0933  -4034418.2103  -2458266.5114   5  10  30.0000  30.0000  30.0000   0.0000   0.0000   0.0000   2.00    0.0
2019/02/12 09:31:52.000   4280218.3510  -4034418.3275  -2458266.9911   5  10  30.0000  30.0000  30.0000   0.0000   0.0000   0.0000   7.00    0.0
2019/02/12 09:31:53.000   4280219.0117  -4034418.7700  -2458267.5952   5  10  30.0000  30.0000  30.0000   0.0000   0.0000   0.0000   8.00    0.0
2019/02/12 09:31:54.000   4280219.7495  -4034419.4077  -2458268.2723   5  10  30.0000  30.0000  30.0000   0.0000   0.0000   0.0000   9.00    0.0
