% program   : RTKPOST ver.2.4.2
% inp file  : D:\Google Drive\UERJ\_Projeto Final\Python\tcc-guilherme\20190211_Sta91500_Smoothed.19o
% inp file  : D:\Google Drive\UERJ\_Projeto Final\20190211_Marco91500 IBGE\riod0421.19o
% inp file  : D:\Google Drive\UERJ\_Projeto Final\20190211_Marco91500 IBGE\brdm0420.19p
% obs start : 2019/02/11 08:56:22.0 GPST (week2040 118582.0s)
% obs end   : 2019/02/11 10:26:05.0 GPST (week2040 123965.0s)
% pos mode  : dgps
% freqs     : L1
% solution  : forward
% elev mask : 15.0 deg
% dynamics  : off
% tidecorr  : off
% ionos opt : broadcast
% tropo opt : saastamoinen
% ephemeris : broadcast
% navi sys  : gps glonass galileo
% antenna1  :                       ( 0.0000  0.0000  0.0000)
% antenna2  :                       ( 0.0000  0.0000  0.0080)
% ref pos   :  4280294.8840  -4034431.2298  -2458141.3831
%
% (x/y/z-ecef=WGS84,Q=1:fix,2:float,3:sbas,4:dgps,5:single,6:ppp,ns=# of satellites)
%  GPST                      x-ecef(m)      y-ecef(m)      z-ecef(m)   Q  ns   sdx(m)   sdy(m)   sdz(m)  sdxy(m)  sdyz(m)  sdzx(m) age(s)  ratio
2019/02/11 08:56:50.000   4280222.3134  -4034419.8554  -2458261.7760   5  12  30.0000  30.0000  30.0000   0.0000   0.0000   0.0000   5.00    0.0
2019/02/11 08:56:57.000   4280221.7791  -4034417.4385  -2458260.4599   5  12  30.0000  30.0000  30.0000   0.0000   0.0000   0.0000  12.00    0.0
2019/02/11 08:59:58.000   4280212.8634  -4034411.2918  -2458262.4307   5  11  30.0000  30.0000  30.0000   0.0000   0.0000   0.0000  13.00    0.0
2019/02/11 08:59:59.000   4280212.7846  -4034410.8874  -2458262.3817   5  11  30.0000  30.0000  30.0000   0.0000   0.0000   0.0000  14.00    0.0
2019/02/11 09:00:00.000   4280213.2162  -4034411.5119  -2458262.9786   5  11  30.0000  30.0000  30.0000   0.0000   0.0000   0.0000  -0.00    0.0
2019/02/11 09:06:09.000   4280219.4910  -4034414.7390  -2458261.6227   5  12  30.0000  30.0000  30.0000   0.0000   0.0000   0.0000   9.00    0.0
2019/02/11 09:06:10.000   4280219.6059  -4034414.6139  -2458261.5979   5  12  30.0000  30.0000  30.0000   0.0000   0.0000   0.0000  10.00    0.0
2019/02/11 09:06:13.000   4280219.6179  -4034414.7646  -2458262.2554   5  12  30.0000  30.0000  30.0000   0.0000   0.0000   0.0000  13.00    0.0
2019/02/11 09:06:14.000   4280219.6499  -4034414.9743  -2458262.2148   5  12  30.0000  30.0000  30.0000   0.0000   0.0000   0.0000  14.00    0.0
2019/02/11 09:06:15.000   4280220.2080  -4034415.4320  -2458262.5474   5  12  30.0000  30.0000  30.0000   0.0000   0.0000   0.0000  -0.00    0.0
2019/02/11 09:06:18.000   4280220.8569  -4034415.2134  -2458262.2249   5  12  30.0000  30.0000  30.0000   0.0000   0.0000   0.0000   3.00    0.0
2019/02/11 09:06:19.000   4280220.7795  -4034414.8666  -2458262.0189   5  12  30.0000  30.0000  30.0000   0.0000   0.0000   0.0000   4.00    0.0
2019/02/11 09:06:20.000   4280220.3060  -4034414.0996  -2458261.5388   5  12  30.0000  30.0000  30.0000   0.0000   0.0000   0.0000   5.00    0.0
2019/02/11 09:06:21.000   4280220.2499  -4034413.8794  -2458261.4130   5  12  30.0000  30.0000  30.0000   0.0000   0.0000   0.0000   6.00    0.0
2019/02/11 09:06:22.000   4280220.4606  -4034413.8220  -2458261.4891   5  12  30.0000  30.0000  30.0000   0.0000   0.0000   0.0000   7.00    0.0
2019/02/11 09:06:23.000   4280220.7452  -4034413.6282  -2458261.5369   5  12  30.0000  30.0000  30.0000   0.0000   0.0000   0.0000   8.00    0.0
2019/02/11 09:06:24.000   4280221.2422  -4034413.5142  -2458261.5552   5  12  30.0000  30.0000  30.0000   0.0000   0.0000   0.0000   9.00    0.0
2019/02/11 09:06:25.000   4280221.4563  -4034413.2825  -2458261.2608   5  12  30.0000  30.0000  30.0000   0.0000   0.0000   0.0000  10.00    0.0
2019/02/11 09:06:26.000   4280221.4170  -4034413.0842  -2458260.8676   5  12  30.0000  30.0000  30.0000   0.0000   0.0000   0.0000  11.00    0.0
2019/02/11 09:06:27.000   4280221.2443  -4034413.0205  -2458260.4194   5  12  30.0000  30.0000  30.0000   0.0000   0.0000   0.0000  12.00    0.0
2019/02/11 09:06:28.000   4280221.4536  -4034413.2746  -2458260.3475   5  12  30.0000  30.0000  30.0000   0.0000   0.0000   0.0000  13.00    0.0
2019/02/11 09:06:29.000   4280222.1910  -4034413.9909  -2458260.9737   5  12  30.0000  30.0000  30.0000   0.0000   0.0000   0.0000  14.00    0.0
2019/02/11 09:06:30.000   4280222.8657  -4034414.7466  -2458261.7103   5  12  30.0000  30.0000  30.0000   0.0000   0.0000   0.0000  -0.00    0.0
2019/02/11 09:06:31.000   4280223.9624  -4034415.6915  -2458262.5261   5  12  30.0000  30.0000  30.0000   0.0000   0.0000   0.0000   1.00    0.0
2019/02/11 09:06:32.000   4280224.6832  -4034416.5805  -2458263.3965   5  12  30.0000  30.0000  30.0000   0.0000   0.0000   0.0000   2.00    0.0
2019/02/11 09:06:33.000   4280224.4676  -4034416.6797  -2458263.5507   5  12  30.0000  30.0000  30.0000   0.0000   0.0000   0.0000   3.00    0.0
2019/02/11 09:06:34.000   4280223.9396  -4034416.6075  -2458263.4388   5  12  30.0000  30.0000  30.0000   0.0000   0.0000   0.0000   4.00    0.0
2019/02/11 09:06:35.000   4280223.4157  -4034416.3765  -2458263.2735   5  12  30.0000  30.0000  30.0000   0.0000   0.0000   0.0000   5.00    0.0
2019/02/11 09:06:36.000   4280222.9100  -4034415.9456  -2458262.9462   5  12  30.0000  30.0000  30.0000   0.0000   0.0000   0.0000   6.00    0.0
2019/02/11 09:06:37.000   4280222.9178  -4034416.0586  -2458263.0303   5  12  30.0000  30.0000  30.0000   0.0000   0.0000   0.0000   7.00    0.0
2019/02/11 09:06:38.000   4280223.1846  -4034416.2319  -2458263.1387   5  12  30.0000  30.0000  30.0000   0.0000   0.0000   0.0000   8.00    0.0
2019/02/11 09:06:39.000   4280223.3573  -4034416.3861  -2458263.3818   5  12  30.0000  30.0000  30.0000   0.0000   0.0000   0.0000   9.00    0.0
2019/02/11 09:06:40.000   4280223.5001  -4034416.4354  -2458263.4724   5  12  30.0000  30.0000  30.0000   0.0000   0.0000   0.0000  10.00    0.0
2019/02/11 09:06:41.000   4280223.8132  -4034416.7664  -2458263.6361   5  12  30.0000  30.0000  30.0000   0.0000   0.0000   0.0000  11.00    0.0
2019/02/11 09:06:42.000   4280223.4043  -4034416.6142  -2458262.6007   5  11  30.0000  30.0000  30.0000   0.0000   0.0000   0.0000  12.00    0.0
2019/02/11 09:06:43.000   4280223.5368  -4034416.9474  -2458262.7717   5  11  30.0000  30.0000  30.0000   0.0000   0.0000   0.0000  13.00    0.0
2019/02/11 09:06:44.000   4280223.7319  -4034417.2257  -2458263.1149   5  11  30.0000  30.0000  30.0000   0.0000   0.0000   0.0000  14.00    0.0
2019/02/11 09:06:45.000   4280224.0589  -4034417.7245  -2458263.6762   5  11  30.0000  30.0000  30.0000   0.0000   0.0000   0.0000  -0.00    0.0
2019/02/11 09:06:46.000   4280224.3500  -4034418.0172  -2458264.2927   5  12  30.0000  30.0000  30.0000   0.0000   0.0000   0.0000   1.00    0.0
2019/02/11 09:06:47.000   4280223.4977  -4034417.5330  -2458263.1407   5  11  30.0000  30.0000  30.0000   0.0000   0.0000   0.0000   2.00    0.0
2019/02/11 09:06:48.000   4280223.1270  -4034417.3080  -2458262.8620   5  11  30.0000  30.0000  30.0000   0.0000   0.0000   0.0000   3.00    0.0
2019/02/11 09:06:49.000   4280222.9724  -4034417.0241  -2458262.9194   5  11  30.0000  30.0000  30.0000   0.0000   0.0000   0.0000   4.00    0.0
2019/02/11 09:06:50.000   4280222.6474  -4034416.5987  -2458262.6290   5  11  30.0000  30.0000  30.0000   0.0000   0.0000   0.0000   5.00    0.0
2019/02/11 09:06:51.000   4280223.1652  -4034416.7169  -2458263.6666   5  12  30.0000  30.0000  30.0000   0.0000   0.0000   0.0000   6.00    0.0
2019/02/11 09:06:52.000   4280222.4177  -4034415.8208  -2458262.1173   5  11  30.0000  30.0000  30.0000   0.0000   0.0000   0.0000   7.00    0.0
2019/02/11 09:06:53.000   4280222.8578  -4034416.0616  -2458263.2195   5  12  30.0000  30.0000  30.0000   0.0000   0.0000   0.0000   8.00    0.0
2019/02/11 09:06:54.000   4280222.6684  -4034416.0116  -2458263.1494   5  12  30.0000  30.0000  30.0000   0.0000   0.0000   0.0000   9.00    0.0
2019/02/11 09:06:55.000   4280222.5464  -4034416.1002  -2458263.1789   5  12  30.0000  30.0000  30.0000   0.0000   0.0000   0.0000  10.00    0.0
2019/02/11 09:06:56.000   4280221.4333  -4034415.3209  -2458261.5398   5  11  30.0000  30.0000  30.0000   0.0000   0.0000   0.0000  11.00    0.0
2019/02/11 09:06:57.000   4280221.1911  -4034415.1955  -2458261.7081   5  11  30.0000  30.0000  30.0000   0.0000   0.0000   0.0000  12.00    0.0
2019/02/11 09:06:58.000   4280221.5265  -4034415.8062  -2458262.5125   5  11  30.0000  30.0000  30.0000   0.0000   0.0000   0.0000  13.00    0.0
2019/02/11 09:06:59.000   4280221.9923  -4034416.1811  -2458263.0273   5  11  30.0000  30.0000  30.0000   0.0000   0.0000   0.0000  14.00    0.0
2019/02/11 09:07:00.000   4280222.5301  -4034416.5147  -2458263.4092   5  11  30.0000  30.0000  30.0000   0.0000   0.0000   0.0000  -0.00    0.0
2019/02/11 09:07:01.000   4280222.4313  -4034416.0977  -2458263.2530   5  11  30.0000  30.0000  30.0000   0.0000   0.0000   0.0000   1.00    0.0
2019/02/11 09:07:02.000   4280222.3672  -4034415.7729  -2458263.0897   5  11  30.0000  30.0000  30.0000   0.0000   0.0000   0.0000   2.00    0.0
2019/02/11 09:07:03.000   4280222.3243  -4034415.8358  -2458263.1597   5  11  30.0000  30.0000  30.0000   0.0000   0.0000   0.0000   3.00    0.0
2019/02/11 09:07:04.000   4280222.3588  -4034415.9346  -2458263.1750   5  11  30.0000  30.0000  30.0000   0.0000   0.0000   0.0000   4.00    0.0
2019/02/11 09:07:05.000   4280222.3127  -4034416.1026  -2458263.0820   5  11  30.0000  30.0000  30.0000   0.0000   0.0000   0.0000   5.00    0.0
2019/02/11 09:07:06.000   4280222.6767  -4034416.4319  -2458263.2860   5  11  30.0000  30.0000  30.0000   0.0000   0.0000   0.0000   6.00    0.0
2019/02/11 09:07:07.000   4280223.1971  -4034417.1512  -2458264.0949   5  12  30.0000  30.0000  30.0000   0.0000   0.0000   0.0000   7.00    0.0
2019/02/11 09:07:08.000   4280223.0912  -4034417.2205  -2458263.8278   5  11  30.0000  30.0000  30.0000   0.0000   0.0000   0.0000   8.00    0.0
2019/02/11 09:07:09.000   4280223.1472  -4034417.1656  -2458263.9135   5  11  30.0000  30.0000  30.0000   0.0000   0.0000   0.0000   9.00    0.0
2019/02/11 09:07:10.000   4280222.8585  -4034416.5517  -2458263.7120   5  11  30.0000  30.0000  30.0000   0.0000   0.0000   0.0000  10.00    0.0
2019/02/11 09:07:11.000   4280222.5522  -4034415.7663  -2458263.4406   5  11  30.0000  30.0000  30.0000   0.0000   0.0000   0.0000  11.00    0.0
2019/02/11 09:07:12.000   4280222.3934  -4034415.3021  -2458263.4992   5  11  30.0000  30.0000  30.0000   0.0000   0.0000   0.0000  12.00    0.0
2019/02/11 09:07:13.000   4280222.2286  -4034414.8902  -2458263.5150   5  11  30.0000  30.0000  30.0000   0.0000   0.0000   0.0000  13.00    0.0
2019/02/11 09:07:32.000   4280223.9215  -4034417.2428  -2458266.2492   5  12  30.0000  30.0000  30.0000   0.0000   0.0000   0.0000   2.00    0.0
2019/02/11 09:07:43.000   4280222.6224  -4034416.0594  -2458264.5439   5  12  30.0000  30.0000  30.0000   0.0000   0.0000   0.0000  13.00    0.0
2019/02/11 09:07:44.000   4280222.7129  -4034415.9376  -2458264.4923   5  12  30.0000  30.0000  30.0000   0.0000   0.0000   0.0000  14.00    0.0
2019/02/11 09:07:45.000   4280222.8975  -4034415.9248  -2458264.4752   5  12  30.0000  30.0000  30.0000   0.0000   0.0000   0.0000  -0.00    0.0
2019/02/11 09:07:46.000   4280222.9533  -4034415.8044  -2458264.3519   5  12  30.0000  30.0000  30.0000   0.0000   0.0000   0.0000   1.00    0.0
2019/02/11 09:07:47.000   4280223.1642  -4034415.8255  -2458264.4938   5  12  30.0000  30.0000  30.0000   0.0000   0.0000   0.0000   2.00    0.0
2019/02/11 09:07:48.000   4280223.4929  -4034416.2151  -2458264.9017   5  12  30.0000  30.0000  30.0000   0.0000   0.0000   0.0000   3.00    0.0
2019/02/11 09:07:49.000   4280223.8530  -4034416.7879  -2458265.4624   5  12  30.0000  30.0000  30.0000   0.0000   0.0000   0.0000   4.00    0.0
2019/02/11 09:07:50.000   4280224.0777  -4034417.1311  -2458265.8599   5  12  30.0000  30.0000  30.0000   0.0000   0.0000   0.0000   5.00    0.0
2019/02/11 09:07:51.000   4280224.2257  -4034417.2941  -2458266.1131   5  12  30.0000  30.0000  30.0000   0.0000   0.0000   0.0000   6.00    0.0
2019/02/11 09:07:52.000   4280224.3664  -4034417.3386  -2458266.1497   5  12  30.0000  30.0000  30.0000   0.0000   0.0000   0.0000   7.00    0.0
2019/02/11 09:07:53.000   4280224.3523  -4034417.2007  -2458266.0826   5  12  30.0000  30.0000  30.0000   0.0000   0.0000   0.0000   8.00    0.0
2019/02/11 09:07:54.000   4280224.3048  -4034417.0983  -2458266.0621   5  12  30.0000  30.0000  30.0000   0.0000   0.0000   0.0000   9.00    0.0
2019/02/11 09:07:55.000   4280224.7562  -4034417.2138  -2458266.2756   5  12  30.0000  30.0000  30.0000   0.0000   0.0000   0.0000  10.00    0.0
2019/02/11 09:07:56.000   4280224.9048  -4034417.1369  -2458266.2886   5  12  30.0000  30.0000  30.0000   0.0000   0.0000   0.0000  11.00    0.0
2019/02/11 09:07:57.000   4280224.9716  -4034417.1681  -2458266.2663   5  12  30.0000  30.0000  30.0000   0.0000   0.0000   0.0000  12.00    0.0
2019/02/11 09:07:58.000   4280225.0596  -4034417.4719  -2458266.5495   5  12  30.0000  30.0000  30.0000   0.0000   0.0000   0.0000  13.00    0.0
2019/02/11 09:07:59.000   4280225.4717  -4034418.0371  -2458267.2463   5  12  30.0000  30.0000  30.0000   0.0000   0.0000   0.0000  14.00    0.0
2019/02/11 09:08:00.000   4280223.9213  -4034416.8717  -2458264.9085   5  11  30.0000  30.0000  30.0000   0.0000   0.0000   0.0000  -0.00    0.0
2019/02/11 09:08:01.000   4280224.2045  -4034416.9752  -2458265.1138   5  11  30.0000  30.0000  30.0000   0.0000   0.0000   0.0000   1.00    0.0
2019/02/11 09:08:02.000   4280224.5997  -4034417.0142  -2458265.3497   5  11  30.0000  30.0000  30.0000   0.0000   0.0000   0.0000   2.00    0.0
2019/02/11 09:08:03.000   4280226.6151  -4034418.4262  -2458268.5041   5  12  30.0000  30.0000  30.0000   0.0000   0.0000   0.0000   3.00    0.0
2019/02/11 09:08:04.000   4280226.9951  -4034418.5546  -2458268.7684   5  12  30.0000  30.0000  30.0000   0.0000   0.0000   0.0000   4.00    0.0
2019/02/11 09:08:05.000   4280227.2320  -4034418.6969  -2458268.8647   5  12  30.0000  30.0000  30.0000   0.0000   0.0000   0.0000   5.00    0.0
2019/02/11 09:08:06.000   4280225.5760  -4034417.2392  -2458265.6520   5  11  30.0000  30.0000  30.0000   0.0000   0.0000   0.0000   6.00    0.0
2019/02/11 09:08:07.000   4280225.8276  -4034417.2809  -2458265.8646   5  11  30.0000  30.0000  30.0000   0.0000   0.0000   0.0000   7.00    0.0
2019/02/11 09:08:08.000   4280226.3951  -4034417.2660  -2458266.3739   5  11  30.0000  30.0000  30.0000   0.0000   0.0000   0.0000   8.00    0.0
2019/02/11 09:08:09.000   4280226.5776  -4034417.2433  -2458266.8031   5  11  30.0000  30.0000  30.0000   0.0000   0.0000   0.0000   9.00    0.0
2019/02/11 09:08:10.000   4280226.4468  -4034417.2405  -2458267.0659   5  11  30.0000  30.0000  30.0000   0.0000   0.0000   0.0000  10.00    0.0
2019/02/11 09:08:11.000   4280226.0599  -4034417.3227  -2458267.3069   5  11  30.0000  30.0000  30.0000   0.0000   0.0000   0.0000  11.00    0.0
2019/02/11 09:08:12.000   4280225.7629  -4034417.4088  -2458267.4721   5  11  30.0000  30.0000  30.0000   0.0000   0.0000   0.0000  12.00    0.0
2019/02/11 09:08:13.000   4280225.5169  -4034417.4378  -2458267.6142   5  11  30.0000  30.0000  30.0000   0.0000   0.0000   0.0000  13.00    0.0
2019/02/11 09:08:14.000   4280225.6329  -4034417.7942  -2458268.1001   5  11  30.0000  30.0000  30.0000   0.0000   0.0000   0.0000  14.00    0.0
2019/02/11 09:08:15.000   4280226.9368  -4034418.7974  -2458270.5782   5  12  30.0000  30.0000  30.0000   0.0000   0.0000   0.0000  -0.00    0.0
2019/02/11 09:08:16.000   4280226.9439  -4034418.8010  -2458270.5789   5  12  30.0000  30.0000  30.0000   0.0000   0.0000   0.0000   1.00    0.0
2019/02/11 09:08:17.000   4280226.7937  -4034418.6192  -2458270.4220   5  12  30.0000  30.0000  30.0000   0.0000   0.0000   0.0000   2.00    0.0
2019/02/11 09:08:18.000   4280226.4894  -4034418.2539  -2458270.1408   5  12  30.0000  30.0000  30.0000   0.0000   0.0000   0.0000   3.00    0.0
2019/02/11 09:08:19.000   4280226.3169  -4034417.8862  -2458270.0040   5  12  30.0000  30.0000  30.0000   0.0000   0.0000   0.0000   4.00    0.0
2019/02/11 09:08:20.000   4280226.2313  -4034417.7073  -2458270.0875   5  12  30.0000  30.0000  30.0000   0.0000   0.0000   0.0000   5.00    0.0
2019/02/11 09:08:21.000   4280225.9585  -4034417.3529  -2458270.0081   5  12  30.0000  30.0000  30.0000   0.0000   0.0000   0.0000   6.00    0.0
2019/02/11 09:08:22.000   4280225.6874  -4034417.1791  -2458269.9472   5  12  30.0000  30.0000  30.0000   0.0000   0.0000   0.0000   7.00    0.0
2019/02/11 09:08:23.000   4280225.6985  -4034417.1479  -2458270.0073   5  12  30.0000  30.0000  30.0000   0.0000   0.0000   0.0000   8.00    0.0
2019/02/11 09:08:24.000   4280225.6756  -4034416.9547  -2458269.9466   5  12  30.0000  30.0000  30.0000   0.0000   0.0000   0.0000   9.00    0.0
2019/02/11 09:08:25.000   4280225.6972  -4034416.7948  -2458269.6252   5  12  30.0000  30.0000  30.0000   0.0000   0.0000   0.0000  10.00    0.0
2019/02/11 09:08:26.000   4280225.8278  -4034416.8287  -2458269.4860   5  12  30.0000  30.0000  30.0000   0.0000   0.0000   0.0000  11.00    0.0
2019/02/11 09:08:27.000   4280225.8153  -4034416.8385  -2458269.3375   5  11  30.0000  30.0000  30.0000   0.0000   0.0000   0.0000  12.00    0.0
2019/02/11 09:08:28.000   4280226.0262  -4034417.0449  -2458269.6501   5  12  30.0000  30.0000  30.0000   0.0000   0.0000   0.0000  13.00    0.0
2019/02/11 09:08:29.000   4280226.1993  -4034417.1525  -2458269.9542   5  12  30.0000  30.0000  30.0000   0.0000   0.0000   0.0000  14.00    0.0
2019/02/11 09:08:30.000   4280225.6313  -4034416.5151  -2458269.1954   5  11  30.0000  30.0000  30.0000   0.0000   0.0000   0.0000  -0.00    0.0
2019/02/11 09:08:31.000   4280225.5597  -4034416.4699  -2458269.5023   5  12  30.0000  30.0000  30.0000   0.0000   0.0000   0.0000   1.00    0.0
2019/02/11 09:08:32.000   4280225.2633  -4034416.4730  -2458269.1554   5  12  30.0000  30.0000  30.0000   0.0000   0.0000   0.0000   2.00    0.0
2019/02/11 09:08:33.000   4280224.7446  -4034416.3508  -2458268.5888   5  12  30.0000  30.0000  30.0000   0.0000   0.0000   0.0000   3.00    0.0
2019/02/11 09:08:34.000   4280224.2244  -4034416.3534  -2458268.1659   5  12  30.0000  30.0000  30.0000   0.0000   0.0000   0.0000   4.00    0.0
2019/02/11 09:08:35.000   4280224.1582  -4034416.4782  -2458267.8613   5  12  30.0000  30.0000  30.0000   0.0000   0.0000   0.0000   5.00    0.0
2019/02/11 09:08:36.000   4280224.1300  -4034416.6164  -2458267.9066   5  12  30.0000  30.0000  30.0000   0.0000   0.0000   0.0000   6.00    0.0
2019/02/11 09:08:37.000   4280224.1558  -4034416.6128  -2458268.0297   5  12  30.0000  30.0000  30.0000   0.0000   0.0000   0.0000   7.00    0.0
2019/02/11 09:08:38.000   4280224.0001  -4034416.5095  -2458268.0883   5  12  30.0000  30.0000  30.0000   0.0000   0.0000   0.0000   8.00    0.0
2019/02/11 09:08:39.000   4280223.9525  -4034416.6167  -2458268.2520   5  12  30.0000  30.0000  30.0000   0.0000   0.0000   0.0000   9.00    0.0
2019/02/11 09:08:40.000   4280223.8245  -4034416.6033  -2458268.0832   5  12  30.0000  30.0000  30.0000   0.0000   0.0000   0.0000  10.00    0.0
2019/02/11 09:08:53.000   4280224.0094  -4034415.8126  -2458267.8576   5  12  30.0000  30.0000  30.0000   0.0000   0.0000   0.0000   8.00    0.0
2019/02/11 09:08:54.000   4280223.8418  -4034415.8149  -2458267.8598   5  12  30.0000  30.0000  30.0000   0.0000   0.0000   0.0000   9.00    0.0
2019/02/11 09:08:55.000   4280223.6976  -4034415.6424  -2458267.6886   5  12  30.0000  30.0000  30.0000   0.0000   0.0000   0.0000  10.00    0.0
2019/02/11 09:08:56.000   4280223.5735  -4034415.4678  -2458267.3648   5  12  30.0000  30.0000  30.0000   0.0000   0.0000   0.0000  11.00    0.0
2019/02/11 09:09:01.000   4280223.2786  -4034414.7521  -2458265.9307   5  12  30.0000  30.0000  30.0000   0.0000   0.0000   0.0000   1.00    0.0
2019/02/11 09:09:02.000   4280223.0193  -4034415.0680  -2458266.0100   5  12  30.0000  30.0000  30.0000   0.0000   0.0000   0.0000   2.00    0.0
2019/02/11 09:09:03.000   4280222.4997  -4034415.1149  -2458265.9437   5  12  30.0000  30.0000  30.0000   0.0000   0.0000   0.0000   3.00    0.0
2019/02/11 09:09:04.000   4280222.1717  -4034415.2922  -2458266.0018   5  12  30.0000  30.0000  30.0000   0.0000   0.0000   0.0000   4.00    0.0
2019/02/11 09:09:05.000   4280222.1146  -4034415.9753  -2458266.2807   5  12  30.0000  30.0000  30.0000   0.0000   0.0000   0.0000   5.00    0.0
2019/02/11 09:09:06.000   4280222.0204  -4034416.4045  -2458266.2765   5  12  30.0000  30.0000  30.0000   0.0000   0.0000   0.0000   6.00    0.0
2019/02/11 09:09:07.000   4280221.8559  -4034416.4853  -2458266.0464   5  12  30.0000  30.0000  30.0000   0.0000   0.0000   0.0000   7.00    0.0
2019/02/11 09:09:08.000   4280221.5998  -4034416.2799  -2458265.7335   5  12  30.0000  30.0000  30.0000   0.0000   0.0000   0.0000   8.00    0.0
2019/02/11 09:09:09.000   4280221.4196  -4034415.8048  -2458265.3448   5  12  30.0000  30.0000  30.0000   0.0000   0.0000   0.0000   9.00    0.0
2019/02/11 09:09:10.000   4280221.5239  -4034415.8503  -2458265.4508   5  12  30.0000  30.0000  30.0000   0.0000   0.0000   0.0000  10.00    0.0
2019/02/11 09:09:11.000   4280221.7598  -4034415.9448  -2458265.5246   5  12  30.0000  30.0000  30.0000   0.0000   0.0000   0.0000  11.00    0.0
2019/02/11 09:09:12.000   4280222.3791  -4034416.4804  -2458266.0049   5  12  30.0000  30.0000  30.0000   0.0000   0.0000   0.0000  12.00    0.0
2019/02/11 09:09:13.000   4280222.6227  -4034416.4802  -2458266.1523   5  12  30.0000  30.0000  30.0000   0.0000   0.0000   0.0000  13.00    0.0
2019/02/11 09:09:14.000   4280222.2687  -4034416.0026  -2458266.0357   5  12  30.0000  30.0000  30.0000   0.0000   0.0000   0.0000  14.00    0.0
2019/02/11 09:09:15.000   4280222.1659  -4034415.6303  -2458265.7766   5  12  30.0000  30.0000  30.0000   0.0000   0.0000   0.0000  -0.00    0.0
2019/02/11 09:09:16.000   4280221.8199  -4034415.1751  -2458265.2868   5  12  30.0000  30.0000  30.0000   0.0000   0.0000   0.0000   1.00    0.0
2019/02/11 09:09:17.000   4280221.4450  -4034414.6557  -2458264.8248   5  12  30.0000  30.0000  30.0000   0.0000   0.0000   0.0000   2.00    0.0
2019/02/11 09:09:18.000   4280221.4508  -4034414.5075  -2458264.6353   5  12  30.0000  30.0000  30.0000   0.0000   0.0000   0.0000   3.00    0.0
2019/02/11 09:09:19.000   4280221.1767  -4034414.3487  -2458264.5037   5  12  30.0000  30.0000  30.0000   0.0000   0.0000   0.0000   4.00    0.0
2019/02/11 09:09:20.000   4280220.8377  -4034414.0631  -2458264.3218   5  12  30.0000  30.0000  30.0000   0.0000   0.0000   0.0000   5.00    0.0
2019/02/11 09:09:21.000   4280220.3228  -4034413.5959  -2458263.9130   5  12  30.0000  30.0000  30.0000   0.0000   0.0000   0.0000   6.00    0.0
2019/02/11 09:09:22.000   4280220.1788  -4034413.6811  -2458264.0402   5  12  30.0000  30.0000  30.0000   0.0000   0.0000   0.0000   7.00    0.0
2019/02/11 09:09:23.000   4280219.9151  -4034413.5245  -2458264.0773   5  12  30.0000  30.0000  30.0000   0.0000   0.0000   0.0000   8.00    0.0
2019/02/11 09:09:24.000   4280220.1794  -4034413.9175  -2458264.6225   5  12  30.0000  30.0000  30.0000   0.0000   0.0000   0.0000   9.00    0.0
2019/02/11 09:09:25.000   4280220.3101  -4034414.0871  -2458264.9281   5  12  30.0000  30.0000  30.0000   0.0000   0.0000   0.0000  10.00    0.0
2019/02/11 09:09:26.000   4280220.4497  -4034414.2221  -2458265.2712   5  12  30.0000  30.0000  30.0000   0.0000   0.0000   0.0000  11.00    0.0
2019/02/11 09:09:27.000   4280220.4146  -4034413.8759  -2458265.1809   5  12  30.0000  30.0000  30.0000   0.0000   0.0000   0.0000  12.00    0.0
2019/02/11 09:09:28.000   4280220.1387  -4034413.2982  -2458264.6080   5  12  30.0000  30.0000  30.0000   0.0000   0.0000   0.0000  13.00    0.0
2019/02/11 09:09:29.000   4280219.8560  -4034412.9225  -2458264.1987   5  12  30.0000  30.0000  30.0000   0.0000   0.0000   0.0000  14.00    0.0
2019/02/11 09:09:30.000   4280219.7091  -4034412.7349  -2458264.0213   5  12  30.0000  30.0000  30.0000   0.0000   0.0000   0.0000  -0.00    0.0
2019/02/11 09:09:31.000   4280219.5221  -4034412.7659  -2458264.0883   5  12  30.0000  30.0000  30.0000   0.0000   0.0000   0.0000   1.00    0.0
2019/02/11 09:09:32.000   4280219.2187  -4034412.6998  -2458264.0366   5  12  30.0000  30.0000  30.0000   0.0000   0.0000   0.0000   2.00    0.0
2019/02/11 09:09:33.000   4280218.9753  -4034412.6078  -2458264.0845   5  12  30.0000  30.0000  30.0000   0.0000   0.0000   0.0000   3.00    0.0
2019/02/11 09:09:34.000   4280218.5999  -4034412.1741  -2458264.1107   5  12  30.0000  30.0000  30.0000   0.0000   0.0000   0.0000   4.00    0.0
2019/02/11 09:09:35.000   4280218.4713  -4034412.0405  -2458264.3678   5  12  30.0000  30.0000  30.0000   0.0000   0.0000   0.0000   5.00    0.0
2019/02/11 09:09:36.000   4280218.5983  -4034412.1317  -2458264.5408   5  12  30.0000  30.0000  30.0000   0.0000   0.0000   0.0000   6.00    0.0
2019/02/11 09:09:37.000   4280218.7454  -4034412.3084  -2458264.7503   5  12  30.0000  30.0000  30.0000   0.0000   0.0000   0.0000   7.00    0.0
2019/02/11 09:09:38.000   4280218.6155  -4034412.1463  -2458264.6418   5  12  30.0000  30.0000  30.0000   0.0000   0.0000   0.0000   8.00    0.0
2019/02/11 09:09:57.000   4280218.7598  -4034412.7309  -2458266.2424   5  12  30.0000  30.0000  30.0000   0.0000   0.0000   0.0000  12.00    0.0
2019/02/11 09:09:58.000   4280219.9320  -4034412.7827  -2458264.4824   5  11  30.0000  30.0000  30.0000   0.0000   0.0000   0.0000  13.00    0.0
2019/02/11 09:09:59.000   4280219.7281  -4034412.5942  -2458264.1894   5  11  30.0000  30.0000  30.0000   0.0000   0.0000   0.0000  14.00    0.0
2019/02/11 09:10:00.000   4280219.9766  -4034412.7564  -2458264.1876   5  11  30.0000  30.0000  30.0000   0.0000   0.0000   0.0000  -0.00    0.0
2019/02/11 09:10:01.000   4280218.8014  -4034413.0474  -2458266.2581   5  12  30.0000  30.0000  30.0000   0.0000   0.0000   0.0000   1.00    0.0
2019/02/11 09:10:02.000   4280218.8427  -4034413.2784  -2458266.3415   5  12  30.0000  30.0000  30.0000   0.0000   0.0000   0.0000   2.00    0.0
2019/02/11 09:10:03.000   4280220.0657  -4034412.8761  -2458264.2113   5  11  30.0000  30.0000  30.0000   0.0000   0.0000   0.0000   3.00    0.0
2019/02/11 09:10:04.000   4280218.8048  -4034413.2279  -2458266.3048   5  12  30.0000  30.0000  30.0000   0.0000   0.0000   0.0000   4.00    0.0
2019/02/11 09:10:05.000   4280219.1414  -4034413.4458  -2458266.5624   5  12  30.0000  30.0000  30.0000   0.0000   0.0000   0.0000   5.00    0.0
2019/02/11 09:10:06.000   4280219.6180  -4034413.7372  -2458267.0347   5  12  30.0000  30.0000  30.0000   0.0000   0.0000   0.0000   6.00    0.0
2019/02/11 09:10:07.000   4280219.9652  -4034413.9280  -2458267.0551   5  12  30.0000  30.0000  30.0000   0.0000   0.0000   0.0000   7.00    0.0
2019/02/11 09:10:08.000   4280220.0463  -4034413.5500  -2458266.7779   5  12  30.0000  30.0000  30.0000   0.0000   0.0000   0.0000   8.00    0.0
2019/02/11 09:10:09.000   4280219.9139  -4034413.1598  -2458266.4677   5  12  30.0000  30.0000  30.0000   0.0000   0.0000   0.0000   9.00    0.0
2019/02/11 09:10:10.000   4280219.7693  -4034412.9497  -2458266.0603   5  12  30.0000  30.0000  30.0000   0.0000   0.0000   0.0000  10.00    0.0
2019/02/11 09:10:11.000   4280219.5865  -4034412.6847  -2458265.7410   5  12  30.0000  30.0000  30.0000   0.0000   0.0000   0.0000  11.00    0.0
2019/02/11 09:10:12.000   4280219.6746  -4034412.6169  -2458265.7995   5  12  30.0000  30.0000  30.0000   0.0000   0.0000   0.0000  12.00    0.0
2019/02/11 09:10:13.000   4280219.7117  -4034412.7602  -2458266.0243   5  12  30.0000  30.0000  30.0000   0.0000   0.0000   0.0000  13.00    0.0
2019/02/11 09:10:14.000   4280219.4905  -4034412.4537  -2458265.9955   5  12  30.0000  30.0000  30.0000   0.0000   0.0000   0.0000  14.00    0.0
2019/02/11 09:10:15.000   4280219.3172  -4034412.6866  -2458266.3218   5  12  30.0000  30.0000  30.0000   0.0000   0.0000   0.0000  -0.00    0.0
2019/02/11 09:10:16.000   4280219.2187  -4034412.8770  -2458266.5035   5  12  30.0000  30.0000  30.0000   0.0000   0.0000   0.0000   1.00    0.0
2019/02/11 09:10:17.000   4280219.0193  -4034412.8976  -2458266.2771   5  12  30.0000  30.0000  30.0000   0.0000   0.0000   0.0000   2.00    0.0
2019/02/11 09:10:18.000   4280219.0548  -4034413.1505  -2458266.1187   5  12  30.0000  30.0000  30.0000   0.0000   0.0000   0.0000   3.00    0.0
2019/02/11 09:10:19.000   4280219.0228  -4034413.1707  -2458265.9489   5  12  30.0000  30.0000  30.0000   0.0000   0.0000   0.0000   4.00    0.0
2019/02/11 09:10:20.000   4280218.9855  -4034413.2104  -2458265.7924   5  12  30.0000  30.0000  30.0000   0.0000   0.0000   0.0000   5.00    0.0
2019/02/11 09:10:21.000   4280218.9441  -4034413.1067  -2458265.7770   5  12  30.0000  30.0000  30.0000   0.0000   0.0000   0.0000   6.00    0.0
2019/02/11 09:10:22.000   4280218.9803  -4034413.4713  -2458266.2346   5  12  30.0000  30.0000  30.0000   0.0000   0.0000   0.0000   7.00    0.0
2019/02/11 09:10:23.000   4280219.0242  -4034413.6288  -2458266.5250   5  12  30.0000  30.0000  30.0000   0.0000   0.0000   0.0000   8.00    0.0
2019/02/11 09:10:24.000   4280219.0741  -4034413.4154  -2458266.4046   5  12  30.0000  30.0000  30.0000   0.0000   0.0000   0.0000   9.00    0.0
2019/02/11 09:10:25.000   4280218.9711  -4034413.1189  -2458266.4265   5  12  30.0000  30.0000  30.0000   0.0000   0.0000   0.0000  10.00    0.0
2019/02/11 09:10:32.000   4280217.0129  -4034411.3385  -2458265.0522   5  12  30.0000  30.0000  30.0000   0.0000   0.0000   0.0000   2.00    0.0
2019/02/11 09:10:33.000   4280218.6779  -4034411.4822  -2458263.7298   5  11  30.0000  30.0000  30.0000   0.0000   0.0000   0.0000   3.00    0.0
2019/02/11 09:10:34.000   4280219.2123  -4034411.4886  -2458263.8879   5  11  30.0000  30.0000  30.0000   0.0000   0.0000   0.0000   4.00    0.0
2019/02/11 09:10:35.000   4280219.3014  -4034411.2324  -2458263.8087   5  11  30.0000  30.0000  30.0000   0.0000   0.0000   0.0000   5.00    0.0
2019/02/11 09:10:36.000   4280217.8332  -4034410.9915  -2458265.4312   5  12  30.0000  30.0000  30.0000   0.0000   0.0000   0.0000   6.00    0.0
2019/02/11 09:10:37.000   4280217.9947  -4034411.2752  -2458265.5613   5  12  30.0000  30.0000  30.0000   0.0000   0.0000   0.0000   7.00    0.0
2019/02/11 09:10:38.000   4280218.3229  -4034411.9247  -2458265.9481   5  12  30.0000  30.0000  30.0000   0.0000   0.0000   0.0000   8.00    0.0
2019/02/11 09:10:39.000   4280218.7342  -4034412.7113  -2458266.4926   5  12  30.0000  30.0000  30.0000   0.0000   0.0000   0.0000   9.00    0.0
2019/02/11 09:10:40.000   4280218.9415  -4034413.0528  -2458266.7117   5  12  30.0000  30.0000  30.0000   0.0000   0.0000   0.0000  10.00    0.0
2019/02/11 09:10:41.000   4280218.9881  -4034413.1038  -2458266.6489   5  12  30.0000  30.0000  30.0000   0.0000   0.0000   0.0000  11.00    0.0
2019/02/11 09:10:42.000   4280219.1454  -4034413.3396  -2458266.7301   5  12  30.0000  30.0000  30.0000   0.0000   0.0000   0.0000  12.00    0.0
2019/02/11 09:10:43.000   4280219.0535  -4034413.2390  -2458266.6338   5  12  30.0000  30.0000  30.0000   0.0000   0.0000   0.0000  13.00    0.0
2019/02/11 09:10:44.000   4280219.1854  -4034413.2667  -2458266.6565   5  12  30.0000  30.0000  30.0000   0.0000   0.0000   0.0000  14.00    0.0
2019/02/11 09:10:45.000   4280219.0769  -4034413.0759  -2458266.2890   5  12  30.0000  30.0000  30.0000   0.0000   0.0000   0.0000  -0.00    0.0
2019/02/11 09:10:46.000   4280219.2925  -4034412.9898  -2458266.1905   5  12  30.0000  30.0000  30.0000   0.0000   0.0000   0.0000   1.00    0.0
2019/02/11 09:10:47.000   4280219.5943  -4034412.8423  -2458266.1295   5  12  30.0000  30.0000  30.0000   0.0000   0.0000   0.0000   2.00    0.0
2019/02/11 09:10:48.000   4280220.0214  -4034413.1838  -2458266.3346   5  12  30.0000  30.0000  30.0000   0.0000   0.0000   0.0000   3.00    0.0
2019/02/11 09:10:49.000   4280220.3759  -4034413.5015  -2458266.5258   5  12  30.0000  30.0000  30.0000   0.0000   0.0000   0.0000   4.00    0.0
2019/02/11 09:10:50.000   4280220.4070  -4034413.7411  -2458266.4304   5  12  30.0000  30.0000  30.0000   0.0000   0.0000   0.0000   5.00    0.0
2019/02/11 09:10:51.000   4280220.1633  -4034413.9447  -2458266.3765   5  12  30.0000  30.0000  30.0000   0.0000   0.0000   0.0000   6.00    0.0
2019/02/11 09:10:52.000   4280219.7611  -4034413.7378  -2458266.1678   5  12  30.0000  30.0000  30.0000   0.0000   0.0000   0.0000   7.00    0.0
2019/02/11 09:10:53.000   4280219.6018  -4034413.9260  -2458266.2504   5  12  30.0000  30.0000  30.0000   0.0000   0.0000   0.0000   8.00    0.0
2019/02/11 09:10:54.000   4280219.8104  -4034414.3576  -2458266.5625   5  12  30.0000  30.0000  30.0000   0.0000   0.0000   0.0000   9.00    0.0
2019/02/11 09:10:55.000   4280219.7757  -4034414.4913  -2458266.4487   5  12  30.0000  30.0000  30.0000   0.0000   0.0000   0.0000  10.00    0.0
2019/02/11 09:10:56.000   4280219.6934  -4034414.0319  -2458265.9434   5  12  30.0000  30.0000  30.0000   0.0000   0.0000   0.0000  11.00    0.0
2019/02/11 09:10:57.000   4280219.5020  -4034413.3787  -2458265.2439   5  12  30.0000  30.0000  30.0000   0.0000   0.0000   0.0000  12.00    0.0
2019/02/11 09:10:58.000   4280219.2704  -4034413.0231  -2458264.8668   5  12  30.0000  30.0000  30.0000   0.0000   0.0000   0.0000  13.00    0.0
2019/02/11 09:10:59.000   4280218.8603  -4034412.4247  -2458264.5078   5  12  30.0000  30.0000  30.0000   0.0000   0.0000   0.0000  14.00    0.0
2019/02/11 09:11:00.000   4280218.8919  -4034412.5187  -2458264.7163   5  12  30.0000  30.0000  30.0000   0.0000   0.0000   0.0000  -0.00    0.0
2019/02/11 09:11:01.000   4280218.7797  -4034412.6512  -2458264.7525   5  12  30.0000  30.0000  30.0000   0.0000   0.0000   0.0000   1.00    0.0
2019/02/11 09:11:02.000   4280218.5622  -4034412.4992  -2458264.4783   5  12  30.0000  30.0000  30.0000   0.0000   0.0000   0.0000   2.00    0.0
2019/02/11 09:11:03.000   4280218.3091  -4034412.2195  -2458264.0095   5  12  30.0000  30.0000  30.0000   0.0000   0.0000   0.0000   3.00    0.0
2019/02/11 09:11:04.000   4280218.3835  -4034412.2410  -2458263.9362   5  12  30.0000  30.0000  30.0000   0.0000   0.0000   0.0000   4.00    0.0
2019/02/11 09:11:05.000   4280218.5872  -4034412.4078  -2458263.9789   5  12  30.0000  30.0000  30.0000   0.0000   0.0000   0.0000   5.00    0.0
2019/02/11 09:11:06.000   4280218.8448  -4034412.7489  -2458264.0269   5  12  30.0000  30.0000  30.0000   0.0000   0.0000   0.0000   6.00    0.0
2019/02/11 09:11:07.000   4280218.5714  -4034412.4816  -2458263.5141   5  12  30.0000  30.0000  30.0000   0.0000   0.0000   0.0000   7.00    0.0
2019/02/11 09:11:08.000   4280218.3561  -4034412.4404  -2458263.3746   5  12  30.0000  30.0000  30.0000   0.0000   0.0000   0.0000   8.00    0.0
2019/02/11 09:11:09.000   4280218.5842  -4034412.0977  -2458262.6385   5  11  30.0000  30.0000  30.0000   0.0000   0.0000   0.0000   9.00    0.0
2019/02/11 09:11:10.000   4280218.3844  -4034411.8312  -2458262.2521   5  11  30.0000  30.0000  30.0000   0.0000   0.0000   0.0000  10.00    0.0
2019/02/11 09:11:11.000   4280218.3931  -4034411.7584  -2458262.2943   5  12  30.0000  30.0000  30.0000   0.0000   0.0000   0.0000  11.00    0.0
2019/02/11 09:11:12.000   4280219.0137  -4034412.2459  -2458262.5047   5  11  30.0000  30.0000  30.0000   0.0000   0.0000   0.0000  12.00    0.0
2019/02/11 09:11:13.000   4280219.2780  -4034412.4998  -2458262.5219   5  12  30.0000  30.0000  30.0000   0.0000   0.0000   0.0000  13.00    0.0
2019/02/11 09:11:14.000   4280219.3187  -4034412.5967  -2458262.2869   5  12  30.0000  30.0000  30.0000   0.0000   0.0000   0.0000  14.00    0.0
2019/02/11 09:11:15.000   4280219.4664  -4034412.5748  -2458262.0702   5  12  30.0000  30.0000  30.0000   0.0000   0.0000   0.0000  -0.00    0.0
2019/02/11 09:11:16.000   4280219.2170  -4034412.5483  -2458262.1596   5  11  30.0000  30.0000  30.0000   0.0000   0.0000   0.0000   1.00    0.0
2019/02/11 09:11:17.000   4280219.2766  -4034412.0921  -2458261.2247   5  12  30.0000  30.0000  30.0000   0.0000   0.0000   0.0000   2.00    0.0
2019/02/11 09:11:18.000   4280219.2796  -4034411.9552  -2458261.0044   5  12  30.0000  30.0000  30.0000   0.0000   0.0000   0.0000   3.00    0.0
2019/02/11 09:11:19.000   4280219.2372  -4034411.9860  -2458260.8872   5  12  30.0000  30.0000  30.0000   0.0000   0.0000   0.0000   4.00    0.0
2019/02/11 09:11:20.000   4280219.5170  -4034412.3291  -2458260.9654   5  12  30.0000  30.0000  30.0000   0.0000   0.0000   0.0000   5.00    0.0
2019/02/11 09:11:21.000   4280219.6718  -4034412.4896  -2458260.9339   5  12  30.0000  30.0000  30.0000   0.0000   0.0000   0.0000   6.00    0.0
2019/02/11 09:11:22.000   4280220.1033  -4034413.0156  -2458261.2826   5  12  30.0000  30.0000  30.0000   0.0000   0.0000   0.0000   7.00    0.0
2019/02/11 09:11:23.000   4280220.4598  -4034413.3648  -2458261.6204   5  12  30.0000  30.0000  30.0000   0.0000   0.0000   0.0000   8.00    0.0
2019/02/11 09:11:24.000   4280220.3914  -4034413.4790  -2458261.6198   5  12  30.0000  30.0000  30.0000   0.0000   0.0000   0.0000   9.00    0.0
2019/02/11 09:11:25.000   4280219.8184  -4034413.1960  -2458261.3392   5  12  30.0000  30.0000  30.0000   0.0000   0.0000   0.0000  10.00    0.0
2019/02/11 09:11:26.000   4280219.4937  -4034413.2829  -2458261.4901   5  12  30.0000  30.0000  30.0000   0.0000   0.0000   0.0000  11.00    0.0
2019/02/11 09:11:27.000   4280219.1995  -4034412.9485  -2458261.6171   5  12  30.0000  30.0000  30.0000   0.0000   0.0000   0.0000  12.00    0.0
2019/02/11 09:11:28.000   4280218.9763  -4034412.6940  -2458261.6937   5  12  30.0000  30.0000  30.0000   0.0000   0.0000   0.0000  13.00    0.0
2019/02/11 09:11:29.000   4280219.0145  -4034412.4283  -2458261.7629   5  12  30.0000  30.0000  30.0000   0.0000   0.0000   0.0000  14.00    0.0
2019/02/11 09:11:30.000   4280219.0972  -4034412.0322  -2458261.7692   5  12  30.0000  30.0000  30.0000   0.0000   0.0000   0.0000  -0.00    0.0
2019/02/11 09:11:31.000   4280219.3681  -4034412.0645  -2458261.9124   5  12  30.0000  30.0000  30.0000   0.0000   0.0000   0.0000   1.00    0.0
2019/02/11 09:11:32.000   4280219.4629  -4034411.9670  -2458262.0013   5  12  30.0000  30.0000  30.0000   0.0000   0.0000   0.0000   2.00    0.0
2019/02/11 09:11:33.000   4280219.6809  -4034412.3422  -2458262.1658   5  12  30.0000  30.0000  30.0000   0.0000   0.0000   0.0000   3.00    0.0
2019/02/11 09:11:34.000   4280219.8141  -4034412.2612  -2458262.1080   5  12  30.0000  30.0000  30.0000   0.0000   0.0000   0.0000   4.00    0.0
2019/02/11 09:11:35.000   4280220.0715  -4034412.4380  -2458262.4135   5  12  30.0000  30.0000  30.0000   0.0000   0.0000   0.0000   5.00    0.0
2019/02/11 09:11:36.000   4280220.3075  -4034412.7528  -2458262.6731   5  12  30.0000  30.0000  30.0000   0.0000   0.0000   0.0000   6.00    0.0
2019/02/11 09:11:37.000   4280220.4748  -4034412.7837  -2458263.0348   5  12  30.0000  30.0000  30.0000   0.0000   0.0000   0.0000   7.00    0.0
2019/02/11 09:11:38.000   4280220.5966  -4034412.8504  -2458263.4798   5  12  30.0000  30.0000  30.0000   0.0000   0.0000   0.0000   8.00    0.0
2019/02/11 09:11:39.000   4280220.6726  -4034412.7476  -2458263.8409   5  12  30.0000  30.0000  30.0000   0.0000   0.0000   0.0000   9.00    0.0
2019/02/11 09:11:40.000   4280220.2850  -4034412.4366  -2458263.6580   5  12  30.0000  30.0000  30.0000   0.0000   0.0000   0.0000  10.00    0.0
2019/02/11 09:11:41.000   4280220.3042  -4034412.5355  -2458263.6213   5  12  30.0000  30.0000  30.0000   0.0000   0.0000   0.0000  11.00    0.0
2019/02/11 09:11:42.000   4280220.4651  -4034412.6201  -2458263.5727   5  12  30.0000  30.0000  30.0000   0.0000   0.0000   0.0000  12.00    0.0
2019/02/11 09:11:43.000   4280220.6420  -4034412.7441  -2458263.5323   5  12  30.0000  30.0000  30.0000   0.0000   0.0000   0.0000  13.00    0.0
2019/02/11 09:11:44.000   4280220.8265  -4034412.7406  -2458263.5213   5  12  30.0000  30.0000  30.0000   0.0000   0.0000   0.0000  14.00    0.0
2019/02/11 09:11:45.000   4280220.9678  -4034412.8864  -2458263.6423   5  12  30.0000  30.0000  30.0000   0.0000   0.0000   0.0000  -0.00    0.0
2019/02/11 09:11:46.000   4280220.7286  -4034412.8318  -2458263.5994   5  12  30.0000  30.0000  30.0000   0.0000   0.0000   0.0000   1.00    0.0
2019/02/11 09:11:47.000   4280220.5848  -4034412.8393  -2458263.4338   5  12  30.0000  30.0000  30.0000   0.0000   0.0000   0.0000   2.00    0.0
2019/02/11 09:11:48.000   4280220.4919  -4034412.8904  -2458263.2592   5  12  30.0000  30.0000  30.0000   0.0000   0.0000   0.0000   3.00    0.0
2019/02/11 09:11:49.000   4280220.6088  -4034412.9044  -2458263.3462   5  12  30.0000  30.0000  30.0000   0.0000   0.0000   0.0000   4.00    0.0
2019/02/11 09:11:50.000   4280221.2980  -4034413.2495  -2458263.5442   5  11  30.0000  30.0000  30.0000   0.0000   0.0000   0.0000   5.00    0.0
2019/02/11 09:11:51.000   4280221.1544  -4034413.3184  -2458264.2216   5  12  30.0000  30.0000  30.0000   0.0000   0.0000   0.0000   6.00    0.0
2019/02/11 09:11:52.000   4280221.1859  -4034413.2421  -2458264.3893   5  12  30.0000  30.0000  30.0000   0.0000   0.0000   0.0000   7.00    0.0
2019/02/11 09:11:53.000   4280221.0794  -4034413.0573  -2458264.3097   5  12  30.0000  30.0000  30.0000   0.0000   0.0000   0.0000   8.00    0.0
2019/02/11 09:11:54.000   4280220.7732  -4034413.1369  -2458264.0429   5  11  30.0000  30.0000  30.0000   0.0000   0.0000   0.0000   9.00    0.0
2019/02/11 09:11:55.000   4280220.4038  -4034413.2196  -2458263.7582   5  11  30.0000  30.0000  30.0000   0.0000   0.0000   0.0000  10.00    0.0
2019/02/11 09:11:56.000   4280220.2779  -4034413.2665  -2458263.6131   5  11  30.0000  30.0000  30.0000   0.0000   0.0000   0.0000  11.00    0.0
2019/02/11 09:11:57.000   4280220.3245  -4034413.1925  -2458263.6639   5  11  30.0000  30.0000  30.0000   0.0000   0.0000   0.0000  12.00    0.0
2019/02/11 09:11:58.000   4280220.6926  -4034413.3397  -2458264.0631   5  11  30.0000  30.0000  30.0000   0.0000   0.0000   0.0000  13.00    0.0
2019/02/11 09:11:59.000   4280221.9370  -4034413.5932  -2458263.5056   5  12  30.0000  30.0000  30.0000   0.0000   0.0000   0.0000  14.00    0.0
2019/02/11 09:12:00.000   4280222.0289  -4034413.4100  -2458263.4545   5  12  30.0000  30.0000  30.0000   0.0000   0.0000   0.0000  -0.00    0.0
2019/02/11 09:12:01.000   4280220.9388  -4034413.1437  -2458264.3909   5  11  30.0000  30.0000  30.0000   0.0000   0.0000   0.0000   1.00    0.0
2019/02/11 09:12:02.000   4280221.6927  -4034413.4803  -2458263.6050   5  12  30.0000  30.0000  30.0000   0.0000   0.0000   0.0000   2.00    0.0
2019/02/11 09:12:03.000   4280220.9707  -4034413.9169  -2458264.8464   5  11  30.0000  30.0000  30.0000   0.0000   0.0000   0.0000   3.00    0.0
2019/02/11 09:12:04.000   4280221.5403  -4034413.9099  -2458263.8652   5  12  30.0000  30.0000  30.0000   0.0000   0.0000   0.0000   4.00    0.0
2019/02/11 09:12:05.000   4280221.4021  -4034413.7078  -2458263.7685   5  12  30.0000  30.0000  30.0000   0.0000   0.0000   0.0000   5.00    0.0
2019/02/11 09:12:06.000   4280221.2050  -4034413.4966  -2458263.6690   5  12  30.0000  30.0000  30.0000   0.0000   0.0000   0.0000   6.00    0.0
2019/02/11 09:12:07.000   4280220.9437  -4034413.2470  -2458263.4128   5  12  30.0000  30.0000  30.0000   0.0000   0.0000   0.0000   7.00    0.0
2019/02/11 09:12:08.000   4280220.4457  -4034412.7122  -2458262.9179   5  12  30.0000  30.0000  30.0000   0.0000   0.0000   0.0000   8.00    0.0
2019/02/11 09:12:09.000   4280219.9683  -4034412.1453  -2458262.4457   5  12  30.0000  30.0000  30.0000   0.0000   0.0000   0.0000   9.00    0.0
2019/02/11 09:12:10.000   4280219.8928  -4034412.3300  -2458262.4884   5  12  30.0000  30.0000  30.0000   0.0000   0.0000   0.0000  10.00    0.0
2019/02/11 09:12:11.000   4280220.2206  -4034412.7859  -2458262.9397   5  12  30.0000  30.0000  30.0000   0.0000   0.0000   0.0000  11.00    0.0
2019/02/11 09:12:12.000   4280220.3276  -4034412.8153  -2458263.2672   5  12  30.0000  30.0000  30.0000   0.0000   0.0000   0.0000  12.00    0.0
2019/02/11 09:12:13.000   4280220.0799  -4034412.7285  -2458263.4178   5  12  30.0000  30.0000  30.0000   0.0000   0.0000   0.0000  13.00    0.0
2019/02/11 09:12:14.000   4280219.8652  -4034412.5863  -2458263.6450   5  12  30.0000  30.0000  30.0000   0.0000   0.0000   0.0000  14.00    0.0
2019/02/11 09:12:15.000   4280219.8277  -4034412.5599  -2458263.8867   5  12  30.0000  30.0000  30.0000   0.0000   0.0000   0.0000  -0.00    0.0
2019/02/11 09:12:16.000   4280219.9600  -4034412.7065  -2458264.1458   5  12  30.0000  30.0000  30.0000   0.0000   0.0000   0.0000   1.00    0.0
2019/02/11 09:12:17.000   4280219.9266  -4034412.8490  -2458264.1158   5  12  30.0000  30.0000  30.0000   0.0000   0.0000   0.0000   2.00    0.0
2019/02/11 09:12:18.000   4280220.2572  -4034413.0073  -2458264.1871   5  12  30.0000  30.0000  30.0000   0.0000   0.0000   0.0000   3.00    0.0
2019/02/11 09:12:19.000   4280220.4817  -4034413.0593  -2458264.1666   5  12  30.0000  30.0000  30.0000   0.0000   0.0000   0.0000   4.00    0.0
2019/02/11 09:12:20.000   4280220.5233  -4034412.6496  -2458264.1301   5  12  30.0000  30.0000  30.0000   0.0000   0.0000   0.0000   5.00    0.0
2019/02/11 09:12:21.000   4280220.4102  -4034412.2657  -2458264.1341   5  12  30.0000  30.0000  30.0000   0.0000   0.0000   0.0000   6.00    0.0
2019/02/11 09:12:22.000   4280220.3736  -4034411.9605  -2458264.1119   5  12  30.0000  30.0000  30.0000   0.0000   0.0000   0.0000   7.00    0.0
2019/02/11 09:12:23.000   4280220.6615  -4034412.1111  -2458264.3666   5  12  30.0000  30.0000  30.0000   0.0000   0.0000   0.0000   8.00    0.0
2019/02/11 09:12:24.000   4280220.7394  -4034412.2738  -2458264.5312   5  12  30.0000  30.0000  30.0000   0.0000   0.0000   0.0000   9.00    0.0
2019/02/11 09:12:25.000   4280220.6785  -4034412.4410  -2458264.5988   5  12  30.0000  30.0000  30.0000   0.0000   0.0000   0.0000  10.00    0.0
2019/02/11 09:12:26.000   4280220.6505  -4034412.5863  -2458264.4557   5  12  30.0000  30.0000  30.0000   0.0000   0.0000   0.0000  11.00    0.0
2019/02/11 09:12:27.000   4280221.1084  -4034412.9917  -2458264.6878   5  12  30.0000  30.0000  30.0000   0.0000   0.0000   0.0000  12.00    0.0
2019/02/11 09:12:28.000   4280221.4111  -4034413.2053  -2458264.9068   5  12  30.0000  30.0000  30.0000   0.0000   0.0000   0.0000  13.00    0.0
2019/02/11 09:12:29.000   4280221.6238  -4034413.2466  -2458265.0635   5  12  30.0000  30.0000  30.0000   0.0000   0.0000   0.0000  14.00    0.0
2019/02/11 09:12:30.000   4280221.7291  -4034413.6175  -2458265.5827   5  12  30.0000  30.0000  30.0000   0.0000   0.0000   0.0000  -0.00    0.0
2019/02/11 09:12:41.000   4280222.8839  -4034414.0409  -2458265.8635   5  12  30.0000  30.0000  30.0000   0.0000   0.0000   0.0000  11.00    0.0
2019/02/11 09:12:42.000   4280222.5008  -4034413.4890  -2458265.7927   5  12  30.0000  30.0000  30.0000   0.0000   0.0000   0.0000  12.00    0.0
2019/02/11 09:12:45.000   4280222.6555  -4034414.0193  -2458266.2218   5  12  30.0000  30.0000  30.0000   0.0000   0.0000   0.0000  -0.00    0.0
2019/02/11 09:12:46.000   4280223.1313  -4034414.9187  -2458266.7925   5  12  30.0000  30.0000  30.0000   0.0000   0.0000   0.0000   1.00    0.0
2019/02/11 09:12:47.000   4280223.5134  -4034415.4650  -2458267.3069   5  12  30.0000  30.0000  30.0000   0.0000   0.0000   0.0000   2.00    0.0
2019/02/11 09:12:48.000   4280223.7700  -4034415.7997  -2458267.7677   5  12  30.0000  30.0000  30.0000   0.0000   0.0000   0.0000   3.00    0.0
2019/02/11 09:12:49.000   4280223.9386  -4034415.9956  -2458268.0329   5  12  30.0000  30.0000  30.0000   0.0000   0.0000   0.0000   4.00    0.0
2019/02/11 09:12:50.000   4280224.1274  -4034416.0386  -2458267.9959   5  12  30.0000  30.0000  30.0000   0.0000   0.0000   0.0000   5.00    0.0
2019/02/11 09:12:51.000   4280223.9969  -4034416.0928  -2458267.9595   5  12  30.0000  30.0000  30.0000   0.0000   0.0000   0.0000   6.00    0.0
2019/02/11 09:12:52.000   4280223.7965  -4034416.4001  -2458267.9093   5  12  30.0000  30.0000  30.0000   0.0000   0.0000   0.0000   7.00    0.0
2019/02/11 09:12:53.000   4280223.8205  -4034416.7536  -2458267.7339   5  12  30.0000  30.0000  30.0000   0.0000   0.0000   0.0000   8.00    0.0
2019/02/11 09:12:54.000   4280223.9710  -4034416.9486  -2458267.6109   5  12  30.0000  30.0000  30.0000   0.0000   0.0000   0.0000   9.00    0.0
2019/02/11 09:12:55.000   4280223.8197  -4034416.7605  -2458267.4181   5  12  30.0000  30.0000  30.0000   0.0000   0.0000   0.0000  10.00    0.0
2019/02/11 09:12:56.000   4280223.6727  -4034416.7295  -2458267.4852   5  12  30.0000  30.0000  30.0000   0.0000   0.0000   0.0000  11.00    0.0
2019/02/11 09:12:57.000   4280223.5114  -4034416.7527  -2458267.4927   5  12  30.0000  30.0000  30.0000   0.0000   0.0000   0.0000  12.00    0.0
2019/02/11 09:12:58.000   4280223.6221  -4034416.9747  -2458267.6582   5  12  30.0000  30.0000  30.0000   0.0000   0.0000   0.0000  13.00    0.0
2019/02/11 09:12:59.000   4280223.5907  -4034417.0977  -2458267.8036   5  12  30.0000  30.0000  30.0000   0.0000   0.0000   0.0000  14.00    0.0
2019/02/11 09:13:00.000   4280223.7191  -4034417.0902  -2458267.5750   5  12  30.0000  30.0000  30.0000   0.0000   0.0000   0.0000  -0.00    0.0
2019/02/11 09:13:01.000   4280223.8387  -4034416.9021  -2458267.2250   5  12  30.0000  30.0000  30.0000   0.0000   0.0000   0.0000   1.00    0.0
2019/02/11 09:13:02.000   4280223.8705  -4034416.6779  -2458266.8609   5  12  30.0000  30.0000  30.0000   0.0000   0.0000   0.0000   2.00    0.0
2019/02/11 09:13:03.000   4280224.0588  -4034416.8092  -2458266.8751   5  12  30.0000  30.0000  30.0000   0.0000   0.0000   0.0000   3.00    0.0
2019/02/11 09:13:04.000   4280226.2942  -4034417.1788  -2458264.8272   5  11  30.0000  30.0000  30.0000   0.0000   0.0000   0.0000   4.00    0.0
2019/02/11 09:13:05.000   4280226.1853  -4034416.9886  -2458265.0084   5  11  30.0000  30.0000  30.0000   0.0000   0.0000   0.0000   5.00    0.0
2019/02/11 09:13:06.000   4280224.2372  -4034416.8784  -2458267.4822   5  12  30.0000  30.0000  30.0000   0.0000   0.0000   0.0000   6.00    0.0
2019/02/11 09:13:07.000   4280226.7071  -4034418.0710  -2458266.1909   5  11  30.0000  30.0000  30.0000   0.0000   0.0000   0.0000   7.00    0.0
2019/02/11 09:13:08.000   4280227.0348  -4034418.5895  -2458266.6019   5  11  30.0000  30.0000  30.0000   0.0000   0.0000   0.0000   8.00    0.0
2019/02/11 09:13:09.000   4280227.5007  -4034418.8157  -2458266.8833   5  11  30.0000  30.0000  30.0000   0.0000   0.0000   0.0000   9.00    0.0
2019/02/11 09:13:10.000   4280226.0957  -4034418.5559  -2458268.7237   5  12  30.0000  30.0000  30.0000   0.0000   0.0000   0.0000  10.00    0.0
2019/02/11 09:13:11.000   4280226.5485  -4034418.8258  -2458268.7515   5  12  30.0000  30.0000  30.0000   0.0000   0.0000   0.0000  11.00    0.0
2019/02/11 09:13:12.000   4280227.1465  -4034419.2868  -2458268.9796   5  12  30.0000  30.0000  30.0000   0.0000   0.0000   0.0000  12.00    0.0
2019/02/11 09:13:13.000   4280227.6204  -4034419.9881  -2458269.2995   5  12  30.0000  30.0000  30.0000   0.0000   0.0000   0.0000  13.00    0.0
2019/02/11 09:13:14.000   4280227.9002  -4034420.6091  -2458269.4801   5  12  30.0000  30.0000  30.0000   0.0000   0.0000   0.0000  14.00    0.0
2019/02/11 09:13:15.000   4280228.1195  -4034420.9858  -2458269.6144   5  12  30.0000  30.0000  30.0000   0.0000   0.0000   0.0000  -0.00    0.0
2019/02/11 09:13:16.000   4280228.2752  -4034421.1721  -2458269.7232   5  12  30.0000  30.0000  30.0000   0.0000   0.0000   0.0000   1.00    0.0
2019/02/11 09:13:17.000   4280228.0680  -4034421.0358  -2458269.5467   5  12  30.0000  30.0000  30.0000   0.0000   0.0000   0.0000   2.00    0.0
2019/02/11 09:13:18.000   4280228.1195  -4034421.2126  -2458269.6074   5  12  30.0000  30.0000  30.0000   0.0000   0.0000   0.0000   3.00    0.0
2019/02/11 09:13:19.000   4280228.3000  -4034421.6189  -2458269.9552   5  12  30.0000  30.0000  30.0000   0.0000   0.0000   0.0000   4.00    0.0
2019/02/11 09:13:20.000   4280228.5487  -4034422.0089  -2458270.3571   5  12  30.0000  30.0000  30.0000   0.0000   0.0000   0.0000   5.00    0.0
2019/02/11 09:13:21.000   4280228.3976  -4034421.9247  -2458270.2680   5  12  30.0000  30.0000  30.0000   0.0000   0.0000   0.0000   6.00    0.0
2019/02/11 09:13:22.000   4280228.4135  -4034421.7818  -2458270.1071   5  12  30.0000  30.0000  30.0000   0.0000   0.0000   0.0000   7.00    0.0
2019/02/11 09:13:23.000   4280228.5425  -4034421.8592  -2458270.1461   5  12  30.0000  30.0000  30.0000   0.0000   0.0000   0.0000   8.00    0.0
2019/02/11 09:13:24.000   4280228.7410  -4034421.8406  -2458270.3035   5  12  30.0000  30.0000  30.0000   0.0000   0.0000   0.0000   9.00    0.0
2019/02/11 09:13:25.000   4280228.9421  -4034421.9575  -2458270.3446   5  12  30.0000  30.0000  30.0000   0.0000   0.0000   0.0000  10.00    0.0
2019/02/11 09:13:26.000   4280229.2189  -4034422.3468  -2458270.2950   5  12  30.0000  30.0000  30.0000   0.0000   0.0000   0.0000  11.00    0.0
2019/02/11 09:13:27.000   4280229.0727  -4034422.6483  -2458270.2471   5  12  30.0000  30.0000  30.0000   0.0000   0.0000   0.0000  12.00    0.0
2019/02/11 09:13:28.000   4280228.6366  -4034422.7963  -2458270.2658   5  12  30.0000  30.0000  30.0000   0.0000   0.0000   0.0000  13.00    0.0
2019/02/11 09:13:29.000   4280228.2928  -4034422.7870  -2458270.3842   5  12  30.0000  30.0000  30.0000   0.0000   0.0000   0.0000  14.00    0.0
2019/02/11 09:13:30.000   4280228.2578  -4034422.8812  -2458270.3811   5  12  30.0000  30.0000  30.0000   0.0000   0.0000   0.0000  -0.00    0.0
2019/02/11 09:13:31.000   4280228.1637  -4034422.9339  -2458270.2622   5  12  30.0000  30.0000  30.0000   0.0000   0.0000   0.0000   1.00    0.0
2019/02/11 09:13:32.000   4280228.2358  -4034423.1997  -2458270.0559   5  12  30.0000  30.0000  30.0000   0.0000   0.0000   0.0000   2.00    0.0
2019/02/11 09:13:33.000   4280228.2133  -4034423.4036  -2458269.6763   5  12  30.0000  30.0000  30.0000   0.0000   0.0000   0.0000   3.00    0.0
2019/02/11 09:13:34.000   4280228.0473  -4034423.0971  -2458269.1404   5  12  30.0000  30.0000  30.0000   0.0000   0.0000   0.0000   4.00    0.0
2019/02/11 09:13:35.000   4280227.7087  -4034422.4266  -2458268.6282   5  12  30.0000  30.0000  30.0000   0.0000   0.0000   0.0000   5.00    0.0
2019/02/11 09:13:36.000   4280227.7659  -4034422.2773  -2458268.5065   5  12  30.0000  30.0000  30.0000   0.0000   0.0000   0.0000   6.00    0.0
2019/02/11 09:13:37.000   4280228.1070  -4034422.4763  -2458268.7567   5  12  30.0000  30.0000  30.0000   0.0000   0.0000   0.0000   7.00    0.0
2019/02/11 09:13:38.000   4280228.0934  -4034422.4246  -2458268.8014   5  12  30.0000  30.0000  30.0000   0.0000   0.0000   0.0000   8.00    0.0
2019/02/11 09:13:39.000   4280227.8803  -4034421.9177  -2458268.6908   5  12  30.0000  30.0000  30.0000   0.0000   0.0000   0.0000   9.00    0.0
2019/02/11 09:13:40.000   4280227.6669  -4034421.3797  -2458268.5293   5  12  30.0000  30.0000  30.0000   0.0000   0.0000   0.0000  10.00    0.0
2019/02/11 09:13:41.000   4280227.4612  -4034420.9399  -2458268.6100   5  12  30.0000  30.0000  30.0000   0.0000   0.0000   0.0000  11.00    0.0
2019/02/11 09:13:42.000   4280227.1824  -4034420.4068  -2458268.6463   5  12  30.0000  30.0000  30.0000   0.0000   0.0000   0.0000  12.00    0.0
2019/02/11 09:13:43.000   4280227.0113  -4034420.0992  -2458268.6180   5  12  30.0000  30.0000  30.0000   0.0000   0.0000   0.0000  13.00    0.0
2019/02/11 09:13:44.000   4280227.0042  -4034420.3499  -2458268.6170   5  12  30.0000  30.0000  30.0000   0.0000   0.0000   0.0000  14.00    0.0
2019/02/11 09:13:45.000   4280227.0467  -4034420.4049  -2458268.2549   5  12  30.0000  30.0000  30.0000   0.0000   0.0000   0.0000  -0.00    0.0
2019/02/11 09:13:46.000   4280226.8210  -4034420.0473  -2458267.6827   5  12  30.0000  30.0000  30.0000   0.0000   0.0000   0.0000   1.00    0.0
2019/02/11 09:13:47.000   4280226.6158  -4034419.5284  -2458267.0015   5  12  30.0000  30.0000  30.0000   0.0000   0.0000   0.0000   2.00    0.0
2019/02/11 09:13:48.000   4280226.6154  -4034419.3149  -2458266.5103   5  12  30.0000  30.0000  30.0000   0.0000   0.0000   0.0000   3.00    0.0
2019/02/11 09:13:49.000   4280226.6727  -4034419.1851  -2458266.1770   5  12  30.0000  30.0000  30.0000   0.0000   0.0000   0.0000   4.00    0.0
2019/02/11 09:13:50.000   4280226.4966  -4034418.6715  -2458265.7604   5  12  30.0000  30.0000  30.0000   0.0000   0.0000   0.0000   5.00    0.0
2019/02/11 09:13:51.000   4280226.4023  -4034418.5494  -2458265.6332   5  12  30.0000  30.0000  30.0000   0.0000   0.0000   0.0000   6.00    0.0
2019/02/11 09:13:52.000   4280226.4949  -4034418.6954  -2458265.6832   5  12  30.0000  30.0000  30.0000   0.0000   0.0000   0.0000   7.00    0.0
2019/02/11 09:13:53.000   4280226.5127  -4034418.7069  -2458265.6519   5  12  30.0000  30.0000  30.0000   0.0000   0.0000   0.0000   8.00    0.0
2019/02/11 09:13:54.000   4280226.5533  -4034418.7915  -2458265.6736   5  12  30.0000  30.0000  30.0000   0.0000   0.0000   0.0000   9.00    0.0
2019/02/11 09:13:55.000   4280226.5280  -4034418.6418  -2458265.5030   5  12  30.0000  30.0000  30.0000   0.0000   0.0000   0.0000  10.00    0.0
2019/02/11 09:13:56.000   4280226.4445  -4034418.5734  -2458265.4469   5  12  30.0000  30.0000  30.0000   0.0000   0.0000   0.0000  11.00    0.0
2019/02/11 09:13:57.000   4280226.4270  -4034418.6018  -2458265.5575   5  12  30.0000  30.0000  30.0000   0.0000   0.0000   0.0000  12.00    0.0
2019/02/11 09:13:58.000   4280226.5058  -4034418.8196  -2458265.8347   5  12  30.0000  30.0000  30.0000   0.0000   0.0000   0.0000  13.00    0.0
2019/02/11 09:13:59.000   4280226.5538  -4034418.7480  -2458265.8446   5  12  30.0000  30.0000  30.0000   0.0000   0.0000   0.0000  14.00    0.0
2019/02/11 09:14:00.000   4280226.5206  -4034418.5859  -2458265.6274   5  12  30.0000  30.0000  30.0000   0.0000   0.0000   0.0000  -0.00    0.0
2019/02/11 09:14:01.000   4280226.4160  -4034418.0322  -2458265.3317   5  12  30.0000  30.0000  30.0000   0.0000   0.0000   0.0000   1.00    0.0
2019/02/11 09:14:02.000   4280226.2307  -4034417.4812  -2458265.0077   5  12  30.0000  30.0000  30.0000   0.0000   0.0000   0.0000   2.00    0.0
2019/02/11 09:14:03.000   4280226.0531  -4034417.2365  -2458264.8947   5  12  30.0000  30.0000  30.0000   0.0000   0.0000   0.0000   3.00    0.0
2019/02/11 09:14:04.000   4280225.6324  -4034416.8263  -2458264.4985   5  12  30.0000  30.0000  30.0000   0.0000   0.0000   0.0000   4.00    0.0
2019/02/11 09:14:05.000   4280225.6503  -4034416.9227  -2458264.3762   5  12  30.0000  30.0000  30.0000   0.0000   0.0000   0.0000   5.00    0.0
2019/02/11 09:14:06.000   4280225.8179  -4034417.0379  -2458264.3736   5  12  30.0000  30.0000  30.0000   0.0000   0.0000   0.0000   6.00    0.0
2019/02/11 09:14:07.000   4280226.0860  -4034417.1184  -2458264.3264   5  12  30.0000  30.0000  30.0000   0.0000   0.0000   0.0000   7.00    0.0
2019/02/11 09:14:08.000   4280226.2941  -4034417.0750  -2458264.2434   5  12  30.0000  30.0000  30.0000   0.0000   0.0000   0.0000   8.00    0.0
2019/02/11 09:14:09.000   4280226.4718  -4034417.1423  -2458264.4931   5  12  30.0000  30.0000  30.0000   0.0000   0.0000   0.0000   9.00    0.0
2019/02/11 09:14:10.000   4280226.2753  -4034417.1407  -2458264.6037   5  12  30.0000  30.0000  30.0000   0.0000   0.0000   0.0000  10.00    0.0
2019/02/11 09:14:11.000   4280225.8967  -4034417.3882  -2458264.6278   5  12  30.0000  30.0000  30.0000   0.0000   0.0000   0.0000  11.00    0.0
2019/02/11 09:14:12.000   4280225.4163  -4034417.2179  -2458264.4556   5  12  30.0000  30.0000  30.0000   0.0000   0.0000   0.0000  12.00    0.0
2019/02/11 09:14:13.000   4280225.0397  -4034416.8026  -2458264.3272   5  12  30.0000  30.0000  30.0000   0.0000   0.0000   0.0000  13.00    0.0
