% program   : RTKPOST ver.2.4.2
% inp file  : D:\Google Drive\UERJ\_Projeto Final\Python\tcc-guilherme\20190212_Sta91500_Smoothed.19o
% inp file  : D:\Google Drive\UERJ\_Projeto Final\20190212_Marco91500 IBGE\riod0431.19o
% inp file  : D:\Google Drive\UERJ\_Projeto Final\20190212_Marco91500 IBGE\brdm0430.19p
% obs start : 2019/02/12 08:38:50.0 GPST (week2040 203930.0s)
% obs end   : 2019/02/12 10:17:44.0 GPST (week2040 209864.0s)
% pos mode  : static
% freqs     : L1
% solution  : forward
% elev mask : 15.0 deg
% dynamics  : off
% tidecorr  : off
% ionos opt : iono-free
% tropo opt : saastamoinen
% ephemeris : broadcast
% navi sys  : gps glonass galileo
% amb res   : fix and hold
% amb glo   : on
% val thres : 3.0
% antenna1  :                       ( 0.0000  0.0000  0.0000)
% antenna2  :                       ( 0.0000  0.0000  0.0080)
% ref pos   :  4280294.8840  -4034431.2298  -2458141.3831
%
% (x/y/z-ecef=WGS84,Q=1:fix,2:float,3:sbas,4:dgps,5:single,6:ppp,ns=# of satellites)
%  GPST                      x-ecef(m)      y-ecef(m)      z-ecef(m)   Q  ns   sdx(m)   sdy(m)   sdz(m)  sdxy(m)  sdyz(m)  sdzx(m) age(s)  ratio
2019/02/12 09:13:31.000   4280224.6509  -4034418.3607  -2458267.5539   5  11  30.0000  30.0000  30.0000   0.0000   0.0000   0.0000   1.00    0.0
2019/02/12 09:13:32.000   4280224.6509  -4034418.3607  -2458267.5539   5  11  30.0000  30.0000  30.0000   0.0000   0.0000   0.0000   2.00    0.0
2019/02/12 09:13:33.000   4280224.6509  -4034418.3607  -2458267.5539   5  11  30.0000  30.0000  30.0000   0.0000   0.0000   0.0000   3.00    0.0
2019/02/12 09:13:34.000   4280224.6509  -4034418.3607  -2458267.5539   5  11  30.0000  30.0000  30.0000   0.0000   0.0000   0.0000   4.00    0.0
2019/02/12 09:14:15.000   4280224.6509  -4034418.3607  -2458267.5539   5  12  30.0000  30.0000  30.0000   0.0000   0.0000   0.0000  -0.00    0.0
2019/02/12 09:18:12.000   4280224.6509  -4034418.3607  -2458267.5539   5  10  30.0000  30.0000  30.0000   0.0000   0.0000   0.0000  12.00    0.0
2019/02/12 09:18:13.000   4280224.6509  -4034418.3607  -2458267.5539   5  10  30.0000  30.0000  30.0000   0.0000   0.0000   0.0000  13.00    0.0
2019/02/12 09:18:14.000   4280224.6509  -4034418.3607  -2458267.5539   5  10  30.0000  30.0000  30.0000   0.0000   0.0000   0.0000  14.00    0.0
2019/02/12 09:18:15.000   4280224.6509  -4034418.3607  -2458267.5539   5  10  30.0000  30.0000  30.0000   0.0000   0.0000   0.0000  -0.00    0.0
2019/02/12 09:18:16.000   4280224.6509  -4034418.3607  -2458267.5539   5  10  30.0000  30.0000  30.0000   0.0000   0.0000   0.0000   1.00    0.0
2019/02/12 09:18:17.000   4280224.6509  -4034418.3607  -2458267.5539   5  10  30.0000  30.0000  30.0000   0.0000   0.0000   0.0000   2.00    0.0
2019/02/12 09:18:18.000   4280224.6509  -4034418.3607  -2458267.5539   5  10  30.0000  30.0000  30.0000   0.0000   0.0000   0.0000   3.00    0.0
2019/02/12 09:18:19.000   4280224.6509  -4034418.3607  -2458267.5539   5  10  30.0000  30.0000  30.0000   0.0000   0.0000   0.0000   4.00    0.0
2019/02/12 09:18:20.000   4280224.6509  -4034418.3607  -2458267.5539   5  10  30.0000  30.0000  30.0000   0.0000   0.0000   0.0000   5.00    0.0
2019/02/12 09:18:21.000   4280224.6509  -4034418.3607  -2458267.5539   5  10  30.0000  30.0000  30.0000   0.0000   0.0000   0.0000   6.00    0.0
2019/02/12 09:18:22.000   4280224.6509  -4034418.3607  -2458267.5539   5  10  30.0000  30.0000  30.0000   0.0000   0.0000   0.0000   7.00    0.0
2019/02/12 09:18:24.000   4280224.6509  -4034418.3607  -2458267.5539   5  11  30.0000  30.0000  30.0000   0.0000   0.0000   0.0000   9.00    0.0
2019/02/12 09:18:25.000   4280224.6509  -4034418.3607  -2458267.5539   5  11  30.0000  30.0000  30.0000   0.0000   0.0000   0.0000  10.00    0.0
2019/02/12 09:19:55.000   4280224.6509  -4034418.3607  -2458267.5539   5  11  30.0000  30.0000  30.0000   0.0000   0.0000   0.0000  10.00    0.0
2019/02/12 09:19:56.000   4280224.6509  -4034418.3607  -2458267.5539   5  11  30.0000  30.0000  30.0000   0.0000   0.0000   0.0000  11.00    0.0
2019/02/12 09:19:57.000   4280224.6509  -4034418.3607  -2458267.5539   5  11  30.0000  30.0000  30.0000   0.0000   0.0000   0.0000  12.00    0.0
2019/02/12 09:19:58.000   4280224.6509  -4034418.3607  -2458267.5539   5  11  30.0000  30.0000  30.0000   0.0000   0.0000   0.0000  13.00    0.0
2019/02/12 09:19:59.000   4280224.6509  -4034418.3607  -2458267.5539   5  11  30.0000  30.0000  30.0000   0.0000   0.0000   0.0000  14.00    0.0
2019/02/12 09:20:00.000   4280224.6509  -4034418.3607  -2458267.5539   5  11  30.0000  30.0000  30.0000   0.0000   0.0000   0.0000  -0.00    0.0
2019/02/12 09:20:01.000   4280224.6509  -4034418.3607  -2458267.5539   5  11  30.0000  30.0000  30.0000   0.0000   0.0000   0.0000   1.00    0.0
2019/02/12 09:20:02.000   4280224.6509  -4034418.3607  -2458267.5539   5  11  30.0000  30.0000  30.0000   0.0000   0.0000   0.0000   2.00    0.0
2019/02/12 09:20:03.000   4280224.6509  -4034418.3607  -2458267.5539   5  11  30.0000  30.0000  30.0000   0.0000   0.0000   0.0000   3.00    0.0
2019/02/12 09:20:04.000   4280224.6509  -4034418.3607  -2458267.5539   5  11  30.0000  30.0000  30.0000   0.0000   0.0000   0.0000   4.00    0.0
2019/02/12 09:20:05.000   4280224.6509  -4034418.3607  -2458267.5539   5  11  30.0000  30.0000  30.0000   0.0000   0.0000   0.0000   5.00    0.0
2019/02/12 09:20:06.000   4280224.6509  -4034418.3607  -2458267.5539   5  11  30.0000  30.0000  30.0000   0.0000   0.0000   0.0000   6.00    0.0
2019/02/12 09:20:07.000   4280224.6509  -4034418.3607  -2458267.5539   5  11  30.0000  30.0000  30.0000   0.0000   0.0000   0.0000   7.00    0.0
2019/02/12 09:20:08.000   4280224.6509  -4034418.3607  -2458267.5539   5  11  30.0000  30.0000  30.0000   0.0000   0.0000   0.0000   8.00    0.0
2019/02/12 09:20:11.000   4280224.6509  -4034418.3607  -2458267.5539   5  11  30.0000  30.0000  30.0000   0.0000   0.0000   0.0000  11.00    0.0
2019/02/12 09:20:12.000   4280224.6509  -4034418.3607  -2458267.5539   5  11  30.0000  30.0000  30.0000   0.0000   0.0000   0.0000  12.00    0.0
2019/02/12 09:20:13.000   4280224.6509  -4034418.3607  -2458267.5539   5  11  30.0000  30.0000  30.0000   0.0000   0.0000   0.0000  13.00    0.0
2019/02/12 09:20:14.000   4280224.6509  -4034418.3607  -2458267.5539   5  11  30.0000  30.0000  30.0000   0.0000   0.0000   0.0000  14.00    0.0
2019/02/12 09:20:15.000   4280224.6509  -4034418.3607  -2458267.5539   5  11  30.0000  30.0000  30.0000   0.0000   0.0000   0.0000  -0.00    0.0
2019/02/12 09:20:24.000   4280224.6509  -4034418.3607  -2458267.5539   5  11  30.0000  30.0000  30.0000   0.0000   0.0000   0.0000   9.00    0.0
2019/02/12 09:20:25.000   4280224.6509  -4034418.3607  -2458267.5539   5  11  30.0000  30.0000  30.0000   0.0000   0.0000   0.0000  10.00    0.0
2019/02/12 09:20:26.000   4280224.6509  -4034418.3607  -2458267.5539   5  11  30.0000  30.0000  30.0000   0.0000   0.0000   0.0000  11.00    0.0
2019/02/12 09:20:43.000   4280224.6509  -4034418.3607  -2458267.5539   5  10  30.0000  30.0000  30.0000   0.0000   0.0000   0.0000  13.00    0.0
2019/02/12 09:20:44.000   4280224.6509  -4034418.3607  -2458267.5539   5  10  30.0000  30.0000  30.0000   0.0000   0.0000   0.0000  14.00    0.0
2019/02/12 09:20:45.000   4280224.6509  -4034418.3607  -2458267.5539   5  10  30.0000  30.0000  30.0000   0.0000   0.0000   0.0000  -0.00    0.0
2019/02/12 09:20:46.000   4280224.6509  -4034418.3607  -2458267.5539   5  10  30.0000  30.0000  30.0000   0.0000   0.0000   0.0000   1.00    0.0
2019/02/12 09:20:47.000   4280224.6509  -4034418.3607  -2458267.5539   5  10  30.0000  30.0000  30.0000   0.0000   0.0000   0.0000   2.00    0.0
2019/02/12 09:20:48.000   4280224.6509  -4034418.3607  -2458267.5539   5  10  30.0000  30.0000  30.0000   0.0000   0.0000   0.0000   3.00    0.0
2019/02/12 09:20:49.000   4280224.6509  -4034418.3607  -2458267.5539   5  10  30.0000  30.0000  30.0000   0.0000   0.0000   0.0000   4.00    0.0
2019/02/12 09:20:50.000   4280224.6509  -4034418.3607  -2458267.5539   5  11  30.0000  30.0000  30.0000   0.0000   0.0000   0.0000   5.00    0.0
2019/02/12 09:21:13.000   4280224.6509  -4034418.3607  -2458267.5539   5  11  30.0000  30.0000  30.0000   0.0000   0.0000   0.0000  13.00    0.0
2019/02/12 09:21:14.000   4280224.6509  -4034418.3607  -2458267.5539   5  11  30.0000  30.0000  30.0000   0.0000   0.0000   0.0000  14.00    0.0
2019/02/12 09:21:15.000   4280224.6509  -4034418.3607  -2458267.5539   5  11  30.0000  30.0000  30.0000   0.0000   0.0000   0.0000  -0.00    0.0
2019/02/12 09:21:16.000   4280224.6509  -4034418.3607  -2458267.5539   5  11  30.0000  30.0000  30.0000   0.0000   0.0000   0.0000   1.00    0.0
2019/02/12 09:21:17.000   4280224.6509  -4034418.3607  -2458267.5539   5  11  30.0000  30.0000  30.0000   0.0000   0.0000   0.0000   2.00    0.0
2019/02/12 09:21:18.000   4280224.6509  -4034418.3607  -2458267.5539   5  11  30.0000  30.0000  30.0000   0.0000   0.0000   0.0000   3.00    0.0
2019/02/12 09:21:19.000   4280224.6509  -4034418.3607  -2458267.5539   5  11  30.0000  30.0000  30.0000   0.0000   0.0000   0.0000   4.00    0.0
2019/02/12 09:21:20.000   4280224.6509  -4034418.3607  -2458267.5539   5  11  30.0000  30.0000  30.0000   0.0000   0.0000   0.0000   5.00    0.0
2019/02/12 09:21:21.000   4280224.6509  -4034418.3607  -2458267.5539   5  11  30.0000  30.0000  30.0000   0.0000   0.0000   0.0000   6.00    0.0
2019/02/12 09:21:22.000   4280224.6509  -4034418.3607  -2458267.5539   5  11  30.0000  30.0000  30.0000   0.0000   0.0000   0.0000   7.00    0.0
2019/02/12 09:21:23.000   4280224.6509  -4034418.3607  -2458267.5539   5  11  30.0000  30.0000  30.0000   0.0000   0.0000   0.0000   8.00    0.0
2019/02/12 09:21:42.000   4280224.6509  -4034418.3607  -2458267.5539   5  11  30.0000  30.0000  30.0000   0.0000   0.0000   0.0000  12.00    0.0
2019/02/12 09:21:43.000   4280224.6509  -4034418.3607  -2458267.5539   5  11  30.0000  30.0000  30.0000   0.0000   0.0000   0.0000  13.00    0.0
2019/02/12 09:21:44.000   4280224.6509  -4034418.3607  -2458267.5539   5  11  30.0000  30.0000  30.0000   0.0000   0.0000   0.0000  14.00    0.0
2019/02/12 09:21:45.000   4280224.6509  -4034418.3607  -2458267.5539   5  11  30.0000  30.0000  30.0000   0.0000   0.0000   0.0000  -0.00    0.0
2019/02/12 09:21:46.000   4280224.6509  -4034418.3607  -2458267.5539   5  11  30.0000  30.0000  30.0000   0.0000   0.0000   0.0000   1.00    0.0
2019/02/12 09:21:47.000   4280224.6509  -4034418.3607  -2458267.5539   5  11  30.0000  30.0000  30.0000   0.0000   0.0000   0.0000   2.00    0.0
2019/02/12 09:21:48.000   4280224.6509  -4034418.3607  -2458267.5539   5  11  30.0000  30.0000  30.0000   0.0000   0.0000   0.0000   3.00    0.0
2019/02/12 09:21:49.000   4280224.6509  -4034418.3607  -2458267.5539   5  11  30.0000  30.0000  30.0000   0.0000   0.0000   0.0000   4.00    0.0
2019/02/12 09:21:50.000   4280224.6509  -4034418.3607  -2458267.5539   5  11  30.0000  30.0000  30.0000   0.0000   0.0000   0.0000   5.00    0.0
2019/02/12 09:21:51.000   4280224.6509  -4034418.3607  -2458267.5539   5  11  30.0000  30.0000  30.0000   0.0000   0.0000   0.0000   6.00    0.0
2019/02/12 09:21:52.000   4280224.6509  -4034418.3607  -2458267.5539   5  11  30.0000  30.0000  30.0000   0.0000   0.0000   0.0000   7.00    0.0
2019/02/12 09:22:21.000   4280224.6509  -4034418.3607  -2458267.5539   5  11  30.0000  30.0000  30.0000   0.0000   0.0000   0.0000   6.00    0.0
2019/02/12 09:22:22.000   4280224.6509  -4034418.3607  -2458267.5539   5  11  30.0000  30.0000  30.0000   0.0000   0.0000   0.0000   7.00    0.0
2019/02/12 09:22:23.000   4280224.6509  -4034418.3607  -2458267.5539   5  11  30.0000  30.0000  30.0000   0.0000   0.0000   0.0000   8.00    0.0
2019/02/12 09:22:24.000   4280224.6509  -4034418.3607  -2458267.5539   5  11  30.0000  30.0000  30.0000   0.0000   0.0000   0.0000   9.00    0.0
2019/02/12 09:22:25.000   4280224.6509  -4034418.3607  -2458267.5539   5  11  30.0000  30.0000  30.0000   0.0000   0.0000   0.0000  10.00    0.0
2019/02/12 09:22:26.000   4280224.6509  -4034418.3607  -2458267.5539   5  11  30.0000  30.0000  30.0000   0.0000   0.0000   0.0000  11.00    0.0
2019/02/12 09:22:27.000   4280224.6509  -4034418.3607  -2458267.5539   5  11  30.0000  30.0000  30.0000   0.0000   0.0000   0.0000  12.00    0.0
2019/02/12 09:22:28.000   4280224.6509  -4034418.3607  -2458267.5539   5  11  30.0000  30.0000  30.0000   0.0000   0.0000   0.0000  13.00    0.0
2019/02/12 09:22:29.000   4280224.6509  -4034418.3607  -2458267.5539   5  11  30.0000  30.0000  30.0000   0.0000   0.0000   0.0000  14.00    0.0
2019/02/12 09:22:30.000   4280224.6509  -4034418.3607  -2458267.5539   5  11  30.0000  30.0000  30.0000   0.0000   0.0000   0.0000  -0.00    0.0
2019/02/12 09:22:31.000   4280224.6509  -4034418.3607  -2458267.5539   5  11  30.0000  30.0000  30.0000   0.0000   0.0000   0.0000   1.00    0.0
2019/02/12 09:22:32.000   4280224.6509  -4034418.3607  -2458267.5539   5  11  30.0000  30.0000  30.0000   0.0000   0.0000   0.0000   2.00    0.0
2019/02/12 09:22:33.000   4280224.6509  -4034418.3607  -2458267.5539   5  11  30.0000  30.0000  30.0000   0.0000   0.0000   0.0000   3.00    0.0
2019/02/12 09:22:34.000   4280224.6509  -4034418.3607  -2458267.5539   5  11  30.0000  30.0000  30.0000   0.0000   0.0000   0.0000   4.00    0.0
2019/02/12 09:22:35.000   4280224.6509  -4034418.3607  -2458267.5539   5  11  30.0000  30.0000  30.0000   0.0000   0.0000   0.0000   5.00    0.0
2019/02/12 09:22:36.000   4280224.6509  -4034418.3607  -2458267.5539   5  11  30.0000  30.0000  30.0000   0.0000   0.0000   0.0000   6.00    0.0
2019/02/12 09:22:37.000   4280224.6509  -4034418.3607  -2458267.5539   5  11  30.0000  30.0000  30.0000   0.0000   0.0000   0.0000   7.00    0.0
2019/02/12 09:22:38.000   4280224.6509  -4034418.3607  -2458267.5539   5  11  30.0000  30.0000  30.0000   0.0000   0.0000   0.0000   8.00    0.0
2019/02/12 09:22:39.000   4280224.6509  -4034418.3607  -2458267.5539   5  11  30.0000  30.0000  30.0000   0.0000   0.0000   0.0000   9.00    0.0
2019/02/12 09:23:22.000   4280224.6509  -4034418.3607  -2458267.5539   5  11  30.0000  30.0000  30.0000   0.0000   0.0000   0.0000   7.00    0.0
2019/02/12 09:23:23.000   4280224.6509  -4034418.3607  -2458267.5539   5  11  30.0000  30.0000  30.0000   0.0000   0.0000   0.0000   8.00    0.0
2019/02/12 09:23:24.000   4280224.6509  -4034418.3607  -2458267.5539   5  11  30.0000  30.0000  30.0000   0.0000   0.0000   0.0000   9.00    0.0
2019/02/12 09:23:25.000   4280224.6509  -4034418.3607  -2458267.5539   5  11  30.0000  30.0000  30.0000   0.0000   0.0000   0.0000  10.00    0.0
2019/02/12 09:23:26.000   4280224.6509  -4034418.3607  -2458267.5539   5  11  30.0000  30.0000  30.0000   0.0000   0.0000   0.0000  11.00    0.0
2019/02/12 09:23:27.000   4280224.6509  -4034418.3607  -2458267.5539   5  11  30.0000  30.0000  30.0000   0.0000   0.0000   0.0000  12.00    0.0
2019/02/12 09:23:28.000   4280224.6509  -4034418.3607  -2458267.5539   5  11  30.0000  30.0000  30.0000   0.0000   0.0000   0.0000  13.00    0.0
2019/02/12 09:23:29.000   4280224.6509  -4034418.3607  -2458267.5539   5  11  30.0000  30.0000  30.0000   0.0000   0.0000   0.0000  14.00    0.0
2019/02/12 09:23:30.000   4280224.6509  -4034418.3607  -2458267.5539   5  11  30.0000  30.0000  30.0000   0.0000   0.0000   0.0000  -0.00    0.0
2019/02/12 09:23:31.000   4280224.6509  -4034418.3607  -2458267.5539   5  11  30.0000  30.0000  30.0000   0.0000   0.0000   0.0000   1.00    0.0
2019/02/12 09:23:32.000   4280224.6509  -4034418.3607  -2458267.5539   5  11  30.0000  30.0000  30.0000   0.0000   0.0000   0.0000   2.00    0.0
2019/02/12 09:23:33.000   4280224.6509  -4034418.3607  -2458267.5539   5  11  30.0000  30.0000  30.0000   0.0000   0.0000   0.0000   3.00    0.0
2019/02/12 09:23:34.000   4280224.6509  -4034418.3607  -2458267.5539   5  11  30.0000  30.0000  30.0000   0.0000   0.0000   0.0000   4.00    0.0
2019/02/12 09:23:35.000   4280224.6509  -4034418.3607  -2458267.5539   5  11  30.0000  30.0000  30.0000   0.0000   0.0000   0.0000   5.00    0.0
2019/02/12 09:23:36.000   4280224.6509  -4034418.3607  -2458267.5539   5  11  30.0000  30.0000  30.0000   0.0000   0.0000   0.0000   6.00    0.0
2019/02/12 09:23:37.000   4280224.6509  -4034418.3607  -2458267.5539   5  11  30.0000  30.0000  30.0000   0.0000   0.0000   0.0000   7.00    0.0
2019/02/12 09:23:38.000   4280224.6509  -4034418.3607  -2458267.5539   5  11  30.0000  30.0000  30.0000   0.0000   0.0000   0.0000   8.00    0.0
2019/02/12 09:23:39.000   4280224.6509  -4034418.3607  -2458267.5539   5  11  30.0000  30.0000  30.0000   0.0000   0.0000   0.0000   9.00    0.0
2019/02/12 09:23:40.000   4280224.6509  -4034418.3607  -2458267.5539   5  11  30.0000  30.0000  30.0000   0.0000   0.0000   0.0000  10.00    0.0
2019/02/12 09:23:41.000   4280224.6509  -4034418.3607  -2458267.5539   5  11  30.0000  30.0000  30.0000   0.0000   0.0000   0.0000  11.00    0.0
2019/02/12 09:23:42.000   4280224.6509  -4034418.3607  -2458267.5539   5  11  30.0000  30.0000  30.0000   0.0000   0.0000   0.0000  12.00    0.0
2019/02/12 09:23:43.000   4280224.6509  -4034418.3607  -2458267.5539   5  11  30.0000  30.0000  30.0000   0.0000   0.0000   0.0000  13.00    0.0
2019/02/12 09:23:52.000   4280224.6509  -4034418.3607  -2458267.5539   5  11  30.0000  30.0000  30.0000   0.0000   0.0000   0.0000   7.00    0.0
2019/02/12 09:23:57.000   4280224.6509  -4034418.3607  -2458267.5539   5  11  30.0000  30.0000  30.0000   0.0000   0.0000   0.0000  12.00    0.0
2019/02/12 09:23:58.000   4280224.6509  -4034418.3607  -2458267.5539   5  11  30.0000  30.0000  30.0000   0.0000   0.0000   0.0000  13.00    0.0
2019/02/12 09:23:59.000   4280224.6509  -4034418.3607  -2458267.5539   5  11  30.0000  30.0000  30.0000   0.0000   0.0000   0.0000  14.00    0.0
2019/02/12 09:24:00.000   4280224.6509  -4034418.3607  -2458267.5539   5  11  30.0000  30.0000  30.0000   0.0000   0.0000   0.0000  -0.00    0.0
2019/02/12 09:24:01.000   4280224.6509  -4034418.3607  -2458267.5539   5  11  30.0000  30.0000  30.0000   0.0000   0.0000   0.0000   1.00    0.0
2019/02/12 09:24:02.000   4280224.6509  -4034418.3607  -2458267.5539   5  11  30.0000  30.0000  30.0000   0.0000   0.0000   0.0000   2.00    0.0
2019/02/12 09:24:03.000   4280224.6509  -4034418.3607  -2458267.5539   5  11  30.0000  30.0000  30.0000   0.0000   0.0000   0.0000   3.00    0.0
2019/02/12 09:24:04.000   4280224.6509  -4034418.3607  -2458267.5539   5  11  30.0000  30.0000  30.0000   0.0000   0.0000   0.0000   4.00    0.0
2019/02/12 09:24:05.000   4280224.6509  -4034418.3607  -2458267.5539   5  11  30.0000  30.0000  30.0000   0.0000   0.0000   0.0000   5.00    0.0
2019/02/12 09:24:32.000   4280224.6509  -4034418.3607  -2458267.5539   5  11  30.0000  30.0000  30.0000   0.0000   0.0000   0.0000   2.00    0.0
2019/02/12 09:24:39.000   4280224.6509  -4034418.3607  -2458267.5539   5  11  30.0000  30.0000  30.0000   0.0000   0.0000   0.0000   9.00    0.0
2019/02/12 09:24:40.000   4280224.6509  -4034418.3607  -2458267.5539   5  11  30.0000  30.0000  30.0000   0.0000   0.0000   0.0000  10.00    0.0
2019/02/12 09:24:41.000   4280224.6509  -4034418.3607  -2458267.5539   5  11  30.0000  30.0000  30.0000   0.0000   0.0000   0.0000  11.00    0.0
2019/02/12 09:24:42.000   4280224.6509  -4034418.3607  -2458267.5539   5  11  30.0000  30.0000  30.0000   0.0000   0.0000   0.0000  12.00    0.0
2019/02/12 09:24:43.000   4280224.6509  -4034418.3607  -2458267.5539   5  11  30.0000  30.0000  30.0000   0.0000   0.0000   0.0000  13.00    0.0
2019/02/12 09:24:44.000   4280224.6509  -4034418.3607  -2458267.5539   5  11  30.0000  30.0000  30.0000   0.0000   0.0000   0.0000  14.00    0.0
2019/02/12 09:24:45.000   4280224.6509  -4034418.3607  -2458267.5539   5  11  30.0000  30.0000  30.0000   0.0000   0.0000   0.0000  -0.00    0.0
2019/02/12 09:24:46.000   4280224.6509  -4034418.3607  -2458267.5539   5  11  30.0000  30.0000  30.0000   0.0000   0.0000   0.0000   1.00    0.0
2019/02/12 09:24:47.000   4280224.6509  -4034418.3607  -2458267.5539   5  11  30.0000  30.0000  30.0000   0.0000   0.0000   0.0000   2.00    0.0
2019/02/12 09:24:48.000   4280224.6509  -4034418.3607  -2458267.5539   5  11  30.0000  30.0000  30.0000   0.0000   0.0000   0.0000   3.00    0.0
2019/02/12 09:25:11.000   4280224.6509  -4034418.3607  -2458267.5539   5  11  30.0000  30.0000  30.0000   0.0000   0.0000   0.0000  11.00    0.0
2019/02/12 09:25:40.000   4280224.6509  -4034418.3607  -2458267.5539   5  11  30.0000  30.0000  30.0000   0.0000   0.0000   0.0000  10.00    0.0
2019/02/12 09:25:41.000   4280224.6509  -4034418.3607  -2458267.5539   5  11  30.0000  30.0000  30.0000   0.0000   0.0000   0.0000  11.00    0.0
2019/02/12 09:25:42.000   4280224.6509  -4034418.3607  -2458267.5539   5  11  30.0000  30.0000  30.0000   0.0000   0.0000   0.0000  12.00    0.0
2019/02/12 09:25:43.000   4280224.6509  -4034418.3607  -2458267.5539   5  11  30.0000  30.0000  30.0000   0.0000   0.0000   0.0000  13.00    0.0
2019/02/12 09:25:44.000   4280224.6509  -4034418.3607  -2458267.5539   5  11  30.0000  30.0000  30.0000   0.0000   0.0000   0.0000  14.00    0.0
2019/02/12 09:25:45.000   4280224.6509  -4034418.3607  -2458267.5539   5  11  30.0000  30.0000  30.0000   0.0000   0.0000   0.0000  -0.00    0.0
2019/02/12 09:25:46.000   4280224.6509  -4034418.3607  -2458267.5539   5  11  30.0000  30.0000  30.0000   0.0000   0.0000   0.0000   1.00    0.0
2019/02/12 09:25:47.000   4280224.6509  -4034418.3607  -2458267.5539   5  11  30.0000  30.0000  30.0000   0.0000   0.0000   0.0000   2.00    0.0
2019/02/12 09:25:48.000   4280224.6509  -4034418.3607  -2458267.5539   5  11  30.0000  30.0000  30.0000   0.0000   0.0000   0.0000   3.00    0.0
2019/02/12 09:25:49.000   4280224.6509  -4034418.3607  -2458267.5539   5  11  30.0000  30.0000  30.0000   0.0000   0.0000   0.0000   4.00    0.0
2019/02/12 09:25:50.000   4280224.6509  -4034418.3607  -2458267.5539   5  11  30.0000  30.0000  30.0000   0.0000   0.0000   0.0000   5.00    0.0
2019/02/12 09:25:51.000   4280224.6509  -4034418.3607  -2458267.5539   5  11  30.0000  30.0000  30.0000   0.0000   0.0000   0.0000   6.00    0.0
2019/02/12 09:25:52.000   4280224.6509  -4034418.3607  -2458267.5539   5  11  30.0000  30.0000  30.0000   0.0000   0.0000   0.0000   7.00    0.0
2019/02/12 09:25:53.000   4280224.6509  -4034418.3607  -2458267.5539   5  11  30.0000  30.0000  30.0000   0.0000   0.0000   0.0000   8.00    0.0
2019/02/12 09:25:54.000   4280224.6509  -4034418.3607  -2458267.5539   5  11  30.0000  30.0000  30.0000   0.0000   0.0000   0.0000   9.00    0.0
2019/02/12 09:25:55.000   4280224.6509  -4034418.3607  -2458267.5539   5  11  30.0000  30.0000  30.0000   0.0000   0.0000   0.0000  10.00    0.0
2019/02/12 09:25:56.000   4280224.6509  -4034418.3607  -2458267.5539   5  11  30.0000  30.0000  30.0000   0.0000   0.0000   0.0000  11.00    0.0
2019/02/12 09:25:57.000   4280224.6509  -4034418.3607  -2458267.5539   5  11  30.0000  30.0000  30.0000   0.0000   0.0000   0.0000  12.00    0.0
2019/02/12 09:25:58.000   4280224.6509  -4034418.3607  -2458267.5539   5  11  30.0000  30.0000  30.0000   0.0000   0.0000   0.0000  13.00    0.0
2019/02/12 09:25:59.000   4280224.6509  -4034418.3607  -2458267.5539   5  11  30.0000  30.0000  30.0000   0.0000   0.0000   0.0000  14.00    0.0
2019/02/12 09:26:00.000   4280224.6509  -4034418.3607  -2458267.5539   5  11  30.0000  30.0000  30.0000   0.0000   0.0000   0.0000  -0.00    0.0
2019/02/12 09:26:01.000   4280224.6509  -4034418.3607  -2458267.5539   5  11  30.0000  30.0000  30.0000   0.0000   0.0000   0.0000   1.00    0.0
2019/02/12 09:26:02.000   4280224.6509  -4034418.3607  -2458267.5539   5  11  30.0000  30.0000  30.0000   0.0000   0.0000   0.0000   2.00    0.0
2019/02/12 09:26:03.000   4280224.6509  -4034418.3607  -2458267.5539   5  11  30.0000  30.0000  30.0000   0.0000   0.0000   0.0000   3.00    0.0
2019/02/12 09:26:04.000   4280224.6509  -4034418.3607  -2458267.5539   5  11  30.0000  30.0000  30.0000   0.0000   0.0000   0.0000   4.00    0.0
2019/02/12 09:26:05.000   4280224.6509  -4034418.3607  -2458267.5539   5  11  30.0000  30.0000  30.0000   0.0000   0.0000   0.0000   5.00    0.0
2019/02/12 09:26:06.000   4280224.6509  -4034418.3607  -2458267.5539   5  11  30.0000  30.0000  30.0000   0.0000   0.0000   0.0000   6.00    0.0
2019/02/12 09:26:07.000   4280224.6509  -4034418.3607  -2458267.5539   5  10  30.0000  30.0000  30.0000   0.0000   0.0000   0.0000   7.00    0.0
2019/02/12 09:26:08.000   4280224.6509  -4034418.3607  -2458267.5539   5  10  30.0000  30.0000  30.0000   0.0000   0.0000   0.0000   8.00    0.0
2019/02/12 09:26:09.000   4280224.6509  -4034418.3607  -2458267.5539   5  11  30.0000  30.0000  30.0000   0.0000   0.0000   0.0000   9.00    0.0
2019/02/12 09:26:10.000   4280224.6509  -4034418.3607  -2458267.5539   5  11  30.0000  30.0000  30.0000   0.0000   0.0000   0.0000  10.00    0.0
2019/02/12 09:26:11.000   4280224.6509  -4034418.3607  -2458267.5539   5  11  30.0000  30.0000  30.0000   0.0000   0.0000   0.0000  11.00    0.0
2019/02/12 09:26:26.000   4280224.6509  -4034418.3607  -2458267.5539   5  11  30.0000  30.0000  30.0000   0.0000   0.0000   0.0000  11.00    0.0
2019/02/12 09:26:27.000   4280224.6509  -4034418.3607  -2458267.5539   5  11  30.0000  30.0000  30.0000   0.0000   0.0000   0.0000  12.00    0.0
2019/02/12 09:26:28.000   4280224.6509  -4034418.3607  -2458267.5539   5  11  30.0000  30.0000  30.0000   0.0000   0.0000   0.0000  13.00    0.0
2019/02/12 09:26:31.000   4280224.6509  -4034418.3607  -2458267.5539   5  11  30.0000  30.0000  30.0000   0.0000   0.0000   0.0000   1.00    0.0
2019/02/12 09:26:32.000   4280224.6509  -4034418.3607  -2458267.5539   5  11  30.0000  30.0000  30.0000   0.0000   0.0000   0.0000   2.00    0.0
2019/02/12 09:26:33.000   4280224.6509  -4034418.3607  -2458267.5539   5  11  30.0000  30.0000  30.0000   0.0000   0.0000   0.0000   3.00    0.0
2019/02/12 09:26:34.000   4280224.6509  -4034418.3607  -2458267.5539   5  11  30.0000  30.0000  30.0000   0.0000   0.0000   0.0000   4.00    0.0
2019/02/12 09:26:35.000   4280224.6509  -4034418.3607  -2458267.5539   5  11  30.0000  30.0000  30.0000   0.0000   0.0000   0.0000   5.00    0.0
2019/02/12 09:26:36.000   4280224.6509  -4034418.3607  -2458267.5539   5  11  30.0000  30.0000  30.0000   0.0000   0.0000   0.0000   6.00    0.0
2019/02/12 09:26:37.000   4280224.6509  -4034418.3607  -2458267.5539   5  11  30.0000  30.0000  30.0000   0.0000   0.0000   0.0000   7.00    0.0
2019/02/12 09:26:38.000   4280224.6509  -4034418.3607  -2458267.5539   5  10  30.0000  30.0000  30.0000   0.0000   0.0000   0.0000   8.00    0.0
2019/02/12 09:26:39.000   4280224.6509  -4034418.3607  -2458267.5539   5  11  30.0000  30.0000  30.0000   0.0000   0.0000   0.0000   9.00    0.0
2019/02/12 09:26:40.000   4280224.6509  -4034418.3607  -2458267.5539   5  11  30.0000  30.0000  30.0000   0.0000   0.0000   0.0000  10.00    0.0
2019/02/12 09:26:41.000   4280224.6509  -4034418.3607  -2458267.5539   5  11  30.0000  30.0000  30.0000   0.0000   0.0000   0.0000  11.00    0.0
2019/02/12 09:26:42.000   4280224.6509  -4034418.3607  -2458267.5539   5  11  30.0000  30.0000  30.0000   0.0000   0.0000   0.0000  12.00    0.0
2019/02/12 09:26:43.000   4280224.6509  -4034418.3607  -2458267.5539   5  11  30.0000  30.0000  30.0000   0.0000   0.0000   0.0000  13.00    0.0
2019/02/12 09:26:44.000   4280224.6509  -4034418.3607  -2458267.5539   5  11  30.0000  30.0000  30.0000   0.0000   0.0000   0.0000  14.00    0.0
2019/02/12 09:26:45.000   4280224.6509  -4034418.3607  -2458267.5539   5  11  30.0000  30.0000  30.0000   0.0000   0.0000   0.0000  -0.00    0.0
2019/02/12 09:26:46.000   4280224.6509  -4034418.3607  -2458267.5539   5  11  30.0000  30.0000  30.0000   0.0000   0.0000   0.0000   1.00    0.0
2019/02/12 09:26:47.000   4280224.6509  -4034418.3607  -2458267.5539   5  11  30.0000  30.0000  30.0000   0.0000   0.0000   0.0000   2.00    0.0
2019/02/12 09:26:48.000   4280224.6509  -4034418.3607  -2458267.5539   5  10  30.0000  30.0000  30.0000   0.0000   0.0000   0.0000   3.00    0.0
2019/02/12 09:26:49.000   4280224.6509  -4034418.3607  -2458267.5539   5  11  30.0000  30.0000  30.0000   0.0000   0.0000   0.0000   4.00    0.0
2019/02/12 09:26:50.000   4280224.6509  -4034418.3607  -2458267.5539   5  11  30.0000  30.0000  30.0000   0.0000   0.0000   0.0000   5.00    0.0
2019/02/12 09:26:51.000   4280224.6509  -4034418.3607  -2458267.5539   5  11  30.0000  30.0000  30.0000   0.0000   0.0000   0.0000   6.00    0.0
2019/02/12 09:26:52.000   4280224.6509  -4034418.3607  -2458267.5539   5  11  30.0000  30.0000  30.0000   0.0000   0.0000   0.0000   7.00    0.0
2019/02/12 09:26:53.000   4280224.6509  -4034418.3607  -2458267.5539   5  11  30.0000  30.0000  30.0000   0.0000   0.0000   0.0000   8.00    0.0
2019/02/12 09:26:54.000   4280224.6509  -4034418.3607  -2458267.5539   5  11  30.0000  30.0000  30.0000   0.0000   0.0000   0.0000   9.00    0.0
2019/02/12 09:26:55.000   4280224.6509  -4034418.3607  -2458267.5539   5  11  30.0000  30.0000  30.0000   0.0000   0.0000   0.0000  10.00    0.0
2019/02/12 09:26:56.000   4280224.6509  -4034418.3607  -2458267.5539   5  11  30.0000  30.0000  30.0000   0.0000   0.0000   0.0000  11.00    0.0
2019/02/12 09:26:57.000   4280224.6509  -4034418.3607  -2458267.5539   5  11  30.0000  30.0000  30.0000   0.0000   0.0000   0.0000  12.00    0.0
2019/02/12 09:27:08.000   4280224.6509  -4034418.3607  -2458267.5539   5  11  30.0000  30.0000  30.0000   0.0000   0.0000   0.0000   8.00    0.0
2019/02/12 09:27:09.000   4280224.6509  -4034418.3607  -2458267.5539   5  11  30.0000  30.0000  30.0000   0.0000   0.0000   0.0000   9.00    0.0
2019/02/12 09:27:10.000   4280224.6509  -4034418.3607  -2458267.5539   5  11  30.0000  30.0000  30.0000   0.0000   0.0000   0.0000  10.00    0.0
2019/02/12 09:27:11.000   4280224.6509  -4034418.3607  -2458267.5539   5  11  30.0000  30.0000  30.0000   0.0000   0.0000   0.0000  11.00    0.0
2019/02/12 09:27:12.000   4280224.6509  -4034418.3607  -2458267.5539   5  11  30.0000  30.0000  30.0000   0.0000   0.0000   0.0000  12.00    0.0
2019/02/12 09:27:13.000   4280224.6509  -4034418.3607  -2458267.5539   5  11  30.0000  30.0000  30.0000   0.0000   0.0000   0.0000  13.00    0.0
2019/02/12 09:27:14.000   4280224.6509  -4034418.3607  -2458267.5539   5  11  30.0000  30.0000  30.0000   0.0000   0.0000   0.0000  14.00    0.0
2019/02/12 09:27:15.000   4280224.6509  -4034418.3607  -2458267.5539   5  11  30.0000  30.0000  30.0000   0.0000   0.0000   0.0000  -0.00    0.0
2019/02/12 09:27:16.000   4280224.6509  -4034418.3607  -2458267.5539   5  11  30.0000  30.0000  30.0000   0.0000   0.0000   0.0000   1.00    0.0
2019/02/12 09:27:17.000   4280224.6509  -4034418.3607  -2458267.5539   5  11  30.0000  30.0000  30.0000   0.0000   0.0000   0.0000   2.00    0.0
2019/02/12 09:27:18.000   4280224.6509  -4034418.3607  -2458267.5539   5  11  30.0000  30.0000  30.0000   0.0000   0.0000   0.0000   3.00    0.0
2019/02/12 09:27:19.000   4280224.6509  -4034418.3607  -2458267.5539   5  11  30.0000  30.0000  30.0000   0.0000   0.0000   0.0000   4.00    0.0
2019/02/12 09:27:20.000   4280224.6509  -4034418.3607  -2458267.5539   5  11  30.0000  30.0000  30.0000   0.0000   0.0000   0.0000   5.00    0.0
2019/02/12 09:27:21.000   4280224.6509  -4034418.3607  -2458267.5539   5  11  30.0000  30.0000  30.0000   0.0000   0.0000   0.0000   6.00    0.0
2019/02/12 09:27:22.000   4280224.6509  -4034418.3607  -2458267.5539   5  11  30.0000  30.0000  30.0000   0.0000   0.0000   0.0000   7.00    0.0
2019/02/12 09:27:23.000   4280224.6509  -4034418.3607  -2458267.5539   5  11  30.0000  30.0000  30.0000   0.0000   0.0000   0.0000   8.00    0.0
2019/02/12 09:27:24.000   4280224.6509  -4034418.3607  -2458267.5539   5  11  30.0000  30.0000  30.0000   0.0000   0.0000   0.0000   9.00    0.0
2019/02/12 09:27:25.000   4280224.6509  -4034418.3607  -2458267.5539   5  11  30.0000  30.0000  30.0000   0.0000   0.0000   0.0000  10.00    0.0
2019/02/12 09:27:26.000   4280224.6509  -4034418.3607  -2458267.5539   5  11  30.0000  30.0000  30.0000   0.0000   0.0000   0.0000  11.00    0.0
2019/02/12 09:27:27.000   4280224.6509  -4034418.3607  -2458267.5539   5  11  30.0000  30.0000  30.0000   0.0000   0.0000   0.0000  12.00    0.0
2019/02/12 09:27:28.000   4280224.6509  -4034418.3607  -2458267.5539   5  11  30.0000  30.0000  30.0000   0.0000   0.0000   0.0000  13.00    0.0
2019/02/12 09:27:29.000   4280224.6509  -4034418.3607  -2458267.5539   5  11  30.0000  30.0000  30.0000   0.0000   0.0000   0.0000  14.00    0.0
2019/02/12 09:27:30.000   4280224.6509  -4034418.3607  -2458267.5539   5  11  30.0000  30.0000  30.0000   0.0000   0.0000   0.0000  -0.00    0.0
2019/02/12 09:27:31.000   4280224.6509  -4034418.3607  -2458267.5539   5  11  30.0000  30.0000  30.0000   0.0000   0.0000   0.0000   1.00    0.0
2019/02/12 09:27:32.000   4280224.6509  -4034418.3607  -2458267.5539   5  11  30.0000  30.0000  30.0000   0.0000   0.0000   0.0000   2.00    0.0
2019/02/12 09:27:33.000   4280224.6509  -4034418.3607  -2458267.5539   5  11  30.0000  30.0000  30.0000   0.0000   0.0000   0.0000   3.00    0.0
2019/02/12 09:27:34.000   4280224.6509  -4034418.3607  -2458267.5539   5  11  30.0000  30.0000  30.0000   0.0000   0.0000   0.0000   4.00    0.0
2019/02/12 09:27:35.000   4280224.6509  -4034418.3607  -2458267.5539   5  11  30.0000  30.0000  30.0000   0.0000   0.0000   0.0000   5.00    0.0
2019/02/12 09:27:36.000   4280224.6509  -4034418.3607  -2458267.5539   5  11  30.0000  30.0000  30.0000   0.0000   0.0000   0.0000   6.00    0.0
2019/02/12 09:27:37.000   4280224.6509  -4034418.3607  -2458267.5539   5  11  30.0000  30.0000  30.0000   0.0000   0.0000   0.0000   7.00    0.0
2019/02/12 09:27:38.000   4280224.6509  -4034418.3607  -2458267.5539   5  11  30.0000  30.0000  30.0000   0.0000   0.0000   0.0000   8.00    0.0
2019/02/12 09:27:39.000   4280224.6509  -4034418.3607  -2458267.5539   5  11  30.0000  30.0000  30.0000   0.0000   0.0000   0.0000   9.00    0.0
2019/02/12 09:27:40.000   4280224.6509  -4034418.3607  -2458267.5539   5  11  30.0000  30.0000  30.0000   0.0000   0.0000   0.0000  10.00    0.0
2019/02/12 09:27:41.000   4280224.6509  -4034418.3607  -2458267.5539   5  10  30.0000  30.0000  30.0000   0.0000   0.0000   0.0000  11.00    0.0
2019/02/12 09:27:42.000   4280224.6509  -4034418.3607  -2458267.5539   5  11  30.0000  30.0000  30.0000   0.0000   0.0000   0.0000  12.00    0.0
2019/02/12 09:27:43.000   4280224.6509  -4034418.3607  -2458267.5539   5  11  30.0000  30.0000  30.0000   0.0000   0.0000   0.0000  13.00    0.0
2019/02/12 09:27:44.000   4280224.6509  -4034418.3607  -2458267.5539   5  11  30.0000  30.0000  30.0000   0.0000   0.0000   0.0000  14.00    0.0
2019/02/12 09:27:45.000   4280224.6509  -4034418.3607  -2458267.5539   5  10  30.0000  30.0000  30.0000   0.0000   0.0000   0.0000  -0.00    0.0
2019/02/12 09:27:46.000   4280224.6509  -4034418.3607  -2458267.5539   5  10  30.0000  30.0000  30.0000   0.0000   0.0000   0.0000   1.00    0.0
2019/02/12 09:27:47.000   4280224.6509  -4034418.3607  -2458267.5539   5  10  30.0000  30.0000  30.0000   0.0000   0.0000   0.0000   2.00    0.0
2019/02/12 09:27:48.000   4280224.6509  -4034418.3607  -2458267.5539   5  10  30.0000  30.0000  30.0000   0.0000   0.0000   0.0000   3.00    0.0
2019/02/12 09:27:49.000   4280224.6509  -4034418.3607  -2458267.5539   5  10  30.0000  30.0000  30.0000   0.0000   0.0000   0.0000   4.00    0.0
2019/02/12 09:27:50.000   4280224.6509  -4034418.3607  -2458267.5539   5  10  30.0000  30.0000  30.0000   0.0000   0.0000   0.0000   5.00    0.0
2019/02/12 09:27:51.000   4280224.6509  -4034418.3607  -2458267.5539   5  10  30.0000  30.0000  30.0000   0.0000   0.0000   0.0000   6.00    0.0
2019/02/12 09:27:52.000   4280224.6509  -4034418.3607  -2458267.5539   5  10  30.0000  30.0000  30.0000   0.0000   0.0000   0.0000   7.00    0.0
2019/02/12 09:27:53.000   4280224.6509  -4034418.3607  -2458267.5539   5  10  30.0000  30.0000  30.0000   0.0000   0.0000   0.0000   8.00    0.0
2019/02/12 09:27:54.000   4280224.6509  -4034418.3607  -2458267.5539   5  10  30.0000  30.0000  30.0000   0.0000   0.0000   0.0000   9.00    0.0
2019/02/12 09:27:55.000   4280224.6509  -4034418.3607  -2458267.5539   5  10  30.0000  30.0000  30.0000   0.0000   0.0000   0.0000  10.00    0.0
2019/02/12 09:27:56.000   4280224.6509  -4034418.3607  -2458267.5539   5  10  30.0000  30.0000  30.0000   0.0000   0.0000   0.0000  11.00    0.0
2019/02/12 09:27:57.000   4280224.6509  -4034418.3607  -2458267.5539   5  10  30.0000  30.0000  30.0000   0.0000   0.0000   0.0000  12.00    0.0
2019/02/12 09:27:58.000   4280224.6509  -4034418.3607  -2458267.5539   5  10  30.0000  30.0000  30.0000   0.0000   0.0000   0.0000  13.00    0.0
2019/02/12 09:27:59.000   4280224.6509  -4034418.3607  -2458267.5539   5  10  30.0000  30.0000  30.0000   0.0000   0.0000   0.0000  14.00    0.0
2019/02/12 09:28:00.000   4280224.6509  -4034418.3607  -2458267.5539   5  10  30.0000  30.0000  30.0000   0.0000   0.0000   0.0000  -0.00    0.0
2019/02/12 09:28:01.000   4280224.6509  -4034418.3607  -2458267.5539   5  10  30.0000  30.0000  30.0000   0.0000   0.0000   0.0000   1.00    0.0
2019/02/12 09:28:02.000   4280224.6509  -4034418.3607  -2458267.5539   5  10  30.0000  30.0000  30.0000   0.0000   0.0000   0.0000   2.00    0.0
2019/02/12 09:28:03.000   4280224.6509  -4034418.3607  -2458267.5539   5  10  30.0000  30.0000  30.0000   0.0000   0.0000   0.0000   3.00    0.0
2019/02/12 09:28:04.000   4280224.6509  -4034418.3607  -2458267.5539   5  10  30.0000  30.0000  30.0000   0.0000   0.0000   0.0000   4.00    0.0
2019/02/12 09:28:05.000   4280224.6509  -4034418.3607  -2458267.5539   5  10  30.0000  30.0000  30.0000   0.0000   0.0000   0.0000   5.00    0.0
2019/02/12 09:28:06.000   4280224.6509  -4034418.3607  -2458267.5539   5  10  30.0000  30.0000  30.0000   0.0000   0.0000   0.0000   6.00    0.0
2019/02/12 09:28:07.000   4280224.6509  -4034418.3607  -2458267.5539   5  10  30.0000  30.0000  30.0000   0.0000   0.0000   0.0000   7.00    0.0
2019/02/12 09:28:08.000   4280224.6509  -4034418.3607  -2458267.5539   5  10  30.0000  30.0000  30.0000   0.0000   0.0000   0.0000   8.00    0.0
2019/02/12 09:28:09.000   4280224.6509  -4034418.3607  -2458267.5539   5  10  30.0000  30.0000  30.0000   0.0000   0.0000   0.0000   9.00    0.0
2019/02/12 09:28:13.000   4280224.6509  -4034418.3607  -2458267.5539   5  10  30.0000  30.0000  30.0000   0.0000   0.0000   0.0000  13.00    0.0
2019/02/12 09:29:01.000   4280224.6509  -4034418.3607  -2458267.5539   5  10  30.0000  30.0000  30.0000   0.0000   0.0000   0.0000   1.00    0.0
2019/02/12 09:29:02.000   4280224.6509  -4034418.3607  -2458267.5539   5  10  30.0000  30.0000  30.0000   0.0000   0.0000   0.0000   2.00    0.0
2019/02/12 09:29:03.000   4280224.6509  -4034418.3607  -2458267.5539   5  10  30.0000  30.0000  30.0000   0.0000   0.0000   0.0000   3.00    0.0
2019/02/12 09:29:04.000   4280224.6509  -4034418.3607  -2458267.5539   5  10  30.0000  30.0000  30.0000   0.0000   0.0000   0.0000   4.00    0.0
2019/02/12 09:29:05.000   4280224.6509  -4034418.3607  -2458267.5539   5  10  30.0000  30.0000  30.0000   0.0000   0.0000   0.0000   5.00    0.0
2019/02/12 09:29:08.000   4280224.6509  -4034418.3607  -2458267.5539   5  10  30.0000  30.0000  30.0000   0.0000   0.0000   0.0000   8.00    0.0
2019/02/12 09:29:09.000   4280224.6509  -4034418.3607  -2458267.5539   5  10  30.0000  30.0000  30.0000   0.0000   0.0000   0.0000   9.00    0.0
2019/02/12 09:29:10.000   4280224.6509  -4034418.3607  -2458267.5539   5  10  30.0000  30.0000  30.0000   0.0000   0.0000   0.0000  10.00    0.0
2019/02/12 09:29:11.000   4280224.6509  -4034418.3607  -2458267.5539   5  10  30.0000  30.0000  30.0000   0.0000   0.0000   0.0000  11.00    0.0
2019/02/12 09:29:12.000   4280224.6509  -4034418.3607  -2458267.5539   5  10  30.0000  30.0000  30.0000   0.0000   0.0000   0.0000  12.00    0.0
2019/02/12 09:29:13.000   4280224.6509  -4034418.3607  -2458267.5539   5  10  30.0000  30.0000  30.0000   0.0000   0.0000   0.0000  13.00    0.0
2019/02/12 09:29:14.000   4280224.6509  -4034418.3607  -2458267.5539   5  10  30.0000  30.0000  30.0000   0.0000   0.0000   0.0000  14.00    0.0
2019/02/12 09:29:15.000   4280224.6509  -4034418.3607  -2458267.5539   5  10  30.0000  30.0000  30.0000   0.0000   0.0000   0.0000  -0.00    0.0
2019/02/12 09:29:16.000   4280224.6509  -4034418.3607  -2458267.5539   5  10  30.0000  30.0000  30.0000   0.0000   0.0000   0.0000   1.00    0.0
2019/02/12 09:29:17.000   4280224.6509  -4034418.3607  -2458267.5539   5  10  30.0000  30.0000  30.0000   0.0000   0.0000   0.0000   2.00    0.0
2019/02/12 09:29:27.000   4280224.6509  -4034418.3607  -2458267.5539   5  11  30.0000  30.0000  30.0000   0.0000   0.0000   0.0000  12.00    0.0
2019/02/12 09:29:28.000   4280224.6509  -4034418.3607  -2458267.5539   5  11  30.0000  30.0000  30.0000   0.0000   0.0000   0.0000  13.00    0.0
2019/02/12 09:29:29.000   4280224.6509  -4034418.3607  -2458267.5539   5  11  30.0000  30.0000  30.0000   0.0000   0.0000   0.0000  14.00    0.0
2019/02/12 09:29:30.000   4280224.6509  -4034418.3607  -2458267.5539   5  11  30.0000  30.0000  30.0000   0.0000   0.0000   0.0000  -0.00    0.0
2019/02/12 09:29:31.000   4280224.6509  -4034418.3607  -2458267.5539   5  11  30.0000  30.0000  30.0000   0.0000   0.0000   0.0000   1.00    0.0
2019/02/12 09:29:32.000   4280224.6509  -4034418.3607  -2458267.5539   5  11  30.0000  30.0000  30.0000   0.0000   0.0000   0.0000   2.00    0.0
2019/02/12 09:29:33.000   4280224.6509  -4034418.3607  -2458267.5539   5  11  30.0000  30.0000  30.0000   0.0000   0.0000   0.0000   3.00    0.0
2019/02/12 09:29:34.000   4280224.6509  -4034418.3607  -2458267.5539   5  11  30.0000  30.0000  30.0000   0.0000   0.0000   0.0000   4.00    0.0
2019/02/12 09:29:35.000   4280224.6509  -4034418.3607  -2458267.5539   5  11  30.0000  30.0000  30.0000   0.0000   0.0000   0.0000   5.00    0.0
2019/02/12 09:29:36.000   4280224.6509  -4034418.3607  -2458267.5539   5  11  30.0000  30.0000  30.0000   0.0000   0.0000   0.0000   6.00    0.0
2019/02/12 09:29:37.000   4280224.6509  -4034418.3607  -2458267.5539   5  11  30.0000  30.0000  30.0000   0.0000   0.0000   0.0000   7.00    0.0
2019/02/12 09:29:38.000   4280224.6509  -4034418.3607  -2458267.5539   5  11  30.0000  30.0000  30.0000   0.0000   0.0000   0.0000   8.00    0.0
2019/02/12 09:29:39.000   4280224.6509  -4034418.3607  -2458267.5539   5  11  30.0000  30.0000  30.0000   0.0000   0.0000   0.0000   9.00    0.0
2019/02/12 09:29:40.000   4280224.6509  -4034418.3607  -2458267.5539   5  11  30.0000  30.0000  30.0000   0.0000   0.0000   0.0000  10.00    0.0
2019/02/12 09:29:41.000   4280224.6509  -4034418.3607  -2458267.5539   5  11  30.0000  30.0000  30.0000   0.0000   0.0000   0.0000  11.00    0.0
2019/02/12 09:29:42.000   4280224.6509  -4034418.3607  -2458267.5539   5  11  30.0000  30.0000  30.0000   0.0000   0.0000   0.0000  12.00    0.0
2019/02/12 09:29:43.000   4280224.6509  -4034418.3607  -2458267.5539   5  11  30.0000  30.0000  30.0000   0.0000   0.0000   0.0000  13.00    0.0
2019/02/12 09:29:44.000   4280224.6509  -4034418.3607  -2458267.5539   5  11  30.0000  30.0000  30.0000   0.0000   0.0000   0.0000  14.00    0.0
2019/02/12 09:29:45.000   4280224.6509  -4034418.3607  -2458267.5539   5  11  30.0000  30.0000  30.0000   0.0000   0.0000   0.0000  -0.00    0.0
2019/02/12 09:29:46.000   4280224.6509  -4034418.3607  -2458267.5539   5  11  30.0000  30.0000  30.0000   0.0000   0.0000   0.0000   1.00    0.0
2019/02/12 09:29:47.000   4280224.6509  -4034418.3607  -2458267.5539   5  11  30.0000  30.0000  30.0000   0.0000   0.0000   0.0000   2.00    0.0
2019/02/12 09:29:48.000   4280224.6509  -4034418.3607  -2458267.5539   5  11  30.0000  30.0000  30.0000   0.0000   0.0000   0.0000   3.00    0.0
2019/02/12 09:29:49.000   4280224.6509  -4034418.3607  -2458267.5539   5  11  30.0000  30.0000  30.0000   0.0000   0.0000   0.0000   4.00    0.0
2019/02/12 09:29:50.000   4280224.6509  -4034418.3607  -2458267.5539   5  11  30.0000  30.0000  30.0000   0.0000   0.0000   0.0000   5.00    0.0
2019/02/12 09:29:51.000   4280224.6509  -4034418.3607  -2458267.5539   5  11  30.0000  30.0000  30.0000   0.0000   0.0000   0.0000   6.00    0.0
2019/02/12 09:29:52.000   4280224.6509  -4034418.3607  -2458267.5539   5  11  30.0000  30.0000  30.0000   0.0000   0.0000   0.0000   7.00    0.0
2019/02/12 09:29:53.000   4280224.6509  -4034418.3607  -2458267.5539   5  11  30.0000  30.0000  30.0000   0.0000   0.0000   0.0000   8.00    0.0
2019/02/12 09:29:54.000   4280224.6509  -4034418.3607  -2458267.5539   5  11  30.0000  30.0000  30.0000   0.0000   0.0000   0.0000   9.00    0.0
2019/02/12 09:29:55.000   4280224.6509  -4034418.3607  -2458267.5539   5  11  30.0000  30.0000  30.0000   0.0000   0.0000   0.0000  10.00    0.0
2019/02/12 09:29:56.000   4280224.6509  -4034418.3607  -2458267.5539   5  11  30.0000  30.0000  30.0000   0.0000   0.0000   0.0000  11.00    0.0
2019/02/12 09:29:57.000   4280224.6509  -4034418.3607  -2458267.5539   5  11  30.0000  30.0000  30.0000   0.0000   0.0000   0.0000  12.00    0.0
2019/02/12 09:29:58.000   4280224.6509  -4034418.3607  -2458267.5539   5  11  30.0000  30.0000  30.0000   0.0000   0.0000   0.0000  13.00    0.0
2019/02/12 09:29:59.000   4280224.6509  -4034418.3607  -2458267.5539   5  11  30.0000  30.0000  30.0000   0.0000   0.0000   0.0000  14.00    0.0
2019/02/12 09:30:00.000   4280224.6509  -4034418.3607  -2458267.5539   5  11  30.0000  30.0000  30.0000   0.0000   0.0000   0.0000  -0.00    0.0
2019/02/12 09:30:01.000   4280224.6509  -4034418.3607  -2458267.5539   5  11  30.0000  30.0000  30.0000   0.0000   0.0000   0.0000   1.00    0.0
2019/02/12 09:30:02.000   4280224.6509  -4034418.3607  -2458267.5539   5  11  30.0000  30.0000  30.0000   0.0000   0.0000   0.0000   2.00    0.0
2019/02/12 09:30:03.000   4280224.6509  -4034418.3607  -2458267.5539   5  11  30.0000  30.0000  30.0000   0.0000   0.0000   0.0000   3.00    0.0
2019/02/12 09:30:04.000   4280224.6509  -4034418.3607  -2458267.5539   5  10  30.0000  30.0000  30.0000   0.0000   0.0000   0.0000   4.00    0.0
2019/02/12 09:30:05.000   4280224.6509  -4034418.3607  -2458267.5539   5  10  30.0000  30.0000  30.0000   0.0000   0.0000   0.0000   5.00    0.0
2019/02/12 09:30:06.000   4280224.6509  -4034418.3607  -2458267.5539   5  10  30.0000  30.0000  30.0000   0.0000   0.0000   0.0000   6.00    0.0
2019/02/12 09:30:07.000   4280224.6509  -4034418.3607  -2458267.5539   5  10  30.0000  30.0000  30.0000   0.0000   0.0000   0.0000   7.00    0.0
2019/02/12 09:30:08.000   4280224.6509  -4034418.3607  -2458267.5539   5  10  30.0000  30.0000  30.0000   0.0000   0.0000   0.0000   8.00    0.0
2019/02/12 09:30:09.000   4280224.6509  -4034418.3607  -2458267.5539   5  10  30.0000  30.0000  30.0000   0.0000   0.0000   0.0000   9.00    0.0
2019/02/12 09:30:10.000   4280224.6509  -4034418.3607  -2458267.5539   5  10  30.0000  30.0000  30.0000   0.0000   0.0000   0.0000  10.00    0.0
2019/02/12 09:30:11.000   4280224.6509  -4034418.3607  -2458267.5539   5  10  30.0000  30.0000  30.0000   0.0000   0.0000   0.0000  11.00    0.0
2019/02/12 09:30:12.000   4280224.6509  -4034418.3607  -2458267.5539   5  10  30.0000  30.0000  30.0000   0.0000   0.0000   0.0000  12.00    0.0
2019/02/12 09:30:13.000   4280224.6509  -4034418.3607  -2458267.5539   5  10  30.0000  30.0000  30.0000   0.0000   0.0000   0.0000  13.00    0.0
2019/02/12 09:30:14.000   4280224.6509  -4034418.3607  -2458267.5539   5  10  30.0000  30.0000  30.0000   0.0000   0.0000   0.0000  14.00    0.0
2019/02/12 09:30:15.000   4280224.6509  -4034418.3607  -2458267.5539   5  10  30.0000  30.0000  30.0000   0.0000   0.0000   0.0000  -0.00    0.0
2019/02/12 09:30:16.000   4280224.6509  -4034418.3607  -2458267.5539   5  10  30.0000  30.0000  30.0000   0.0000   0.0000   0.0000   1.00    0.0
2019/02/12 09:30:17.000   4280224.6509  -4034418.3607  -2458267.5539   5  10  30.0000  30.0000  30.0000   0.0000   0.0000   0.0000   2.00    0.0
2019/02/12 09:30:18.000   4280224.6509  -4034418.3607  -2458267.5539   5  10  30.0000  30.0000  30.0000   0.0000   0.0000   0.0000   3.00    0.0
2019/02/12 09:30:19.000   4280224.6509  -4034418.3607  -2458267.5539   5  10  30.0000  30.0000  30.0000   0.0000   0.0000   0.0000   4.00    0.0
2019/02/12 09:30:20.000   4280224.6509  -4034418.3607  -2458267.5539   5  10  30.0000  30.0000  30.0000   0.0000   0.0000   0.0000   5.00    0.0
2019/02/12 09:30:21.000   4280224.6509  -4034418.3607  -2458267.5539   5  10  30.0000  30.0000  30.0000   0.0000   0.0000   0.0000   6.00    0.0
2019/02/12 09:30:22.000   4280224.6509  -4034418.3607  -2458267.5539   5  10  30.0000  30.0000  30.0000   0.0000   0.0000   0.0000   7.00    0.0
2019/02/12 09:30:23.000   4280224.6509  -4034418.3607  -2458267.5539   5  10  30.0000  30.0000  30.0000   0.0000   0.0000   0.0000   8.00    0.0
2019/02/12 09:30:24.000   4280224.6509  -4034418.3607  -2458267.5539   5  10  30.0000  30.0000  30.0000   0.0000   0.0000   0.0000   9.00    0.0
2019/02/12 09:30:25.000   4280224.6509  -4034418.3607  -2458267.5539   5  10  30.0000  30.0000  30.0000   0.0000   0.0000   0.0000  10.00    0.0
2019/02/12 09:30:26.000   4280224.6509  -4034418.3607  -2458267.5539   5  10  30.0000  30.0000  30.0000   0.0000   0.0000   0.0000  11.00    0.0
2019/02/12 09:30:27.000   4280224.6509  -4034418.3607  -2458267.5539   5  10  30.0000  30.0000  30.0000   0.0000   0.0000   0.0000  12.00    0.0
2019/02/12 09:30:28.000   4280224.6509  -4034418.3607  -2458267.5539   5  10  30.0000  30.0000  30.0000   0.0000   0.0000   0.0000  13.00    0.0
2019/02/12 09:30:29.000   4280224.6509  -4034418.3607  -2458267.5539   5  10  30.0000  30.0000  30.0000   0.0000   0.0000   0.0000  14.00    0.0
2019/02/12 09:30:30.000   4280224.6509  -4034418.3607  -2458267.5539   5  10  30.0000  30.0000  30.0000   0.0000   0.0000   0.0000  -0.00    0.0
2019/02/12 09:30:31.000   4280224.6509  -4034418.3607  -2458267.5539   5  10  30.0000  30.0000  30.0000   0.0000   0.0000   0.0000   1.00    0.0
2019/02/12 09:30:32.000   4280224.6509  -4034418.3607  -2458267.5539   5  10  30.0000  30.0000  30.0000   0.0000   0.0000   0.0000   2.00    0.0
2019/02/12 09:30:33.000   4280224.6509  -4034418.3607  -2458267.5539   5  10  30.0000  30.0000  30.0000   0.0000   0.0000   0.0000   3.00    0.0
2019/02/12 09:30:34.000   4280224.6509  -4034418.3607  -2458267.5539   5  10  30.0000  30.0000  30.0000   0.0000   0.0000   0.0000   4.00    0.0
2019/02/12 09:30:35.000   4280224.6509  -4034418.3607  -2458267.5539   5  10  30.0000  30.0000  30.0000   0.0000   0.0000   0.0000   5.00    0.0
2019/02/12 09:30:36.000   4280224.6509  -4034418.3607  -2458267.5539   5  10  30.0000  30.0000  30.0000   0.0000   0.0000   0.0000   6.00    0.0
2019/02/12 09:30:37.000   4280224.6509  -4034418.3607  -2458267.5539   5  10  30.0000  30.0000  30.0000   0.0000   0.0000   0.0000   7.00    0.0
2019/02/12 09:30:38.000   4280224.6509  -4034418.3607  -2458267.5539   5  10  30.0000  30.0000  30.0000   0.0000   0.0000   0.0000   8.00    0.0
2019/02/12 09:30:39.000   4280224.6509  -4034418.3607  -2458267.5539   5  10  30.0000  30.0000  30.0000   0.0000   0.0000   0.0000   9.00    0.0
2019/02/12 09:30:40.000   4280224.6509  -4034418.3607  -2458267.5539   5  10  30.0000  30.0000  30.0000   0.0000   0.0000   0.0000  10.00    0.0
2019/02/12 09:30:41.000   4280224.6509  -4034418.3607  -2458267.5539   5  10  30.0000  30.0000  30.0000   0.0000   0.0000   0.0000  11.00    0.0
2019/02/12 09:30:42.000   4280224.6509  -4034418.3607  -2458267.5539   5  10  30.0000  30.0000  30.0000   0.0000   0.0000   0.0000  12.00    0.0
2019/02/12 09:30:43.000   4280224.6509  -4034418.3607  -2458267.5539   5  10  30.0000  30.0000  30.0000   0.0000   0.0000   0.0000  13.00    0.0
2019/02/12 09:30:44.000   4280224.6509  -4034418.3607  -2458267.5539   5  10  30.0000  30.0000  30.0000   0.0000   0.0000   0.0000  14.00    0.0
2019/02/12 09:30:45.000   4280224.6509  -4034418.3607  -2458267.5539   5  10  30.0000  30.0000  30.0000   0.0000   0.0000   0.0000  -0.00    0.0
2019/02/12 09:30:46.000   4280224.6509  -4034418.3607  -2458267.5539   5  10  30.0000  30.0000  30.0000   0.0000   0.0000   0.0000   1.00    0.0
2019/02/12 09:30:47.000   4280224.6509  -4034418.3607  -2458267.5539   5  10  30.0000  30.0000  30.0000   0.0000   0.0000   0.0000   2.00    0.0
2019/02/12 09:30:48.000   4280224.6509  -4034418.3607  -2458267.5539   5  10  30.0000  30.0000  30.0000   0.0000   0.0000   0.0000   3.00    0.0
2019/02/12 09:30:49.000   4280224.6509  -4034418.3607  -2458267.5539   5  10  30.0000  30.0000  30.0000   0.0000   0.0000   0.0000   4.00    0.0
2019/02/12 09:30:50.000   4280224.6509  -4034418.3607  -2458267.5539   5  10  30.0000  30.0000  30.0000   0.0000   0.0000   0.0000   5.00    0.0
2019/02/12 09:30:51.000   4280224.6509  -4034418.3607  -2458267.5539   5  10  30.0000  30.0000  30.0000   0.0000   0.0000   0.0000   6.00    0.0
2019/02/12 09:30:52.000   4280224.6509  -4034418.3607  -2458267.5539   5  10  30.0000  30.0000  30.0000   0.0000   0.0000   0.0000   7.00    0.0
2019/02/12 09:30:53.000   4280224.6509  -4034418.3607  -2458267.5539   5  10  30.0000  30.0000  30.0000   0.0000   0.0000   0.0000   8.00    0.0
2019/02/12 09:30:54.000   4280224.6509  -4034418.3607  -2458267.5539   5  10  30.0000  30.0000  30.0000   0.0000   0.0000   0.0000   9.00    0.0
2019/02/12 09:30:55.000   4280224.6509  -4034418.3607  -2458267.5539   5  10  30.0000  30.0000  30.0000   0.0000   0.0000   0.0000  10.00    0.0
2019/02/12 09:30:56.000   4280224.6509  -4034418.3607  -2458267.5539   5  10  30.0000  30.0000  30.0000   0.0000   0.0000   0.0000  11.00    0.0
2019/02/12 09:30:57.000   4280224.6509  -4034418.3607  -2458267.5539   5  10  30.0000  30.0000  30.0000   0.0000   0.0000   0.0000  12.00    0.0
2019/02/12 09:30:58.000   4280224.6509  -4034418.3607  -2458267.5539   5  10  30.0000  30.0000  30.0000   0.0000   0.0000   0.0000  13.00    0.0
2019/02/12 09:30:59.000   4280224.6509  -4034418.3607  -2458267.5539   5  10  30.0000  30.0000  30.0000   0.0000   0.0000   0.0000  14.00    0.0
2019/02/12 09:31:00.000   4280224.6509  -4034418.3607  -2458267.5539   5  10  30.0000  30.0000  30.0000   0.0000   0.0000   0.0000  -0.00    0.0
2019/02/12 09:31:01.000   4280224.6509  -4034418.3607  -2458267.5539   5  10  30.0000  30.0000  30.0000   0.0000   0.0000   0.0000   1.00    0.0
2019/02/12 09:31:06.000   4280224.6509  -4034418.3607  -2458267.5539   5  10  30.0000  30.0000  30.0000   0.0000   0.0000   0.0000   6.00    0.0
2019/02/12 09:31:07.000   4280224.6509  -4034418.3607  -2458267.5539   5  10  30.0000  30.0000  30.0000   0.0000   0.0000   0.0000   7.00    0.0
2019/02/12 09:31:14.000   4280224.6509  -4034418.3607  -2458267.5539   5  10  30.0000  30.0000  30.0000   0.0000   0.0000   0.0000  14.00    0.0
2019/02/12 09:31:15.000   4280224.6509  -4034418.3607  -2458267.5539   5  10  30.0000  30.0000  30.0000   0.0000   0.0000   0.0000  -0.00    0.0
2019/02/12 09:31:16.000   4280224.6509  -4034418.3607  -2458267.5539   5  10  30.0000  30.0000  30.0000   0.0000   0.0000   0.0000   1.00    0.0
2019/02/12 09:31:17.000   4280224.6509  -4034418.3607  -2458267.5539   5  10  30.0000  30.0000  30.0000   0.0000   0.0000   0.0000   2.00    0.0
2019/02/12 09:31:18.000   4280224.6509  -4034418.3607  -2458267.5539   5  10  30.0000  30.0000  30.0000   0.0000   0.0000   0.0000   3.00    0.0
2019/02/12 09:31:19.000   4280224.6509  -4034418.3607  -2458267.5539   5  10  30.0000  30.0000  30.0000   0.0000   0.0000   0.0000   4.00    0.0
2019/02/12 09:31:20.000   4280224.6509  -4034418.3607  -2458267.5539   5  10  30.0000  30.0000  30.0000   0.0000   0.0000   0.0000   5.00    0.0
2019/02/12 09:31:21.000   4280224.6509  -4034418.3607  -2458267.5539   5  10  30.0000  30.0000  30.0000   0.0000   0.0000   0.0000   6.00    0.0
2019/02/12 09:31:22.000   4280224.6509  -4034418.3607  -2458267.5539   5  10  30.0000  30.0000  30.0000   0.0000   0.0000   0.0000   7.00    0.0
2019/02/12 09:31:23.000   4280224.6509  -4034418.3607  -2458267.5539   5  10  30.0000  30.0000  30.0000   0.0000   0.0000   0.0000   8.00    0.0
2019/02/12 09:31:24.000   4280224.6509  -4034418.3607  -2458267.5539   5  10  30.0000  30.0000  30.0000   0.0000   0.0000   0.0000   9.00    0.0
2019/02/12 09:31:25.000   4280224.6509  -4034418.3607  -2458267.5539   5  10  30.0000  30.0000  30.0000   0.0000   0.0000   0.0000  10.00    0.0
2019/02/12 09:31:26.000   4280224.6509  -4034418.3607  -2458267.5539   5  10  30.0000  30.0000  30.0000   0.0000   0.0000   0.0000  11.00    0.0
2019/02/12 09:31:27.000   4280224.6509  -4034418.3607  -2458267.5539   5  10  30.0000  30.0000  30.0000   0.0000   0.0000   0.0000  12.00    0.0
2019/02/12 09:31:28.000   4280224.6509  -4034418.3607  -2458267.5539   5  10  30.0000  30.0000  30.0000   0.0000   0.0000   0.0000  13.00    0.0
2019/02/12 09:31:29.000   4280224.6509  -4034418.3607  -2458267.5539   5  10  30.0000  30.0000  30.0000   0.0000   0.0000   0.0000  14.00    0.0
2019/02/12 09:31:30.000   4280224.6509  -4034418.3607  -2458267.5539   5  10  30.0000  30.0000  30.0000   0.0000   0.0000   0.0000  -0.00    0.0
2019/02/12 09:31:31.000   4280224.6509  -4034418.3607  -2458267.5539   5  10  30.0000  30.0000  30.0000   0.0000   0.0000   0.0000   1.00    0.0
2019/02/12 09:31:32.000   4280224.6509  -4034418.3607  -2458267.5539   5  10  30.0000  30.0000  30.0000   0.0000   0.0000   0.0000   2.00    0.0
2019/02/12 09:31:35.000   4280224.6509  -4034418.3607  -2458267.5539   5  10  30.0000  30.0000  30.0000   0.0000   0.0000   0.0000   5.00    0.0
2019/02/12 09:31:36.000   4280224.6509  -4034418.3607  -2458267.5539   5  10  30.0000  30.0000  30.0000   0.0000   0.0000   0.0000   6.00    0.0
2019/02/12 09:31:37.000   4280224.6509  -4034418.3607  -2458267.5539   5  10  30.0000  30.0000  30.0000   0.0000   0.0000   0.0000   7.00    0.0
2019/02/12 09:31:38.000   4280224.6509  -4034418.3607  -2458267.5539   5  10  30.0000  30.0000  30.0000   0.0000   0.0000   0.0000   8.00    0.0
2019/02/12 09:31:39.000   4280224.6509  -4034418.3607  -2458267.5539   5  10  30.0000  30.0000  30.0000   0.0000   0.0000   0.0000   9.00    0.0
2019/02/12 09:31:40.000   4280224.6509  -4034418.3607  -2458267.5539   5  10  30.0000  30.0000  30.0000   0.0000   0.0000   0.0000  10.00    0.0
2019/02/12 09:31:41.000   4280224.6509  -4034418.3607  -2458267.5539   5  10  30.0000  30.0000  30.0000   0.0000   0.0000   0.0000  11.00    0.0
2019/02/12 09:31:42.000   4280224.6509  -4034418.3607  -2458267.5539   5  10  30.0000  30.0000  30.0000   0.0000   0.0000   0.0000  12.00    0.0
2019/02/12 09:31:43.000   4280224.6509  -4034418.3607  -2458267.5539   5  10  30.0000  30.0000  30.0000   0.0000   0.0000   0.0000  13.00    0.0
2019/02/12 09:31:44.000   4280224.6509  -4034418.3607  -2458267.5539   5  10  30.0000  30.0000  30.0000   0.0000   0.0000   0.0000  14.00    0.0
2019/02/12 09:31:45.000   4280224.6509  -4034418.3607  -2458267.5539   5  10  30.0000  30.0000  30.0000   0.0000   0.0000   0.0000  -0.00    0.0
2019/02/12 09:31:46.000   4280224.6509  -4034418.3607  -2458267.5539   5  10  30.0000  30.0000  30.0000   0.0000   0.0000   0.0000   1.00    0.0
2019/02/12 09:31:47.000   4280224.6509  -4034418.3607  -2458267.5539   5  10  30.0000  30.0000  30.0000   0.0000   0.0000   0.0000   2.00    0.0
2019/02/12 09:31:52.000   4280224.6509  -4034418.3607  -2458267.5539   5  10  30.0000  30.0000  30.0000   0.0000   0.0000   0.0000   7.00    0.0
2019/02/12 09:31:53.000   4280224.6509  -4034418.3607  -2458267.5539   5  10  30.0000  30.0000  30.0000   0.0000   0.0000   0.0000   8.00    0.0
2019/02/12 09:31:54.000   4280224.6509  -4034418.3607  -2458267.5539   5  10  30.0000  30.0000  30.0000   0.0000   0.0000   0.0000   9.00    0.0
