% program   : RTKPOST ver.2.4.2
% inp file  : D:\Google Drive\UERJ\_Projeto Final\Python\tcc-guilherme\20190211_Sta91500_Smoothed.19o
% inp file  : D:\Google Drive\UERJ\_Projeto Final\20190211_Marco91500 IBGE\brdm0420.19p
% obs start : 2019/02/11 08:56:22.0 GPST (week2040 118582.0s)
% obs end   : 2019/02/11 10:26:05.0 GPST (week2040 123965.0s)
% pos mode  : single
% elev mask : 15.0 deg
% ionos opt : broadcast
% tropo opt : saastamoinen
% ephemeris : broadcast
% navi sys  : gps glonass
%
% (x/y/z-ecef=WGS84,Q=1:fix,2:float,3:sbas,4:dgps,5:single,6:ppp,ns=# of satellites)
%  GPST                      x-ecef(m)      y-ecef(m)      z-ecef(m)   Q  ns   sdx(m)   sdy(m)   sdz(m)  sdxy(m)  sdyz(m)  sdzx(m) age(s)  ratio
2019/02/11 08:56:50.000   4280222.3134  -4034419.8554  -2458261.7760   5  12   4.8094   6.1568   3.8099  -5.0232   4.4043  -3.7976   0.00    0.0
2019/02/11 08:56:57.000   4280221.7791  -4034417.4385  -2458260.4599   5  12   4.8091   6.1543   3.8089  -5.0215   4.4026  -3.7964   0.00    0.0
2019/02/11 08:59:58.000   4280212.8634  -4034411.2918  -2458262.4307   5  11   4.7901   6.1606   4.0402  -4.9874   4.5162  -3.8049   0.00    0.0
2019/02/11 08:59:59.000   4280212.7846  -4034410.8874  -2458262.3817   5  11   4.7898   6.1597   4.0395  -4.9867   4.5152  -3.8042   0.00    0.0
2019/02/11 09:00:00.000   4280213.2162  -4034411.5119  -2458262.9786   5  11   4.7894   6.1587   4.0387  -4.9859   4.5143  -3.8034   0.00    0.0
2019/02/11 09:06:09.000   4280219.4910  -4034414.7390  -2458261.6227   5  12   4.6195   5.7404   3.5385  -4.6904   4.0615  -3.5477   0.00    0.0
2019/02/11 09:06:10.000   4280219.6059  -4034414.6139  -2458261.5979   5  12   4.6189   5.7394   3.5380  -4.6895   4.0607  -3.5471   0.00    0.0
2019/02/11 09:06:13.000   4280219.6179  -4034414.7646  -2458262.2554   5  12   4.6172   5.7365   3.5367  -4.6868   4.0585  -3.5451   0.00    0.0
2019/02/11 09:06:14.000   4280219.6499  -4034414.9743  -2458262.2148   5  12   4.6166   5.7355   3.5363  -4.6859   4.0578  -3.5445   0.00    0.0
2019/02/11 09:06:15.000   4280220.2080  -4034415.4320  -2458262.5474   5  12   4.6160   5.7345   3.5358  -4.6850   4.0570  -3.5438   0.00    0.0
2019/02/11 09:06:18.000   4280220.8569  -4034415.2134  -2458262.2249   5  12   4.6142   5.7316   3.5345  -4.6824   4.0548  -3.5419   0.00    0.0
2019/02/11 09:06:19.000   4280220.7795  -4034414.8666  -2458262.0189   5  12   4.6137   5.7306   3.5340  -4.6815   4.0541  -3.5413   0.00    0.0
2019/02/11 09:06:20.000   4280220.3060  -4034414.0996  -2458261.5388   5  12   4.6131   5.7296   3.5336  -4.6806   4.0533  -3.5406   0.00    0.0
2019/02/11 09:06:21.000   4280220.2499  -4034413.8794  -2458261.4130   5  12   4.6125   5.7286   3.5331  -4.6797   4.0526  -3.5400   0.00    0.0
2019/02/11 09:06:22.000   4280220.4606  -4034413.8220  -2458261.4891   5  12   4.6119   5.7276   3.5327  -4.6788   4.0518  -3.5393   0.00    0.0
2019/02/11 09:06:23.000   4280220.7452  -4034413.6282  -2458261.5369   5  12   4.6113   5.7267   3.5322  -4.6779   4.0511  -3.5387   0.00    0.0
2019/02/11 09:06:24.000   4280221.2422  -4034413.5142  -2458261.5552   5  12   4.6107   5.7257   3.5318  -4.6770   4.0504  -3.5380   0.00    0.0
2019/02/11 09:06:25.000   4280221.4563  -4034413.2825  -2458261.2608   5  12   4.6101   5.7247   3.5313  -4.6761   4.0496  -3.5374   0.00    0.0
2019/02/11 09:06:26.000   4280221.4170  -4034413.0842  -2458260.8676   5  12   4.6095   5.7237   3.5309  -4.6752   4.0489  -3.5367   0.00    0.0
2019/02/11 09:06:27.000   4280221.2443  -4034413.0205  -2458260.4194   5  12   4.6089   5.7227   3.5304  -4.6743   4.0481  -3.5360   0.00    0.0
2019/02/11 09:06:28.000   4280221.4536  -4034413.2746  -2458260.3475   5  12   4.6083   5.7217   3.5300  -4.6734   4.0474  -3.5354   0.00    0.0
2019/02/11 09:06:29.000   4280222.1910  -4034413.9909  -2458260.9737   5  12   4.6077   5.7207   3.5295  -4.6725   4.0466  -3.5347   0.00    0.0
2019/02/11 09:06:30.000   4280222.8657  -4034414.7466  -2458261.7103   5  12   4.6071   5.7198   3.5290  -4.6716   4.0459  -3.5341   0.00    0.0
2019/02/11 09:06:31.000   4280223.9624  -4034415.6915  -2458262.5261   5  12   4.6065   5.7188   3.5286  -4.6707   4.0451  -3.5334   0.00    0.0
2019/02/11 09:06:32.000   4280224.6832  -4034416.5805  -2458263.3965   5  12   4.6059   5.7178   3.5281  -4.6698   4.0444  -3.5328   0.00    0.0
2019/02/11 09:06:33.000   4280224.4676  -4034416.6797  -2458263.5507   5  12   4.6053   5.7168   3.5277  -4.6689   4.0436  -3.5321   0.00    0.0
2019/02/11 09:06:34.000   4280223.9396  -4034416.6075  -2458263.4388   5  12   4.6047   5.7158   3.5272  -4.6680   4.0429  -3.5314   0.00    0.0
2019/02/11 09:06:35.000   4280223.4157  -4034416.3765  -2458263.2735   5  12   4.6041   5.7148   3.5268  -4.6671   4.0421  -3.5308   0.00    0.0
2019/02/11 09:06:36.000   4280222.9100  -4034415.9456  -2458262.9462   5  12   4.6035   5.7138   3.5263  -4.6662   4.0413  -3.5301   0.00    0.0
2019/02/11 09:06:37.000   4280222.9178  -4034416.0586  -2458263.0303   5  12   4.6029   5.7128   3.5258  -4.6653   4.0406  -3.5295   0.00    0.0
2019/02/11 09:06:38.000   4280223.1846  -4034416.2319  -2458263.1387   5  12   4.6023   5.7118   3.5254  -4.6644   4.0398  -3.5288   0.00    0.0
2019/02/11 09:06:39.000   4280223.3573  -4034416.3861  -2458263.3818   5  12   4.6017   5.7108   3.5249  -4.6635   4.0391  -3.5281   0.00    0.0
2019/02/11 09:06:40.000   4280223.5001  -4034416.4354  -2458263.4724   5  12   4.6011   5.7098   3.5245  -4.6626   4.0383  -3.5275   0.00    0.0
2019/02/11 09:06:41.000   4280223.8132  -4034416.7664  -2458263.6361   5  12   4.6005   5.7088   3.5240  -4.6617   4.0376  -3.5268   0.00    0.0
2019/02/11 09:06:42.000   4280223.4043  -4034416.6142  -2458262.6007   5  11   4.7062   5.7668   3.9371  -4.7477   4.2120  -3.7657   0.00    0.0
2019/02/11 09:06:43.000   4280223.5368  -4034416.9474  -2458262.7717   5  11   4.7058   5.7660   3.9372  -4.7471   4.2116  -3.7655   0.00    0.0
2019/02/11 09:06:44.000   4280223.7319  -4034417.2257  -2458263.1149   5  11   4.7055   5.7652   3.9372  -4.7464   4.2113  -3.7652   0.00    0.0
2019/02/11 09:06:45.000   4280224.0589  -4034417.7245  -2458263.6762   5  11   4.7051   5.7644   3.9372  -4.7457   4.2109  -3.7650   0.00    0.0
2019/02/11 09:06:46.000   4280224.3500  -4034418.0172  -2458264.2927   5  12   4.5975   5.7038   3.5217  -4.6571   4.0338  -3.5235   0.00    0.0
2019/02/11 09:06:47.000   4280223.4977  -4034417.5330  -2458263.1407   5  11   4.7043   5.7628   3.9372  -4.7444   4.2102  -3.7644   0.00    0.0
2019/02/11 09:06:48.000   4280223.1270  -4034417.3080  -2458262.8620   5  11   4.7040   5.7620   3.9372  -4.7438   4.2099  -3.7642   0.00    0.0
2019/02/11 09:06:49.000   4280222.9724  -4034417.0241  -2458262.9194   5  11   4.7036   5.7612   3.9372  -4.7431   4.2095  -3.7639   0.00    0.0
2019/02/11 09:06:50.000   4280222.6474  -4034416.5987  -2458262.6290   5  11   4.7032   5.7604   3.9372  -4.7424   4.2092  -3.7636   0.00    0.0
2019/02/11 09:06:51.000   4280223.1652  -4034416.7169  -2458263.6666   5  12   4.5945   5.6988   3.5194  -4.6526   4.0299  -3.5201   0.00    0.0
2019/02/11 09:06:52.000   4280222.4177  -4034415.8208  -2458262.1173   5  11   4.7024   5.7588   3.9372  -4.7411   4.2085  -3.7631   0.00    0.0
2019/02/11 09:06:53.000   4280222.8578  -4034416.0616  -2458263.2195   5  12   4.5932   5.6968   3.5184  -4.6507   4.0284  -3.5188   0.00    0.0
2019/02/11 09:06:54.000   4280222.6684  -4034416.0116  -2458263.1494   5  12   4.5926   5.6958   3.5180  -4.6498   4.0276  -3.5181   0.00    0.0
2019/02/11 09:06:55.000   4280222.5464  -4034416.1002  -2458263.1789   5  12   4.5920   5.6948   3.5175  -4.6489   4.0269  -3.5174   0.00    0.0
2019/02/11 09:06:56.000   4280221.4333  -4034415.3209  -2458261.5398   5  11   4.7009   5.7556   3.9373  -4.7384   4.2070  -3.7621   0.00    0.0
2019/02/11 09:06:57.000   4280221.1911  -4034415.1955  -2458261.7081   5  11   4.7005   5.7548   3.9373  -4.7378   4.2067  -3.7618   0.00    0.0
2019/02/11 09:06:58.000   4280221.5265  -4034415.8062  -2458262.5125   5  11   4.7002   5.7540   3.9373  -4.7371   4.2063  -3.7615   0.00    0.0
2019/02/11 09:06:59.000   4280221.9923  -4034416.1811  -2458263.0273   5  11   4.6998   5.7532   3.9373  -4.7364   4.2060  -3.7612   0.00    0.0
2019/02/11 09:07:00.000   4280222.5301  -4034416.5147  -2458263.4092   5  11   4.6994   5.7524   3.9373  -4.7357   4.2056  -3.7610   0.00    0.0
2019/02/11 09:07:01.000   4280222.4313  -4034416.0977  -2458263.2530   5  11   4.6990   5.7516   3.9373  -4.7351   4.2053  -3.7607   0.00    0.0
2019/02/11 09:07:02.000   4280222.3672  -4034415.7729  -2458263.0897   5  11   4.6986   5.7508   3.9373  -4.7344   4.2049  -3.7604   0.00    0.0
2019/02/11 09:07:03.000   4280222.3243  -4034415.8358  -2458263.1597   5  11   4.6982   5.7500   3.9373  -4.7337   4.2045  -3.7602   0.00    0.0
2019/02/11 09:07:04.000   4280222.3588  -4034415.9346  -2458263.1750   5  11   4.6979   5.7492   3.9373  -4.7331   4.2042  -3.7599   0.00    0.0
2019/02/11 09:07:05.000   4280222.3127  -4034416.1026  -2458263.0820   5  11   4.6975   5.7484   3.9373  -4.7324   4.2038  -3.7596   0.00    0.0
2019/02/11 09:07:06.000   4280222.6767  -4034416.4319  -2458263.2860   5  11   4.6971   5.7476   3.9373  -4.7317   4.2034  -3.7593   0.00    0.0
2019/02/11 09:07:07.000   4280223.1971  -4034417.1512  -2458264.0949   5  12   4.5846   5.6826   3.5119  -4.6378   4.0176  -3.5093   0.00    0.0
2019/02/11 09:07:08.000   4280223.0912  -4034417.2205  -2458263.8278   5  11   4.6963   5.7460   3.9373  -4.7303   4.2027  -3.7588   0.00    0.0
2019/02/11 09:07:09.000   4280223.1472  -4034417.1656  -2458263.9135   5  11   4.6959   5.7452   3.9373  -4.7297   4.2024  -3.7585   0.00    0.0
2019/02/11 09:07:10.000   4280222.8585  -4034416.5517  -2458263.7120   5  11   4.6955   5.7444   3.9373  -4.7290   4.2020  -3.7582   0.00    0.0
2019/02/11 09:07:11.000   4280222.5522  -4034415.7663  -2458263.4406   5  11   4.6951   5.7436   3.9372  -4.7283   4.2016  -3.7580   0.00    0.0
2019/02/11 09:07:12.000   4280222.3934  -4034415.3021  -2458263.4992   5  11   4.6948   5.7428   3.9372  -4.7276   4.2013  -3.7577   0.00    0.0
2019/02/11 09:07:13.000   4280222.2286  -4034414.8902  -2458263.5150   5  11   4.6944   5.7419   3.9372  -4.7270   4.2009  -3.7574   0.00    0.0
2019/02/11 09:07:32.000   4280223.9215  -4034417.2428  -2458266.2492   5  12   4.5690   5.6569   3.4999  -4.6143   3.9979  -3.4920   0.00    0.0
2019/02/11 09:07:43.000   4280222.6224  -4034416.0594  -2458264.5439   5  12   4.5620   5.6455   3.4945  -4.6038   3.9891  -3.4843   0.00    0.0
2019/02/11 09:07:44.000   4280222.7129  -4034415.9376  -2458264.4923   5  12   4.5614   5.6445   3.4940  -4.6029   3.9883  -3.4836   0.00    0.0
2019/02/11 09:07:45.000   4280222.8975  -4034415.9248  -2458264.4752   5  12   4.5608   5.6434   3.4935  -4.6019   3.9875  -3.4829   0.00    0.0
2019/02/11 09:07:46.000   4280222.9533  -4034415.8044  -2458264.3519   5  12   4.5601   5.6424   3.4930  -4.6010   3.9867  -3.4822   0.00    0.0
2019/02/11 09:07:47.000   4280223.1642  -4034415.8255  -2458264.4938   5  12   4.5595   5.6413   3.4926  -4.6000   3.9859  -3.4815   0.00    0.0
2019/02/11 09:07:48.000   4280223.4929  -4034416.2151  -2458264.9017   5  12   4.5589   5.6403   3.4921  -4.5990   3.9851  -3.4808   0.00    0.0
2019/02/11 09:07:49.000   4280223.8530  -4034416.7879  -2458265.4624   5  12   4.5582   5.6392   3.4916  -4.5981   3.9843  -3.4801   0.00    0.0
2019/02/11 09:07:50.000   4280224.0777  -4034417.1311  -2458265.8599   5  12   4.5576   5.6382   3.4911  -4.5971   3.9835  -3.4794   0.00    0.0
2019/02/11 09:07:51.000   4280224.2257  -4034417.2941  -2458266.1131   5  12   4.5569   5.6371   3.4906  -4.5962   3.9827  -3.4787   0.00    0.0
2019/02/11 09:07:52.000   4280224.3664  -4034417.3386  -2458266.1497   5  12   4.5563   5.6361   3.4901  -4.5952   3.9819  -3.4780   0.00    0.0
2019/02/11 09:07:53.000   4280224.3523  -4034417.2007  -2458266.0826   5  12   4.5557   5.6350   3.4896  -4.5942   3.9811  -3.4773   0.00    0.0
2019/02/11 09:07:54.000   4280224.3048  -4034417.0983  -2458266.0621   5  12   4.5550   5.6340   3.4891  -4.5933   3.9803  -3.4765   0.00    0.0
2019/02/11 09:07:55.000   4280224.7562  -4034417.2138  -2458266.2756   5  12   4.5544   5.6329   3.4886  -4.5923   3.9795  -3.4758   0.00    0.0
2019/02/11 09:07:56.000   4280224.9048  -4034417.1369  -2458266.2886   5  12   4.5537   5.6319   3.4881  -4.5913   3.9787  -3.4751   0.00    0.0
2019/02/11 09:07:57.000   4280224.9716  -4034417.1681  -2458266.2663   5  12   4.5531   5.6308   3.4876  -4.5904   3.9779  -3.4744   0.00    0.0
2019/02/11 09:07:58.000   4280225.0596  -4034417.4719  -2458266.5495   5  12   4.5524   5.6298   3.4871  -4.5894   3.9771  -3.4737   0.00    0.0
2019/02/11 09:07:59.000   4280225.4717  -4034418.0371  -2458267.2463   5  12   4.5518   5.6287   3.4866  -4.5884   3.9762  -3.4730   0.00    0.0
2019/02/11 09:08:00.000   4280223.9213  -4034416.8717  -2458264.9085   5  11   4.6754   5.7033   3.9363  -4.6942   4.1828  -3.7435   0.00    0.0
2019/02/11 09:08:01.000   4280224.2045  -4034416.9752  -2458265.1138   5  11   4.6750   5.7024   3.9363  -4.6935   4.1824  -3.7432   0.00    0.0
2019/02/11 09:08:02.000   4280224.5997  -4034417.0142  -2458265.3497   5  11   4.6745   5.7016   3.9363  -4.6928   4.1820  -3.7429   0.00    0.0
2019/02/11 09:08:03.000   4280226.6151  -4034418.4262  -2458268.5041   5  12   4.5492   5.6245   3.4847  -4.5846   3.9730  -3.4701   0.00    0.0
2019/02/11 09:08:04.000   4280226.9951  -4034418.5546  -2458268.7684   5  12   4.5486   5.6235   3.4842  -4.5836   3.9722  -3.4694   0.00    0.0
2019/02/11 09:08:05.000   4280227.2320  -4034418.6969  -2458268.8647   5  12   4.5479   5.6224   3.4837  -4.5826   3.9714  -3.4687   0.00    0.0
2019/02/11 09:08:06.000   4280225.5760  -4034417.2392  -2458265.6520   5  11   4.6729   5.6982   3.9361  -4.6899   4.1804  -3.7416   0.00    0.0
2019/02/11 09:08:07.000   4280225.8276  -4034417.2809  -2458265.8646   5  11   4.6724   5.6974   3.9361  -4.6892   4.1799  -3.7413   0.00    0.0
2019/02/11 09:08:08.000   4280226.3951  -4034417.2660  -2458266.3739   5  11   4.6720   5.6966   3.9361  -4.6885   4.1795  -3.7410   0.00    0.0
2019/02/11 09:08:09.000   4280226.5776  -4034417.2433  -2458266.8031   5  11   4.6716   5.6957   3.9360  -4.6878   4.1791  -3.7406   0.00    0.0
2019/02/11 09:08:10.000   4280226.4468  -4034417.2405  -2458267.0659   5  11   4.6712   5.6949   3.9360  -4.6871   4.1787  -3.7403   0.00    0.0
2019/02/11 09:08:11.000   4280226.0599  -4034417.3227  -2458267.3069   5  11   4.6708   5.6940   3.9360  -4.6863   4.1783  -3.7400   0.00    0.0
2019/02/11 09:08:12.000   4280225.7629  -4034417.4088  -2458267.4721   5  11   4.6703   5.6932   3.9359  -4.6856   4.1779  -3.7397   0.00    0.0
2019/02/11 09:08:13.000   4280225.5169  -4034417.4378  -2458267.6142   5  11   4.6699   5.6924   3.9359  -4.6849   4.1775  -3.7394   0.00    0.0
2019/02/11 09:08:14.000   4280225.6329  -4034417.7942  -2458268.1001   5  11   4.6695   5.6915   3.9359  -4.6842   4.1771  -3.7390   0.00    0.0
2019/02/11 09:08:15.000   4280226.9368  -4034418.7974  -2458270.5782   5  12   4.5414   5.6118   3.4787  -4.5729   3.9632  -3.4615   0.00    0.0
2019/02/11 09:08:16.000   4280226.9439  -4034418.8010  -2458270.5789   5  12   4.5408   5.6108   3.4782  -4.5719   3.9624  -3.4608   0.00    0.0
2019/02/11 09:08:17.000   4280226.7937  -4034418.6192  -2458270.4220   5  12   4.5401   5.6097   3.4777  -4.5709   3.9615  -3.4600   0.00    0.0
2019/02/11 09:08:18.000   4280226.4894  -4034418.2539  -2458270.1408   5  12   4.5395   5.6086   3.4771  -4.5700   3.9607  -3.4593   0.00    0.0
2019/02/11 09:08:19.000   4280226.3169  -4034417.8862  -2458270.0040   5  12   4.5388   5.6076   3.4766  -4.5690   3.9599  -3.4586   0.00    0.0
2019/02/11 09:08:20.000   4280226.2313  -4034417.7073  -2458270.0875   5  12   4.5382   5.6065   3.4761  -4.5680   3.9591  -3.4579   0.00    0.0
2019/02/11 09:08:21.000   4280225.9585  -4034417.3529  -2458270.0081   5  12   4.5375   5.6055   3.4756  -4.5670   3.9582  -3.4571   0.00    0.0
2019/02/11 09:08:22.000   4280225.6874  -4034417.1791  -2458269.9472   5  12   4.5368   5.6044   3.4751  -4.5660   3.9574  -3.4564   0.00    0.0
2019/02/11 09:08:23.000   4280225.6985  -4034417.1479  -2458270.0073   5  12   4.5362   5.6033   3.4746  -4.5650   3.9566  -3.4557   0.00    0.0
2019/02/11 09:08:24.000   4280225.6756  -4034416.9547  -2458269.9466   5  12   4.5355   5.6023   3.4741  -4.5641   3.9558  -3.4549   0.00    0.0
2019/02/11 09:08:25.000   4280225.6972  -4034416.7948  -2458269.6252   5  12   4.5349   5.6012   3.4736  -4.5631   3.9549  -3.4542   0.00    0.0
2019/02/11 09:08:26.000   4280225.8278  -4034416.8287  -2458269.4860   5  12   4.5342   5.6001   3.4731  -4.5621   3.9541  -3.4535   0.00    0.0
2019/02/11 09:08:27.000   4280225.8153  -4034416.8385  -2458269.3375   5  11   4.6639   5.6805   3.9353  -4.6748   4.1717  -3.7348   0.00    0.0
2019/02/11 09:08:28.000   4280226.0262  -4034417.0449  -2458269.6501   5  12   4.5329   5.5980   3.4721  -4.5601   3.9525  -3.4520   0.00    0.0
2019/02/11 09:08:29.000   4280226.1993  -4034417.1525  -2458269.9542   5  12   4.5322   5.5969   3.4716  -4.5591   3.9516  -3.4513   0.00    0.0
2019/02/11 09:08:30.000   4280225.6313  -4034416.5151  -2458269.1954   5  11   4.6626   5.6780   3.9352  -4.6726   4.1704  -3.7338   0.00    0.0
2019/02/11 09:08:31.000   4280225.5597  -4034416.4699  -2458269.5023   5  12   4.5309   5.5948   3.4706  -4.5572   3.9500  -3.4498   0.00    0.0
2019/02/11 09:08:32.000   4280225.2633  -4034416.4730  -2458269.1554   5  12   4.5303   5.5937   3.4701  -4.5562   3.9491  -3.4491   0.00    0.0
2019/02/11 09:08:33.000   4280224.7446  -4034416.3508  -2458268.5888   5  12   4.5296   5.5926   3.4696  -4.5552   3.9483  -3.4484   0.00    0.0
2019/02/11 09:08:34.000   4280224.2244  -4034416.3534  -2458268.1659   5  12   4.5290   5.5916   3.4691  -4.5542   3.9475  -3.4476   0.00    0.0
2019/02/11 09:08:35.000   4280224.1582  -4034416.4782  -2458267.8613   5  12   4.5283   5.5905   3.4685  -4.5532   3.9467  -3.4469   0.00    0.0
2019/02/11 09:08:36.000   4280224.1300  -4034416.6164  -2458267.9066   5  12   4.5276   5.5894   3.4680  -4.5522   3.9458  -3.4462   0.00    0.0
2019/02/11 09:08:37.000   4280224.1558  -4034416.6128  -2458268.0297   5  12   4.5270   5.5884   3.4675  -4.5512   3.9450  -3.4454   0.00    0.0
2019/02/11 09:08:38.000   4280224.0001  -4034416.5095  -2458268.0883   5  12   4.5263   5.5873   3.4670  -4.5502   3.9442  -3.4447   0.00    0.0
2019/02/11 09:08:39.000   4280223.9525  -4034416.6167  -2458268.2520   5  12   4.5256   5.5862   3.4665  -4.5493   3.9433  -3.4440   0.00    0.0
2019/02/11 09:08:40.000   4280223.8245  -4034416.6033  -2458268.0832   5  12   4.5250   5.5851   3.4660  -4.5483   3.9425  -3.4432   0.00    0.0
2019/02/11 09:08:53.000   4280224.0094  -4034415.8126  -2458267.8576   5  12   4.5163   5.5711   3.4593  -4.5353   3.9316  -3.4336   0.00    0.0
2019/02/11 09:08:54.000   4280223.8418  -4034415.8149  -2458267.8598   5  12   4.5157   5.5700   3.4588  -4.5343   3.9308  -3.4329   0.00    0.0
2019/02/11 09:08:55.000   4280223.6976  -4034415.6424  -2458267.6886   5  12   4.5150   5.5689   3.4583  -4.5333   3.9299  -3.4321   0.00    0.0
2019/02/11 09:08:56.000   4280223.5735  -4034415.4678  -2458267.3648   5  12   4.5143   5.5679   3.4578  -4.5323   3.9291  -3.4314   0.00    0.0
2019/02/11 09:09:01.000   4280223.2786  -4034414.7521  -2458265.9307   5  12   4.5110   5.5624   3.4552  -4.5273   3.9248  -3.4276   0.00    0.0
2019/02/11 09:09:02.000   4280223.0193  -4034415.0680  -2458266.0100   5  12   4.5103   5.5614   3.4547  -4.5263   3.9240  -3.4269   0.00    0.0
2019/02/11 09:09:03.000   4280222.4997  -4034415.1149  -2458265.9437   5  12   4.5096   5.5603   3.4542  -4.5253   3.9232  -3.4262   0.00    0.0
2019/02/11 09:09:04.000   4280222.1717  -4034415.2922  -2458266.0018   5  12   4.5090   5.5592   3.4536  -4.5243   3.9223  -3.4254   0.00    0.0
2019/02/11 09:09:05.000   4280222.1146  -4034415.9753  -2458266.2807   5  12   4.5083   5.5581   3.4531  -4.5233   3.9215  -3.4247   0.00    0.0
2019/02/11 09:09:06.000   4280222.0204  -4034416.4045  -2458266.2765   5  12   4.5076   5.5570   3.4526  -4.5223   3.9206  -3.4239   0.00    0.0
2019/02/11 09:09:07.000   4280221.8559  -4034416.4853  -2458266.0464   5  12   4.5070   5.5559   3.4521  -4.5213   3.9198  -3.4232   0.00    0.0
2019/02/11 09:09:08.000   4280221.5998  -4034416.2799  -2458265.7335   5  12   4.5063   5.5548   3.4516  -4.5202   3.9189  -3.4224   0.00    0.0
2019/02/11 09:09:09.000   4280221.4196  -4034415.8048  -2458265.3448   5  12   4.5056   5.5537   3.4510  -4.5192   3.9181  -3.4217   0.00    0.0
2019/02/11 09:09:10.000   4280221.5239  -4034415.8503  -2458265.4508   5  12   4.5049   5.5527   3.4505  -4.5182   3.9172  -3.4209   0.00    0.0
2019/02/11 09:09:11.000   4280221.7598  -4034415.9448  -2458265.5246   5  12   4.5043   5.5516   3.4500  -4.5172   3.9164  -3.4202   0.00    0.0
2019/02/11 09:09:12.000   4280222.3791  -4034416.4804  -2458266.0049   5  12   4.5036   5.5505   3.4495  -4.5162   3.9155  -3.4194   0.00    0.0
2019/02/11 09:09:13.000   4280222.6227  -4034416.4802  -2458266.1523   5  12   4.5029   5.5494   3.4489  -4.5152   3.9147  -3.4186   0.00    0.0
2019/02/11 09:09:14.000   4280222.2687  -4034416.0026  -2458266.0357   5  12   4.5022   5.5483   3.4484  -4.5142   3.9138  -3.4179   0.00    0.0
2019/02/11 09:09:15.000   4280222.1659  -4034415.6303  -2458265.7766   5  12   4.5016   5.5472   3.4479  -4.5132   3.9130  -3.4171   0.00    0.0
2019/02/11 09:09:16.000   4280221.8199  -4034415.1751  -2458265.2868   5  12   4.5009   5.5461   3.4474  -4.5122   3.9121  -3.4164   0.00    0.0
2019/02/11 09:09:17.000   4280221.4450  -4034414.6557  -2458264.8248   5  12   4.5002   5.5450   3.4469  -4.5112   3.9113  -3.4156   0.00    0.0
2019/02/11 09:09:18.000   4280221.4508  -4034414.5075  -2458264.6353   5  12   4.4995   5.5439   3.4463  -4.5101   3.9104  -3.4149   0.00    0.0
2019/02/11 09:09:19.000   4280221.1767  -4034414.3487  -2458264.5037   5  12   4.4989   5.5428   3.4458  -4.5091   3.9095  -3.4141   0.00    0.0
2019/02/11 09:09:20.000   4280220.8377  -4034414.0631  -2458264.3218   5  12   4.4982   5.5417   3.4453  -4.5081   3.9087  -3.4134   0.00    0.0
2019/02/11 09:09:21.000   4280220.3228  -4034413.5959  -2458263.9130   5  12   4.4975   5.5406   3.4448  -4.5071   3.9078  -3.4126   0.00    0.0
2019/02/11 09:09:22.000   4280220.1788  -4034413.6811  -2458264.0402   5  12   4.4968   5.5396   3.4442  -4.5061   3.9070  -3.4119   0.00    0.0
2019/02/11 09:09:23.000   4280219.9151  -4034413.5245  -2458264.0773   5  12   4.4961   5.5385   3.4437  -4.5051   3.9061  -3.4111   0.00    0.0
2019/02/11 09:09:24.000   4280220.1794  -4034413.9175  -2458264.6225   5  12   4.4955   5.5374   3.4432  -4.5041   3.9053  -3.4103   0.00    0.0
2019/02/11 09:09:25.000   4280220.3101  -4034414.0871  -2458264.9281   5  12   4.4948   5.5363   3.4427  -4.5030   3.9044  -3.4096   0.00    0.0
2019/02/11 09:09:26.000   4280220.4497  -4034414.2221  -2458265.2712   5  12   4.4941   5.5352   3.4421  -4.5020   3.9036  -3.4088   0.00    0.0
2019/02/11 09:09:27.000   4280220.4146  -4034413.8759  -2458265.1809   5  12   4.4934   5.5341   3.4416  -4.5010   3.9027  -3.4081   0.00    0.0
2019/02/11 09:09:28.000   4280220.1387  -4034413.2982  -2458264.6080   5  12   4.4928   5.5330   3.4411  -4.5000   3.9018  -3.4073   0.00    0.0
2019/02/11 09:09:29.000   4280219.8560  -4034412.9225  -2458264.1987   5  12   4.4921   5.5319   3.4406  -4.4990   3.9010  -3.4065   0.00    0.0
2019/02/11 09:09:30.000   4280219.7091  -4034412.7349  -2458264.0213   5  12   4.4914   5.5308   3.4400  -4.4979   3.9001  -3.4058   0.00    0.0
2019/02/11 09:09:31.000   4280219.5221  -4034412.7659  -2458264.0883   5  12   4.4907   5.5297   3.4395  -4.4969   3.8993  -3.4050   0.00    0.0
2019/02/11 09:09:32.000   4280219.2187  -4034412.6998  -2458264.0366   5  12   4.4900   5.5286   3.4390  -4.4959   3.8984  -3.4043   0.00    0.0
2019/02/11 09:09:33.000   4280218.9753  -4034412.6078  -2458264.0845   5  12   4.4893   5.5275   3.4385  -4.4949   3.8975  -3.4035   0.00    0.0
2019/02/11 09:09:34.000   4280218.5999  -4034412.1741  -2458264.1107   5  12   4.4887   5.5264   3.4379  -4.4939   3.8967  -3.4027   0.00    0.0
2019/02/11 09:09:35.000   4280218.4713  -4034412.0405  -2458264.3678   5  12   4.4880   5.5253   3.4374  -4.4928   3.8958  -3.4020   0.00    0.0
2019/02/11 09:09:36.000   4280218.5983  -4034412.1317  -2458264.5408   5  12   4.4873   5.5242   3.4369  -4.4918   3.8950  -3.4012   0.00    0.0
2019/02/11 09:09:37.000   4280218.7454  -4034412.3084  -2458264.7503   5  12   4.4866   5.5231   3.4363  -4.4908   3.8941  -3.4004   0.00    0.0
2019/02/11 09:09:38.000   4280218.6155  -4034412.1463  -2458264.6418   5  12   4.4859   5.5220   3.4358  -4.4898   3.8932  -3.3997   0.00    0.0
2019/02/11 09:09:57.000   4280218.7598  -4034412.7309  -2458266.2424   5  12   4.4729   5.5010   3.4257  -4.4702   3.8768  -3.3851   0.00    0.0
2019/02/11 09:09:58.000   4280219.9320  -4034412.7827  -2458264.4824   5  11   4.5191   5.5004   3.5616  -4.4638   3.8853  -3.2893   0.00    0.0
2019/02/11 09:09:59.000   4280219.7281  -4034412.5942  -2458264.1894   5  11   4.5186   5.4993   3.5608  -4.4629   3.8842  -3.2884   0.00    0.0
2019/02/11 09:10:00.000   4280219.9766  -4034412.7564  -2458264.1876   5  11   4.5182   5.4981   3.5600  -4.4619   3.8831  -3.2875   0.00    0.0
2019/02/11 09:10:01.000   4280218.8014  -4034413.0474  -2458266.2581   5  12   4.4701   5.4965   3.4236  -4.4661   3.8733  -3.3820   0.00    0.0
2019/02/11 09:10:02.000   4280218.8427  -4034413.2784  -2458266.3415   5  12   4.4695   5.4954   3.4230  -4.4651   3.8724  -3.3812   0.00    0.0
2019/02/11 09:10:03.000   4280220.0657  -4034412.8761  -2458264.2113   5  11   4.5167   5.4947   3.5576  -4.4592   3.8798  -3.2848   0.00    0.0
2019/02/11 09:10:04.000   4280218.8048  -4034413.2279  -2458266.3048   5  12   4.4681   5.4932   3.4220  -4.4630   3.8707  -3.3797   0.00    0.0
2019/02/11 09:10:05.000   4280219.1414  -4034413.4458  -2458266.5624   5  12   4.4674   5.4921   3.4214  -4.4620   3.8698  -3.3789   0.00    0.0
2019/02/11 09:10:06.000   4280219.6180  -4034413.7372  -2458267.0347   5  12   4.4667   5.4910   3.4209  -4.4609   3.8689  -3.3781   0.00    0.0
2019/02/11 09:10:07.000   4280219.9652  -4034413.9280  -2458267.0551   5  12   4.4660   5.4899   3.4204  -4.4599   3.8680  -3.3773   0.00    0.0
2019/02/11 09:10:08.000   4280220.0463  -4034413.5500  -2458266.7779   5  12   4.4653   5.4888   3.4198  -4.4589   3.8672  -3.3766   0.00    0.0
2019/02/11 09:10:09.000   4280219.9139  -4034413.1598  -2458266.4677   5  12   4.4646   5.4877   3.4193  -4.4578   3.8663  -3.3758   0.00    0.0
2019/02/11 09:10:10.000   4280219.7693  -4034412.9497  -2458266.0603   5  12   4.4639   5.4865   3.4187  -4.4568   3.8654  -3.3750   0.00    0.0
2019/02/11 09:10:11.000   4280219.5865  -4034412.6847  -2458265.7410   5  12   4.4632   5.4854   3.4182  -4.4557   3.8645  -3.3742   0.00    0.0
2019/02/11 09:10:12.000   4280219.6746  -4034412.6169  -2458265.7995   5  12   4.4625   5.4843   3.4177  -4.4547   3.8637  -3.3735   0.00    0.0
2019/02/11 09:10:13.000   4280219.7117  -4034412.7602  -2458266.0243   5  12   4.4619   5.4832   3.4171  -4.4537   3.8628  -3.3727   0.00    0.0
2019/02/11 09:10:14.000   4280219.4905  -4034412.4537  -2458265.9955   5  12   4.4612   5.4821   3.4166  -4.4526   3.8619  -3.3719   0.00    0.0
2019/02/11 09:10:15.000   4280219.3172  -4034412.6866  -2458266.3218   5  12   4.4605   5.4810   3.4161  -4.4516   3.8610  -3.3711   0.00    0.0
2019/02/11 09:10:16.000   4280219.2187  -4034412.8770  -2458266.5035   5  12   4.4598   5.4799   3.4155  -4.4505   3.8601  -3.3703   0.00    0.0
2019/02/11 09:10:17.000   4280219.0193  -4034412.8976  -2458266.2771   5  12   4.4591   5.4787   3.4150  -4.4495   3.8593  -3.3696   0.00    0.0
2019/02/11 09:10:18.000   4280219.0548  -4034413.1505  -2458266.1187   5  12   4.4584   5.4776   3.4144  -4.4485   3.8584  -3.3688   0.00    0.0
2019/02/11 09:10:19.000   4280219.0228  -4034413.1707  -2458265.9489   5  12   4.4577   5.4765   3.4139  -4.4474   3.8575  -3.3680   0.00    0.0
2019/02/11 09:10:20.000   4280218.9855  -4034413.2104  -2458265.7924   5  12   4.4570   5.4754   3.4134  -4.4464   3.8566  -3.3672   0.00    0.0
2019/02/11 09:10:21.000   4280218.9441  -4034413.1067  -2458265.7770   5  12   4.4563   5.4743   3.4128  -4.4453   3.8557  -3.3664   0.00    0.0
2019/02/11 09:10:22.000   4280218.9803  -4034413.4713  -2458266.2346   5  12   4.4556   5.4732   3.4123  -4.4443   3.8549  -3.3657   0.00    0.0
2019/02/11 09:10:23.000   4280219.0242  -4034413.6288  -2458266.5250   5  12   4.4549   5.4720   3.4117  -4.4433   3.8540  -3.3649   0.00    0.0
2019/02/11 09:10:24.000   4280219.0741  -4034413.4154  -2458266.4046   5  12   4.4542   5.4709   3.4112  -4.4422   3.8531  -3.3641   0.00    0.0
2019/02/11 09:10:25.000   4280218.9711  -4034413.1189  -2458266.4265   5  12   4.4535   5.4698   3.4107  -4.4412   3.8522  -3.3633   0.00    0.0
2019/02/11 09:10:32.000   4280217.0129  -4034411.3385  -2458265.0522   5  12   4.4486   5.4620   3.4069  -4.4339   3.8460  -3.3578   0.00    0.0
2019/02/11 09:10:33.000   4280218.6779  -4034411.4822  -2458263.7298   5  11   4.5026   5.4609   3.5341  -4.4314   3.8473  -3.2574   0.00    0.0
2019/02/11 09:10:34.000   4280219.2123  -4034411.4886  -2458263.8879   5  11   4.5021   5.4598   3.5333  -4.4305   3.8463  -3.2565   0.00    0.0
2019/02/11 09:10:35.000   4280219.3014  -4034411.2324  -2458263.8087   5  11   4.5017   5.4586   3.5325  -4.4295   3.8452  -3.2556   0.00    0.0
2019/02/11 09:10:36.000   4280217.8332  -4034410.9915  -2458265.4312   5  12   4.4458   5.4575   3.4047  -4.4297   3.8425  -3.3547   0.00    0.0
2019/02/11 09:10:37.000   4280217.9947  -4034411.2752  -2458265.5613   5  12   4.4452   5.4564   3.4041  -4.4286   3.8416  -3.3539   0.00    0.0
2019/02/11 09:10:38.000   4280218.3229  -4034411.9247  -2458265.9481   5  12   4.4445   5.4552   3.4036  -4.4276   3.8407  -3.3531   0.00    0.0
2019/02/11 09:10:39.000   4280218.7342  -4034412.7113  -2458266.4926   5  12   4.4438   5.4541   3.4031  -4.4265   3.8398  -3.3523   0.00    0.0
2019/02/11 09:10:40.000   4280218.9415  -4034413.0528  -2458266.7117   5  12   4.4431   5.4530   3.4025  -4.4255   3.8390  -3.3515   0.00    0.0
2019/02/11 09:10:41.000   4280218.9881  -4034413.1038  -2458266.6489   5  12   4.4424   5.4519   3.4020  -4.4244   3.8381  -3.3507   0.00    0.0
2019/02/11 09:10:42.000   4280219.1454  -4034413.3396  -2458266.7301   5  12   4.4417   5.4507   3.4014  -4.4234   3.8372  -3.3499   0.00    0.0
2019/02/11 09:10:43.000   4280219.0535  -4034413.2390  -2458266.6338   5  12   4.4410   5.4496   3.4009  -4.4223   3.8363  -3.3491   0.00    0.0
2019/02/11 09:10:44.000   4280219.1854  -4034413.2667  -2458266.6565   5  12   4.4403   5.4485   3.4003  -4.4213   3.8354  -3.3484   0.00    0.0
2019/02/11 09:10:45.000   4280219.0769  -4034413.0759  -2458266.2890   5  12   4.4396   5.4474   3.3998  -4.4202   3.8345  -3.3476   0.00    0.0
2019/02/11 09:10:46.000   4280219.2925  -4034412.9898  -2458266.1905   5  12   4.4389   5.4463   3.3992  -4.4192   3.8336  -3.3468   0.00    0.0
2019/02/11 09:10:47.000   4280219.5943  -4034412.8423  -2458266.1295   5  12   4.4382   5.4451   3.3987  -4.4181   3.8327  -3.3460   0.00    0.0
2019/02/11 09:10:48.000   4280220.0214  -4034413.1838  -2458266.3346   5  12   4.4375   5.4440   3.3982  -4.4171   3.8319  -3.3452   0.00    0.0
2019/02/11 09:10:49.000   4280220.3759  -4034413.5015  -2458266.5258   5  12   4.4367   5.4429   3.3976  -4.4160   3.8310  -3.3444   0.00    0.0
2019/02/11 09:10:50.000   4280220.4070  -4034413.7411  -2458266.4304   5  12   4.4360   5.4418   3.3971  -4.4149   3.8301  -3.3436   0.00    0.0
2019/02/11 09:10:51.000   4280220.1633  -4034413.9447  -2458266.3765   5  12   4.4353   5.4406   3.3965  -4.4139   3.8292  -3.3428   0.00    0.0
2019/02/11 09:10:52.000   4280219.7611  -4034413.7378  -2458266.1678   5  12   4.4346   5.4395   3.3960  -4.4128   3.8283  -3.3420   0.00    0.0
2019/02/11 09:10:53.000   4280219.6018  -4034413.9260  -2458266.2504   5  12   4.4339   5.4384   3.3954  -4.4118   3.8274  -3.3412   0.00    0.0
2019/02/11 09:10:54.000   4280219.8104  -4034414.3576  -2458266.5625   5  12   4.4332   5.4372   3.3949  -4.4107   3.8265  -3.3404   0.00    0.0
2019/02/11 09:10:55.000   4280219.7757  -4034414.4913  -2458266.4487   5  12   4.4325   5.4361   3.3943  -4.4097   3.8256  -3.3396   0.00    0.0
2019/02/11 09:10:56.000   4280219.6934  -4034414.0319  -2458265.9434   5  12   4.4318   5.4350   3.3938  -4.4086   3.8247  -3.3389   0.00    0.0
2019/02/11 09:10:57.000   4280219.5020  -4034413.3787  -2458265.2439   5  12   4.4311   5.4339   3.3932  -4.4076   3.8238  -3.3381   0.00    0.0
2019/02/11 09:10:58.000   4280219.2704  -4034413.0231  -2458264.8668   5  12   4.4304   5.4327   3.3927  -4.4065   3.8229  -3.3373   0.00    0.0
2019/02/11 09:10:59.000   4280218.8603  -4034412.4247  -2458264.5078   5  12   4.4297   5.4316   3.3921  -4.4054   3.8220  -3.3365   0.00    0.0
2019/02/11 09:11:00.000   4280218.8919  -4034412.5187  -2458264.7163   5  12   4.4290   5.4305   3.3916  -4.4044   3.8211  -3.3357   0.00    0.0
2019/02/11 09:11:01.000   4280218.7797  -4034412.6512  -2458264.7525   5  12   4.4283   5.4294   3.3910  -4.4033   3.8203  -3.3349   0.00    0.0
2019/02/11 09:11:02.000   4280218.5622  -4034412.4992  -2458264.4783   5  12   4.4276   5.4282   3.3905  -4.4023   3.8194  -3.3341   0.00    0.0
2019/02/11 09:11:03.000   4280218.3091  -4034412.2195  -2458264.0095   5  12   4.4269   5.4271   3.3899  -4.4012   3.8185  -3.3333   0.00    0.0
2019/02/11 09:11:04.000   4280218.3835  -4034412.2410  -2458263.9362   5  12   4.4262   5.4260   3.3894  -4.4002   3.8176  -3.3325   0.00    0.0
2019/02/11 09:11:05.000   4280218.5872  -4034412.4078  -2458263.9789   5  12   4.4255   5.4248   3.3889  -4.3991   3.8167  -3.3317   0.00    0.0
2019/02/11 09:11:06.000   4280218.8448  -4034412.7489  -2458264.0269   5  12   4.4248   5.4237   3.3883  -4.3980   3.8158  -3.3309   0.00    0.0
2019/02/11 09:11:07.000   4280218.5714  -4034412.4816  -2458263.5141   5  12   4.4241   5.4226   3.3878  -4.3970   3.8149  -3.3301   0.00    0.0
2019/02/11 09:11:08.000   4280218.3561  -4034412.4404  -2458263.3746   5  12   4.4234   5.4214   3.3872  -4.3959   3.8140  -3.3293   0.00    0.0
2019/02/11 09:11:09.000   4280218.5842  -4034412.0977  -2458262.6385   5  11   4.4858   5.4205   3.5061  -4.3982   3.8085  -3.2247   0.00    0.0
2019/02/11 09:11:10.000   4280218.3844  -4034411.8312  -2458262.2521   5  11   4.4853   5.4193   3.5053  -4.3972   3.8074  -3.2238   0.00    0.0
2019/02/11 09:11:11.000   4280218.3931  -4034411.7584  -2458262.2943   5  12   4.4213   5.4181   3.3856  -4.3927   3.8113  -3.3269   0.00    0.0
2019/02/11 09:11:12.000   4280219.0137  -4034412.2459  -2458262.5047   5  11   4.4844   5.4171   3.5038  -4.3954   3.8053  -3.2220   0.00    0.0
2019/02/11 09:11:13.000   4280219.2780  -4034412.4998  -2458262.5219   5  12   4.4199   5.4158   3.3845  -4.3906   3.8095  -3.3253   0.00    0.0
2019/02/11 09:11:14.000   4280219.3187  -4034412.5967  -2458262.2869   5  12   4.4192   5.4147   3.3839  -4.3896   3.8086  -3.3245   0.00    0.0
2019/02/11 09:11:15.000   4280219.4664  -4034412.5748  -2458262.0702   5  12   4.4185   5.4135   3.3834  -4.3885   3.8077  -3.3237   0.00    0.0
2019/02/11 09:11:16.000   4280219.2170  -4034412.5483  -2458262.1596   5  11   4.4826   5.4126   3.5007  -4.3917   3.8010  -3.2183   0.00    0.0
2019/02/11 09:11:17.000   4280219.2766  -4034412.0921  -2458261.2247   5  12   4.4170   5.4113   3.3822  -4.3864   3.8059  -3.3221   0.00    0.0
2019/02/11 09:11:18.000   4280219.2796  -4034411.9552  -2458261.0044   5  12   4.4163   5.4101   3.3817  -4.3853   3.8050  -3.3213   0.00    0.0
2019/02/11 09:11:19.000   4280219.2372  -4034411.9860  -2458260.8872   5  12   4.4156   5.4090   3.3811  -4.3842   3.8041  -3.3205   0.00    0.0
2019/02/11 09:11:20.000   4280219.5170  -4034412.3291  -2458260.9654   5  12   4.4149   5.4079   3.3806  -4.3832   3.8032  -3.3197   0.00    0.0
2019/02/11 09:11:21.000   4280219.6718  -4034412.4896  -2458260.9339   5  12   4.4142   5.4067   3.3800  -4.3821   3.8023  -3.3189   0.00    0.0
2019/02/11 09:11:22.000   4280220.1033  -4034413.0156  -2458261.2826   5  12   4.4135   5.4056   3.3795  -4.3811   3.8014  -3.3181   0.00    0.0
2019/02/11 09:11:23.000   4280220.4598  -4034413.3648  -2458261.6204   5  12   4.4128   5.4045   3.3789  -4.3800   3.8005  -3.3173   0.00    0.0
2019/02/11 09:11:24.000   4280220.3914  -4034413.4790  -2458261.6198   5  12   4.4121   5.4033   3.3784  -4.3789   3.7996  -3.3165   0.00    0.0
2019/02/11 09:11:25.000   4280219.8184  -4034413.1960  -2458261.3392   5  12   4.4114   5.4022   3.3778  -4.3779   3.7987  -3.3157   0.00    0.0
2019/02/11 09:11:26.000   4280219.4937  -4034413.2829  -2458261.4901   5  12   4.4107   5.4011   3.3773  -4.3768   3.7978  -3.3149   0.00    0.0
2019/02/11 09:11:27.000   4280219.1995  -4034412.9485  -2458261.6171   5  12   4.4100   5.3999   3.3767  -4.3757   3.7969  -3.3141   0.00    0.0
2019/02/11 09:11:28.000   4280218.9763  -4034412.6940  -2458261.6937   5  12   4.4093   5.3988   3.3762  -4.3747   3.7960  -3.3133   0.00    0.0
2019/02/11 09:11:29.000   4280219.0145  -4034412.4283  -2458261.7629   5  12   4.4085   5.3977   3.3756  -4.3736   3.7951  -3.3125   0.00    0.0
2019/02/11 09:11:30.000   4280219.0972  -4034412.0322  -2458261.7692   5  12   4.4078   5.3965   3.3751  -4.3725   3.7942  -3.3117   0.00    0.0
2019/02/11 09:11:31.000   4280219.3681  -4034412.0645  -2458261.9124   5  12   4.4071   5.3954   3.3745  -4.3715   3.7933  -3.3109   0.00    0.0
2019/02/11 09:11:32.000   4280219.4629  -4034411.9670  -2458262.0013   5  12   4.4064   5.3943   3.3740  -4.3704   3.7924  -3.3101   0.00    0.0
2019/02/11 09:11:33.000   4280219.6809  -4034412.3422  -2458262.1658   5  12   4.4057   5.3931   3.3734  -4.3693   3.7915  -3.3093   0.00    0.0
2019/02/11 09:11:34.000   4280219.8141  -4034412.2612  -2458262.1080   5  12   4.4050   5.3920   3.3729  -4.3683   3.7906  -3.3085   0.00    0.0
2019/02/11 09:11:35.000   4280220.0715  -4034412.4380  -2458262.4135   5  12   4.4043   5.3909   3.3723  -4.3672   3.7897  -3.3076   0.00    0.0
2019/02/11 09:11:36.000   4280220.3075  -4034412.7528  -2458262.6731   5  12   4.4036   5.3897   3.3717  -4.3661   3.7888  -3.3068   0.00    0.0
2019/02/11 09:11:37.000   4280220.4748  -4034412.7837  -2458263.0348   5  12   4.4029   5.3886   3.3712  -4.3651   3.7879  -3.3060   0.00    0.0
2019/02/11 09:11:38.000   4280220.5966  -4034412.8504  -2458263.4798   5  12   4.4022   5.3874   3.3706  -4.3640   3.7870  -3.3052   0.00    0.0
2019/02/11 09:11:39.000   4280220.6726  -4034412.7476  -2458263.8409   5  12   4.4015   5.3863   3.3701  -4.3629   3.7861  -3.3044   0.00    0.0
2019/02/11 09:11:40.000   4280220.2850  -4034412.4366  -2458263.6580   5  12   4.4007   5.3852   3.3695  -4.3618   3.7852  -3.3036   0.00    0.0
2019/02/11 09:11:41.000   4280220.3042  -4034412.5355  -2458263.6213   5  12   4.4000   5.3840   3.3690  -4.3608   3.7843  -3.3028   0.00    0.0
2019/02/11 09:11:42.000   4280220.4651  -4034412.6201  -2458263.5727   5  12   4.3993   5.3829   3.3684  -4.3597   3.7834  -3.3020   0.00    0.0
2019/02/11 09:11:43.000   4280220.6420  -4034412.7441  -2458263.5323   5  12   4.3986   5.3818   3.3679  -4.3586   3.7824  -3.3012   0.00    0.0
2019/02/11 09:11:44.000   4280220.8265  -4034412.7406  -2458263.5213   5  12   4.3979   5.3806   3.3673  -4.3576   3.7815  -3.3004   0.00    0.0
2019/02/11 09:11:45.000   4280220.9678  -4034412.8864  -2458263.6423   5  12   4.3972   5.3795   3.3668  -4.3565   3.7806  -3.2996   0.00    0.0
2019/02/11 09:11:46.000   4280220.7286  -4034412.8318  -2458263.5994   5  12   4.3965   5.3783   3.3662  -4.3554   3.7797  -3.2988   0.00    0.0
2019/02/11 09:11:47.000   4280220.5848  -4034412.8393  -2458263.4338   5  12   4.3958   5.3772   3.3656  -4.3544   3.7788  -3.2980   0.00    0.0
2019/02/11 09:11:48.000   4280220.4919  -4034412.8904  -2458263.2592   5  12   4.3951   5.3761   3.3651  -4.3533   3.7779  -3.2971   0.00    0.0
2019/02/11 09:11:49.000   4280220.6088  -4034412.9044  -2458263.3462   5  12   4.3944   5.3749   3.3645  -4.3522   3.7770  -3.2963   0.00    0.0
2019/02/11 09:11:50.000   4280221.2980  -4034413.2495  -2458263.5442   5  11   4.4669   5.3747   3.4745  -4.3604   3.7645  -3.1875   0.00    0.0
2019/02/11 09:11:51.000   4280221.1544  -4034413.3184  -2458264.2216   5  12   4.3929   5.3727   3.3634  -4.3501   3.7752  -3.2947   0.00    0.0
2019/02/11 09:11:52.000   4280221.1859  -4034413.2421  -2458264.3893   5  12   4.3922   5.3715   3.3629  -4.3490   3.7743  -3.2939   0.00    0.0
2019/02/11 09:11:53.000   4280221.0794  -4034413.0573  -2458264.3097   5  12   4.3915   5.3704   3.3623  -4.3479   3.7734  -3.2931   0.00    0.0
2019/02/11 09:11:54.000   4280220.7732  -4034413.1369  -2458264.0429   5  11   4.4651   5.3703   3.4715  -4.3568   3.7602  -3.1838   0.00    0.0
2019/02/11 09:11:55.000   4280220.4038  -4034413.2196  -2458263.7582   5  11   4.4646   5.3692   3.4707  -4.3559   3.7591  -3.1829   0.00    0.0
2019/02/11 09:11:56.000   4280220.2779  -4034413.2665  -2458263.6131   5  11   4.4642   5.3681   3.4700  -4.3549   3.7581  -3.1820   0.00    0.0
2019/02/11 09:11:57.000   4280220.3245  -4034413.1925  -2458263.6639   5  11   4.4637   5.3670   3.4692  -4.3540   3.7570  -3.1811   0.00    0.0
2019/02/11 09:11:58.000   4280220.6926  -4034413.3397  -2458264.0631   5  11   4.4632   5.3659   3.4684  -4.3531   3.7559  -3.1802   0.00    0.0
2019/02/11 09:11:59.000   4280221.9370  -4034413.5932  -2458263.5056   5  12   4.3872   5.3635   3.3590  -4.3415   3.7679  -3.2882   0.00    0.0
2019/02/11 09:12:00.000   4280222.0289  -4034413.4100  -2458263.4545   5  12   4.3865   5.3624   3.3584  -4.3404   3.7670  -3.2874   0.00    0.0
2019/02/11 09:12:01.000   4280220.9388  -4034413.1437  -2458264.3909   5  11   4.4619   5.3625   3.4661  -4.3504   3.7527  -3.1775   0.00    0.0
2019/02/11 09:12:02.000   4280221.6927  -4034413.4803  -2458263.6050   5  12   4.3851   5.3601   3.3573  -4.3383   3.7652  -3.2858   0.00    0.0
2019/02/11 09:12:03.000   4280220.9707  -4034413.9169  -2458264.8464   5  11   4.4610   5.3603   3.4646  -4.3485   3.7506  -3.1757   0.00    0.0
2019/02/11 09:12:04.000   4280221.5403  -4034413.9099  -2458263.8652   5  12   4.3837   5.3578   3.3562  -4.3361   3.7634  -3.2842   0.00    0.0
2019/02/11 09:12:05.000   4280221.4021  -4034413.7078  -2458263.7685   5  12   4.3830   5.3567   3.3556  -4.3350   3.7625  -3.2833   0.00    0.0
2019/02/11 09:12:06.000   4280221.2050  -4034413.4966  -2458263.6690   5  12   4.3822   5.3556   3.3551  -4.3339   3.7615  -3.2825   0.00    0.0
2019/02/11 09:12:07.000   4280220.9437  -4034413.2470  -2458263.4128   5  12   4.3815   5.3544   3.3545  -4.3329   3.7606  -3.2817   0.00    0.0
2019/02/11 09:12:08.000   4280220.4457  -4034412.7122  -2458262.9179   5  12   4.3808   5.3533   3.3539  -4.3318   3.7597  -3.2809   0.00    0.0
2019/02/11 09:12:09.000   4280219.9683  -4034412.1453  -2458262.4457   5  12   4.3801   5.3521   3.3534  -4.3307   3.7588  -3.2801   0.00    0.0
2019/02/11 09:12:10.000   4280219.8928  -4034412.3300  -2458262.4884   5  12   4.3794   5.3510   3.3528  -4.3296   3.7579  -3.2793   0.00    0.0
2019/02/11 09:12:11.000   4280220.2206  -4034412.7859  -2458262.9397   5  12   4.3787   5.3498   3.3523  -4.3286   3.7570  -3.2785   0.00    0.0
2019/02/11 09:12:12.000   4280220.3276  -4034412.8153  -2458263.2672   5  12   4.3780   5.3487   3.3517  -4.3275   3.7561  -3.2776   0.00    0.0
2019/02/11 09:12:13.000   4280220.0799  -4034412.7285  -2458263.4178   5  12   4.3773   5.3476   3.3511  -4.3264   3.7552  -3.2768   0.00    0.0
2019/02/11 09:12:14.000   4280219.8652  -4034412.5863  -2458263.6450   5  12   4.3765   5.3464   3.3506  -4.3253   3.7542  -3.2760   0.00    0.0
2019/02/11 09:12:15.000   4280219.8277  -4034412.5599  -2458263.8867   5  12   4.3758   5.3453   3.3500  -4.3243   3.7533  -3.2752   0.00    0.0
2019/02/11 09:12:16.000   4280219.9600  -4034412.7065  -2458264.1458   5  12   4.3751   5.3441   3.3495  -4.3232   3.7524  -3.2744   0.00    0.0
2019/02/11 09:12:17.000   4280219.9266  -4034412.8490  -2458264.1158   5  12   4.3744   5.3430   3.3489  -4.3221   3.7515  -3.2736   0.00    0.0
2019/02/11 09:12:18.000   4280220.2572  -4034413.0073  -2458264.1871   5  12   4.3737   5.3418   3.3483  -4.3210   3.7506  -3.2727   0.00    0.0
2019/02/11 09:12:19.000   4280220.4817  -4034413.0593  -2458264.1666   5  12   4.3730   5.3407   3.3478  -4.3199   3.7497  -3.2719   0.00    0.0
2019/02/11 09:12:20.000   4280220.5233  -4034412.6496  -2458264.1301   5  12   4.3723   5.3396   3.3472  -4.3189   3.7488  -3.2711   0.00    0.0
2019/02/11 09:12:21.000   4280220.4102  -4034412.2657  -2458264.1341   5  12   4.3715   5.3384   3.3467  -4.3178   3.7478  -3.2703   0.00    0.0
2019/02/11 09:12:22.000   4280220.3736  -4034411.9605  -2458264.1119   5  12   4.3708   5.3373   3.3461  -4.3167   3.7469  -3.2695   0.00    0.0
2019/02/11 09:12:23.000   4280220.6615  -4034412.1111  -2458264.3666   5  12   4.3701   5.3361   3.3455  -4.3156   3.7460  -3.2687   0.00    0.0
2019/02/11 09:12:24.000   4280220.7394  -4034412.2738  -2458264.5312   5  12   4.3694   5.3350   3.3450  -4.3145   3.7451  -3.2678   0.00    0.0
2019/02/11 09:12:25.000   4280220.6785  -4034412.4410  -2458264.5988   5  12   4.3687   5.3338   3.3444  -4.3135   3.7442  -3.2670   0.00    0.0
2019/02/11 09:12:26.000   4280220.6505  -4034412.5863  -2458264.4557   5  12   4.3680   5.3327   3.3439  -4.3124   3.7433  -3.2662   0.00    0.0
2019/02/11 09:12:27.000   4280221.1084  -4034412.9917  -2458264.6878   5  12   4.3672   5.3316   3.3433  -4.3113   3.7423  -3.2654   0.00    0.0
2019/02/11 09:12:28.000   4280221.4111  -4034413.2053  -2458264.9068   5  12   4.3665   5.3304   3.3427  -4.3102   3.7414  -3.2646   0.00    0.0
2019/02/11 09:12:29.000   4280221.6238  -4034413.2466  -2458265.0635   5  12   4.3658   5.3293   3.3422  -4.3091   3.7405  -3.2637   0.00    0.0
2019/02/11 09:12:30.000   4280221.7291  -4034413.6175  -2458265.5827   5  12   4.3651   5.3281   3.3416  -4.3080   3.7396  -3.2629   0.00    0.0
2019/02/11 09:12:41.000   4280222.8839  -4034414.0409  -2458265.8635   5  12   4.3572   5.3155   3.3354  -4.2961   3.7295  -3.2539   0.00    0.0
2019/02/11 09:12:42.000   4280222.5008  -4034413.4890  -2458265.7927   5  12   4.3565   5.3144   3.3349  -4.2951   3.7286  -3.2531   0.00    0.0
2019/02/11 09:12:45.000   4280222.6555  -4034414.0193  -2458266.2218   5  12   4.3544   5.3109   3.3332  -4.2918   3.7258  -3.2506   0.00    0.0
2019/02/11 09:12:46.000   4280223.1313  -4034414.9187  -2458266.7925   5  12   4.3537   5.3098   3.3326  -4.2907   3.7249  -3.2498   0.00    0.0
2019/02/11 09:12:47.000   4280223.5134  -4034415.4650  -2458267.3069   5  12   4.3529   5.3087   3.3321  -4.2896   3.7240  -3.2489   0.00    0.0
2019/02/11 09:12:48.000   4280223.7700  -4034415.7997  -2458267.7677   5  12   4.3522   5.3075   3.3315  -4.2885   3.7231  -3.2481   0.00    0.0
2019/02/11 09:12:49.000   4280223.9386  -4034415.9956  -2458268.0329   5  12   4.3515   5.3064   3.3309  -4.2875   3.7221  -3.2473   0.00    0.0
2019/02/11 09:12:50.000   4280224.1274  -4034416.0386  -2458267.9959   5  12   4.3508   5.3052   3.3304  -4.2864   3.7212  -3.2465   0.00    0.0
2019/02/11 09:12:51.000   4280223.9969  -4034416.0928  -2458267.9595   5  12   4.3501   5.3041   3.3298  -4.2853   3.7203  -3.2457   0.00    0.0
2019/02/11 09:12:52.000   4280223.7965  -4034416.4001  -2458267.9093   5  12   4.3494   5.3029   3.3293  -4.2842   3.7194  -3.2448   0.00    0.0
2019/02/11 09:12:53.000   4280223.8205  -4034416.7536  -2458267.7339   5  12   4.3486   5.3018   3.3287  -4.2831   3.7185  -3.2440   0.00    0.0
2019/02/11 09:12:54.000   4280223.9710  -4034416.9486  -2458267.6109   5  12   4.3479   5.3006   3.3281  -4.2820   3.7175  -3.2432   0.00    0.0
2019/02/11 09:12:55.000   4280223.8197  -4034416.7605  -2458267.4181   5  12   4.3472   5.2995   3.3276  -4.2809   3.7166  -3.2424   0.00    0.0
2019/02/11 09:12:56.000   4280223.6727  -4034416.7295  -2458267.4852   5  12   4.3465   5.2983   3.3270  -4.2799   3.7157  -3.2415   0.00    0.0
2019/02/11 09:12:57.000   4280223.5114  -4034416.7527  -2458267.4927   5  12   4.3458   5.2972   3.3264  -4.2788   3.7148  -3.2407   0.00    0.0
2019/02/11 09:12:58.000   4280223.6221  -4034416.9747  -2458267.6582   5  12   4.3451   5.2960   3.3259  -4.2777   3.7139  -3.2399   0.00    0.0
2019/02/11 09:12:59.000   4280223.5907  -4034417.0977  -2458267.8036   5  12   4.3443   5.2949   3.3253  -4.2766   3.7129  -3.2391   0.00    0.0
2019/02/11 09:13:00.000   4280223.7191  -4034417.0902  -2458267.5750   5  12   4.3436   5.2937   3.3247  -4.2755   3.7120  -3.2382   0.00    0.0
2019/02/11 09:13:01.000   4280223.8387  -4034416.9021  -2458267.2250   5  12   4.3429   5.2926   3.3242  -4.2744   3.7111  -3.2374   0.00    0.0
2019/02/11 09:13:02.000   4280223.8705  -4034416.6779  -2458266.8609   5  12   4.3422   5.2915   3.3236  -4.2733   3.7102  -3.2366   0.00    0.0
2019/02/11 09:13:03.000   4280224.0588  -4034416.8092  -2458266.8751   5  12   4.3415   5.2903   3.3231  -4.2722   3.7092  -3.2357   0.00    0.0
2019/02/11 09:13:04.000   4280226.2942  -4034417.1788  -2458264.8272   5  11   4.4335   5.2932   3.4187  -4.2929   3.6858  -3.1206   0.00    0.0
2019/02/11 09:13:05.000   4280226.1853  -4034416.9886  -2458265.0084   5  11   4.4331   5.2921   3.4179  -4.2920   3.6848  -3.1197   0.00    0.0
2019/02/11 09:13:06.000   4280224.2372  -4034416.8784  -2458267.4822   5  12   4.3393   5.2869   3.3214  -4.2690   3.7065  -3.2333   0.00    0.0
2019/02/11 09:13:07.000   4280226.7071  -4034418.0710  -2458266.1909   5  11   4.4322   5.2899   3.4164  -4.2902   3.6827  -3.1179   0.00    0.0
2019/02/11 09:13:08.000   4280227.0348  -4034418.5895  -2458266.6019   5  11   4.4318   5.2888   3.4157  -4.2893   3.6816  -3.1170   0.00    0.0
2019/02/11 09:13:09.000   4280227.5007  -4034418.8157  -2458266.8833   5  11   4.4313   5.2877   3.4149  -4.2884   3.6806  -3.1161   0.00    0.0
2019/02/11 09:13:10.000   4280226.0957  -4034418.5559  -2458268.7237   5  12   4.3364   5.2823   3.3191  -4.2646   3.7028  -3.2300   0.00    0.0
2019/02/11 09:13:11.000   4280226.5485  -4034418.8258  -2458268.7515   5  12   4.3357   5.2811   3.3185  -4.2635   3.7019  -3.2291   0.00    0.0
2019/02/11 09:13:12.000   4280227.1465  -4034419.2868  -2458268.9796   5  12   4.3350   5.2800   3.3180  -4.2624   3.7009  -3.2283   0.00    0.0
2019/02/11 09:13:13.000   4280227.6204  -4034419.9881  -2458269.2995   5  12   4.3343   5.2788   3.3174  -4.2614   3.7000  -3.2275   0.00    0.0
2019/02/11 09:13:14.000   4280227.9002  -4034420.6091  -2458269.4801   5  12   4.3336   5.2777   3.3168  -4.2603   3.6991  -3.2266   0.00    0.0
2019/02/11 09:13:15.000   4280228.1195  -4034420.9858  -2458269.6144   5  12   4.3329   5.2765   3.3163  -4.2592   3.6982  -3.2258   0.00    0.0
2019/02/11 09:13:16.000   4280228.2752  -4034421.1721  -2458269.7232   5  12   4.3321   5.2754   3.3157  -4.2581   3.6972  -3.2250   0.00    0.0
2019/02/11 09:13:17.000   4280228.0680  -4034421.0358  -2458269.5467   5  12   4.3314   5.2742   3.3152  -4.2570   3.6963  -3.2242   0.00    0.0
2019/02/11 09:13:18.000   4280228.1195  -4034421.2126  -2458269.6074   5  12   4.3307   5.2731   3.3146  -4.2559   3.6954  -3.2233   0.00    0.0
2019/02/11 09:13:19.000   4280228.3000  -4034421.6189  -2458269.9552   5  12   4.3300   5.2719   3.3140  -4.2548   3.6945  -3.2225   0.00    0.0
2019/02/11 09:13:20.000   4280228.5487  -4034422.0089  -2458270.3571   5  12   4.3293   5.2708   3.3135  -4.2537   3.6935  -3.2217   0.00    0.0
2019/02/11 09:13:21.000   4280228.3976  -4034421.9247  -2458270.2680   5  12   4.3286   5.2697   3.3129  -4.2526   3.6926  -3.2208   0.00    0.0
2019/02/11 09:13:22.000   4280228.4135  -4034421.7818  -2458270.1071   5  12   4.3278   5.2685   3.3123  -4.2515   3.6917  -3.2200   0.00    0.0
2019/02/11 09:13:23.000   4280228.5425  -4034421.8592  -2458270.1461   5  12   4.3271   5.2674   3.3118  -4.2505   3.6908  -3.2192   0.00    0.0
2019/02/11 09:13:24.000   4280228.7410  -4034421.8406  -2458270.3035   5  12   4.3264   5.2662   3.3112  -4.2494   3.6898  -3.2183   0.00    0.0
2019/02/11 09:13:25.000   4280228.9421  -4034421.9575  -2458270.3446   5  12   4.3257   5.2651   3.3106  -4.2483   3.6889  -3.2175   0.00    0.0
2019/02/11 09:13:26.000   4280229.2189  -4034422.3468  -2458270.2950   5  12   4.3250   5.2639   3.3101  -4.2472   3.6880  -3.2167   0.00    0.0
2019/02/11 09:13:27.000   4280229.0727  -4034422.6483  -2458270.2471   5  12   4.3243   5.2628   3.3095  -4.2461   3.6871  -3.2159   0.00    0.0
2019/02/11 09:13:28.000   4280228.6366  -4034422.7963  -2458270.2658   5  12   4.3235   5.2616   3.3089  -4.2450   3.6861  -3.2150   0.00    0.0
2019/02/11 09:13:29.000   4280228.2928  -4034422.7870  -2458270.3842   5  12   4.3228   5.2605   3.3084  -4.2439   3.6852  -3.2142   0.00    0.0
2019/02/11 09:13:30.000   4280228.2578  -4034422.8812  -2458270.3811   5  12   4.3221   5.2593   3.3078  -4.2428   3.6843  -3.2134   0.00    0.0
2019/02/11 09:13:31.000   4280228.1637  -4034422.9339  -2458270.2622   5  12   4.3214   5.2582   3.3072  -4.2417   3.6834  -3.2125   0.00    0.0
2019/02/11 09:13:32.000   4280228.2358  -4034423.1997  -2458270.0559   5  12   4.3207   5.2570   3.3067  -4.2406   3.6824  -3.2117   0.00    0.0
2019/02/11 09:13:33.000   4280228.2133  -4034423.4036  -2458269.6763   5  12   4.3199   5.2559   3.3061  -4.2395   3.6815  -3.2109   0.00    0.0
2019/02/11 09:13:34.000   4280228.0473  -4034423.0971  -2458269.1404   5  12   4.3192   5.2547   3.3055  -4.2384   3.6806  -3.2100   0.00    0.0
2019/02/11 09:13:35.000   4280227.7087  -4034422.4266  -2458268.6282   5  12   4.3185   5.2536   3.3050  -4.2374   3.6797  -3.2092   0.00    0.0
2019/02/11 09:13:36.000   4280227.7659  -4034422.2773  -2458268.5065   5  12   4.3178   5.2524   3.3044  -4.2363   3.6787  -3.2084   0.00    0.0
2019/02/11 09:13:37.000   4280228.1070  -4034422.4763  -2458268.7567   5  12   4.3171   5.2513   3.3038  -4.2352   3.6778  -3.2075   0.00    0.0
2019/02/11 09:13:38.000   4280228.0934  -4034422.4246  -2458268.8014   5  12   4.3164   5.2501   3.3033  -4.2341   3.6769  -3.2067   0.00    0.0
2019/02/11 09:13:39.000   4280227.8803  -4034421.9177  -2458268.6908   5  12   4.3156   5.2490   3.3027  -4.2330   3.6759  -3.2059   0.00    0.0
2019/02/11 09:13:40.000   4280227.6669  -4034421.3797  -2458268.5293   5  12   4.3149   5.2478   3.3021  -4.2319   3.6750  -3.2050   0.00    0.0
2019/02/11 09:13:41.000   4280227.4612  -4034420.9399  -2458268.6100   5  12   4.3142   5.2467   3.3016  -4.2308   3.6741  -3.2042   0.00    0.0
2019/02/11 09:13:42.000   4280227.1824  -4034420.4068  -2458268.6463   5  12   4.3135   5.2455   3.3010  -4.2297   3.6732  -3.2034   0.00    0.0
2019/02/11 09:13:43.000   4280227.0113  -4034420.0992  -2458268.6180   5  12   4.3128   5.2444   3.3005  -4.2286   3.6722  -3.2025   0.00    0.0
2019/02/11 09:13:44.000   4280227.0042  -4034420.3499  -2458268.6170   5  12   4.3121   5.2432   3.2999  -4.2275   3.6713  -3.2017   0.00    0.0
2019/02/11 09:13:45.000   4280227.0467  -4034420.4049  -2458268.2549   5  12   4.3113   5.2421   3.2993  -4.2264   3.6704  -3.2009   0.00    0.0
2019/02/11 09:13:46.000   4280226.8210  -4034420.0473  -2458267.6827   5  12   4.3106   5.2409   3.2988  -4.2253   3.6695  -3.2000   0.00    0.0
2019/02/11 09:13:47.000   4280226.6158  -4034419.5284  -2458267.0015   5  12   4.3099   5.2398   3.2982  -4.2242   3.6685  -3.1992   0.00    0.0
2019/02/11 09:13:48.000   4280226.6154  -4034419.3149  -2458266.5103   5  12   4.3092   5.2387   3.2976  -4.2231   3.6676  -3.1984   0.00    0.0
2019/02/11 09:13:49.000   4280226.6727  -4034419.1851  -2458266.1770   5  12   4.3085   5.2375   3.2971  -4.2220   3.6667  -3.1975   0.00    0.0
2019/02/11 09:13:50.000   4280226.4966  -4034418.6715  -2458265.7604   5  12   4.3078   5.2364   3.2965  -4.2210   3.6657  -3.1967   0.00    0.0
2019/02/11 09:13:51.000   4280226.4023  -4034418.5494  -2458265.6332   5  12   4.3070   5.2352   3.2959  -4.2199   3.6648  -3.1959   0.00    0.0
2019/02/11 09:13:52.000   4280226.4949  -4034418.6954  -2458265.6832   5  12   4.3063   5.2341   3.2954  -4.2188   3.6639  -3.1950   0.00    0.0
2019/02/11 09:13:53.000   4280226.5127  -4034418.7069  -2458265.6519   5  12   4.3056   5.2329   3.2948  -4.2177   3.6630  -3.1942   0.00    0.0
2019/02/11 09:13:54.000   4280226.5533  -4034418.7915  -2458265.6736   5  12   4.3049   5.2318   3.2942  -4.2166   3.6620  -3.1934   0.00    0.0
2019/02/11 09:13:55.000   4280226.5280  -4034418.6418  -2458265.5030   5  12   4.3042   5.2306   3.2937  -4.2155   3.6611  -3.1925   0.00    0.0
2019/02/11 09:13:56.000   4280226.4445  -4034418.5734  -2458265.4469   5  12   4.3034   5.2295   3.2931  -4.2144   3.6602  -3.1917   0.00    0.0
2019/02/11 09:13:57.000   4280226.4270  -4034418.6018  -2458265.5575   5  12   4.3027   5.2283   3.2925  -4.2133   3.6592  -3.1909   0.00    0.0
2019/02/11 09:13:58.000   4280226.5058  -4034418.8196  -2458265.8347   5  12   4.3020   5.2272   3.2920  -4.2122   3.6583  -3.1900   0.00    0.0
2019/02/11 09:13:59.000   4280226.5538  -4034418.7480  -2458265.8446   5  12   4.3013   5.2260   3.2914  -4.2111   3.6574  -3.1892   0.00    0.0
2019/02/11 09:14:00.000   4280226.5206  -4034418.5859  -2458265.6274   5  12   4.3006   5.2249   3.2908  -4.2100   3.6565  -3.1884   0.00    0.0
2019/02/11 09:14:01.000   4280226.4160  -4034418.0322  -2458265.3317   5  12   4.2999   5.2237   3.2903  -4.2089   3.6555  -3.1875   0.00    0.0
2019/02/11 09:14:02.000   4280226.2307  -4034417.4812  -2458265.0077   5  12   4.2991   5.2226   3.2897  -4.2078   3.6546  -3.1867   0.00    0.0
2019/02/11 09:14:03.000   4280226.0531  -4034417.2365  -2458264.8947   5  12   4.2984   5.2214   3.2891  -4.2067   3.6537  -3.1859   0.00    0.0
2019/02/11 09:14:04.000   4280225.6324  -4034416.8263  -2458264.4985   5  12   4.2977   5.2203   3.2886  -4.2056   3.6527  -3.1850   0.00    0.0
2019/02/11 09:14:05.000   4280225.6503  -4034416.9227  -2458264.3762   5  12   4.2970   5.2191   3.2880  -4.2045   3.6518  -3.1842   0.00    0.0
2019/02/11 09:14:06.000   4280225.8179  -4034417.0379  -2458264.3736   5  12   4.2963   5.2180   3.2874  -4.2034   3.6509  -3.1834   0.00    0.0
2019/02/11 09:14:07.000   4280226.0860  -4034417.1184  -2458264.3264   5  12   4.2956   5.2168   3.2869  -4.2023   3.6499  -3.1825   0.00    0.0
2019/02/11 09:14:08.000   4280226.2941  -4034417.0750  -2458264.2434   5  12   4.2948   5.2157   3.2863  -4.2012   3.6490  -3.1817   0.00    0.0
2019/02/11 09:14:09.000   4280226.4718  -4034417.1423  -2458264.4931   5  12   4.2941   5.2145   3.2857  -4.2001   3.6481  -3.1808   0.00    0.0
2019/02/11 09:14:10.000   4280226.2753  -4034417.1407  -2458264.6037   5  12   4.2934   5.2134   3.2852  -4.1991   3.6472  -3.1800   0.00    0.0
2019/02/11 09:14:11.000   4280225.8967  -4034417.3882  -2458264.6278   5  12   4.2927   5.2122   3.2846  -4.1980   3.6462  -3.1792   0.00    0.0
2019/02/11 09:14:12.000   4280225.4163  -4034417.2179  -2458264.4556   5  12   4.2920   5.2111   3.2840  -4.1969   3.6453  -3.1783   0.00    0.0
2019/02/11 09:14:13.000   4280225.0397  -4034416.8026  -2458264.3272   5  12   4.2913   5.2099   3.2835  -4.1958   3.6444  -3.1775   0.00    0.0
2019/02/11 09:14:14.000   4280224.8254  -4034416.3007  -2458264.2035   5  12   4.2905   5.2088   3.2829  -4.1947   3.6434  -3.1767   0.00    0.0
2019/02/11 09:14:15.000   4280224.9676  -4034416.1087  -2458264.2631   5  12   4.2898   5.2077   3.2823  -4.1936   3.6425  -3.1758   0.00    0.0
