% program   : RTKPOST ver.2.4.2
% inp file  : D:\Google Drive\UERJ\_Projeto Final\Python\tcc-guilherme\20190115_Levantamento_8min_Smooth.19o
% inp file  : D:\Google Drive\UERJ\_Projeto Final\20190115_Marco 91500 IBGE\brdm0150.19p
% obs start : 2019/01/15 09:34:43.0 GPST (week2036 207283.0s)
% obs end   : 2019/01/15 09:52:37.0 GPST (week2036 208357.0s)
% pos mode  : single
% elev mask : 15.0 deg
% ionos opt : off
% tropo opt : saastamoinen
% ephemeris : broadcast
%
% (x/y/z-ecef=WGS84,Q=1:fix,2:float,3:sbas,4:dgps,5:single,6:ppp,ns=# of satellites)
%  GPST                      x-ecef(m)      y-ecef(m)      z-ecef(m)   Q  ns   sdx(m)   sdy(m)   sdz(m)  sdxy(m)  sdyz(m)  sdzx(m) age(s)  ratio
2019/01/15 09:34:43.000   4280201.3251  -4034391.6810  -2458261.1705   5   5   9.8761   9.8555  11.5387  -8.4677  -1.4124  -5.7028   0.00    0.0
2019/01/15 09:34:44.000   4280216.6696  -4034413.5534  -2458240.0400   5   6   9.1627   6.9480  10.1653  -6.7780   6.0086  -7.2520   0.00    0.0
2019/01/15 09:34:45.000   4280227.7719  -4034410.1576  -2458256.6657   5   6   9.1625   6.9472  10.1624  -6.7775   6.0068  -7.2498   0.00    0.0
2019/01/15 09:34:46.000   4280217.4201  -4034405.8339  -2458272.1442   5   6   9.1623   6.9465  10.1595  -6.7770   6.0050  -7.2477   0.00    0.0
2019/01/15 09:34:47.000   4280231.2806  -4034420.8979  -2458276.5484   5   6   9.1622   6.9458  10.1566  -6.7765   6.0032  -7.2456   0.00    0.0
2019/01/15 09:34:48.000   4280234.8121  -4034425.1272  -2458274.9733   5   6   9.1620   6.9451  10.1537  -6.7760   6.0014  -7.2435   0.00    0.0
2019/01/15 09:34:49.000   4280217.2738  -4034406.8389  -2458272.8050   5   6   9.1619   6.9444  10.1508  -6.7756   5.9996  -7.2414   0.00    0.0
2019/01/15 09:34:50.000   4280220.2847  -4034407.0309  -2458276.6275   5   6   9.1617   6.9437  10.1480  -6.7751   5.9978  -7.2393   0.00    0.0
2019/01/15 09:34:51.000   4280223.7207  -4034406.0393  -2458275.5596   5   6   9.1615   6.9429  10.1451  -6.7746   5.9960  -7.2371   0.00    0.0
2019/01/15 09:34:52.000   4280225.0190  -4034415.1049  -2458270.8078   5   6   9.1614   6.9422  10.1422  -6.7742   5.9942  -7.2350   0.00    0.0
2019/01/15 09:34:53.000   4280226.0220  -4034416.4959  -2458270.9404   5   6   9.1612   6.9415  10.1393  -6.7737   5.9924  -7.2329   0.00    0.0
2019/01/15 09:34:54.000   4280223.6400  -4034417.8841  -2458269.7916   5   6   9.1611   6.9408  10.1364  -6.7732   5.9906  -7.2308   0.00    0.0
2019/01/15 09:34:55.000   4280219.7289  -4034415.1068  -2458268.2351   5   6   9.1609   6.9401  10.1336  -6.7728   5.9888  -7.2287   0.00    0.0
2019/01/15 09:34:56.000   4280221.1938  -4034415.4711  -2458273.1303   5   6   9.1608   6.9394  10.1307  -6.7723   5.9870  -7.2266   0.00    0.0
2019/01/15 09:34:57.000   4280222.4426  -4034415.5719  -2458280.1416   5   6   9.1606   6.9387  10.1278  -6.7718   5.9852  -7.2245   0.00    0.0
2019/01/15 09:34:58.000   4280224.1930  -4034419.7954  -2458281.6333   5   6   9.1605   6.9380  10.1249  -6.7714   5.9835  -7.2224   0.00    0.0
2019/01/15 09:34:59.000   4280223.2447  -4034420.3181  -2458281.4465   5   6   9.1603   6.9372  10.1221  -6.7709   5.9817  -7.2203   0.00    0.0
2019/01/15 09:35:00.000   4280225.4043  -4034421.5659  -2458284.0448   5   6   9.1602   6.9365  10.1192  -6.7705   5.9799  -7.2182   0.00    0.0
2019/01/15 09:35:01.000   4280224.9270  -4034420.8216  -2458284.4704   5   6   9.1600   6.9358  10.1163  -6.7700   5.9781  -7.2161   0.00    0.0
2019/01/15 09:35:02.000   4280224.9358  -4034420.8889  -2458284.4940   5   6   9.1599   6.9351  10.1135  -6.7695   5.9763  -7.2140   0.00    0.0
2019/01/15 09:35:03.000   4280225.9778  -4034421.4939  -2458285.5935   5   6   9.1597   6.9344  10.1106  -6.7691   5.9745  -7.2119   0.00    0.0
2019/01/15 09:35:04.000   4280226.3862  -4034421.7286  -2458285.9020   5   6   9.1596   6.9337  10.1077  -6.7686   5.9727  -7.2098   0.00    0.0
2019/01/15 09:35:05.000   4280226.3469  -4034421.5717  -2458285.6929   5   6   9.1595   6.9330  10.1048  -6.7682   5.9710  -7.2077   0.00    0.0
2019/01/15 09:35:06.000   4280226.0441  -4034421.2102  -2458285.1925   5   6   9.1593   6.9323  10.1020  -6.7677   5.9692  -7.2056   0.00    0.0
2019/01/15 09:35:07.000   4280225.8802  -4034421.0355  -2458284.8489   5   6   9.1592   6.9316  10.0991  -6.7673   5.9674  -7.2035   0.00    0.0
2019/01/15 09:35:08.000   4280226.0130  -4034421.1098  -2458284.6449   5   6   9.1590   6.9309  10.0963  -6.7668   5.9656  -7.2014   0.00    0.0
2019/01/15 09:35:09.000   4280225.6985  -4034420.9416  -2458284.1728   5   6   9.1589   6.9302  10.0934  -6.7664   5.9639  -7.1993   0.00    0.0
2019/01/15 09:35:10.000   4280225.4669  -4034421.0001  -2458283.6684   5   6   9.1588   6.9295  10.0905  -6.7659   5.9621  -7.1972   0.00    0.0
2019/01/15 09:35:11.000   4280225.2458  -4034421.1412  -2458283.1111   5   6   9.1586   6.9288  10.0877  -6.7655   5.9603  -7.1951   0.00    0.0
2019/01/15 09:35:12.000   4280224.7067  -4034420.9726  -2458282.0616   5   6   9.1585   6.9281  10.0848  -6.7650   5.9585  -7.1930   0.00    0.0
2019/01/15 09:35:13.000   4280224.8361  -4034420.8738  -2458281.1009   5   6   9.1584   6.9274  10.0820  -6.7646   5.9568  -7.1909   0.00    0.0
2019/01/15 09:35:14.000   4280224.8997  -4034420.7075  -2458280.3358   5   6   9.1582   6.9267  10.0791  -6.7641   5.9550  -7.1888   0.00    0.0
2019/01/15 09:35:15.000   4280225.0332  -4034420.8916  -2458280.2788   5   6   9.1581   6.9260  10.0763  -6.7637   5.9532  -7.1868   0.00    0.0
2019/01/15 09:35:16.000   4280225.1653  -4034421.2377  -2458280.5242   5   6   9.1580   6.9253  10.0734  -6.7632   5.9515  -7.1847   0.00    0.0
2019/01/15 09:35:17.000   4280225.3346  -4034421.4522  -2458280.3250   5   6   9.1578   6.9246  10.0705  -6.7628   5.9497  -7.1826   0.00    0.0
2019/01/15 09:35:18.000   4280225.4172  -4034421.5145  -2458280.1771   5   6   9.1577   6.9239  10.0677  -6.7623   5.9479  -7.1805   0.00    0.0
2019/01/15 09:35:19.000   4280225.4037  -4034421.3694  -2458279.9219   5   6   9.1576   6.9232  10.0648  -6.7619   5.9462  -7.1784   0.00    0.0
2019/01/15 09:35:20.000   4280225.0402  -4034421.1720  -2458279.4284   5   6   9.1575   6.9225  10.0620  -6.7615   5.9444  -7.1763   0.00    0.0
2019/01/15 09:35:21.000   4280224.5292  -4034420.9124  -2458278.8394   5   6   9.1573   6.9218  10.0591  -6.7610   5.9427  -7.1743   0.00    0.0
2019/01/15 09:35:22.000   4280224.1927  -4034420.8191  -2458278.3596   5   6   9.1572   6.9212  10.0563  -6.7606   5.9409  -7.1722   0.00    0.0
2019/01/15 09:35:23.000   4280224.0187  -4034420.8035  -2458278.5114   5   6   9.1571   6.9205  10.0534  -6.7601   5.9391  -7.1701   0.00    0.0
2019/01/15 09:35:24.000   4280224.2587  -4034420.8460  -2458278.9717   5   6   9.1570   6.9198  10.0506  -6.7597   5.9374  -7.1680   0.00    0.0
2019/01/15 09:35:25.000   4280224.8181  -4034421.0155  -2458279.7086   5   6   9.1569   6.9191  10.0478  -6.7593   5.9356  -7.1660   0.00    0.0
2019/01/15 09:35:26.000   4280225.0955  -4034421.2090  -2458279.9901   5   6   9.1567   6.9184  10.0449  -6.7588   5.9339  -7.1639   0.00    0.0
2019/01/15 09:35:27.000   4280225.0916  -4034421.5117  -2458280.3098   5   6   9.1566   6.9177  10.0421  -6.7584   5.9321  -7.1618   0.00    0.0
2019/01/15 09:35:28.000   4280225.0098  -4034421.6774  -2458280.4569   5   6   9.1565   6.9170  10.0392  -6.7580   5.9304  -7.1597   0.00    0.0
2019/01/15 09:35:29.000   4280224.9376  -4034421.6088  -2458280.6577   5   6   9.1564   6.9163  10.0364  -6.7575   5.9286  -7.1577   0.00    0.0
2019/01/15 09:35:30.000   4280225.0471  -4034421.3982  -2458280.6616   5   6   9.1563   6.9157  10.0336  -6.7571   5.9269  -7.1556   0.00    0.0
2019/01/15 09:35:31.000   4280225.3553  -4034421.3548  -2458280.5840   5   6   9.1562   6.9150  10.0307  -6.7567   5.9251  -7.1535   0.00    0.0
2019/01/15 09:35:32.000   4280225.5845  -4034421.3329  -2458280.5599   5   6   9.1561   6.9143  10.0279  -6.7563   5.9234  -7.1515   0.00    0.0
2019/01/15 09:35:33.000   4280225.6451  -4034421.3479  -2458280.4467   5   6   9.1559   6.9136  10.0250  -6.7558   5.9216  -7.1494   0.00    0.0
2019/01/15 09:35:34.000   4280225.1037  -4034421.0679  -2458280.3313   5   6   9.1558   6.9129  10.0222  -6.7554   5.9199  -7.1473   0.00    0.0
2019/01/15 09:35:35.000   4280225.1035  -4034421.0353  -2458280.3006   5   6   9.1557   6.9122  10.0194  -6.7550   5.9181  -7.1453   0.00    0.0
2019/01/15 09:35:36.000   4280225.2695  -4034421.2867  -2458280.3520   5   6   9.1556   6.9116  10.0165  -6.7545   5.9164  -7.1432   0.00    0.0
2019/01/15 09:35:37.000   4280225.7348  -4034421.3029  -2458280.2769   5   6   9.1555   6.9109  10.0137  -6.7541   5.9146  -7.1412   0.00    0.0
2019/01/15 09:35:38.000   4280225.5997  -4034420.8812  -2458279.9584   5   6   9.1554   6.9102  10.0109  -6.7537   5.9129  -7.1391   0.00    0.0
2019/01/15 09:35:39.000   4280225.3891  -4034420.4710  -2458279.6317   5   6   9.1553   6.9095  10.0080  -6.7533   5.9111  -7.1370   0.00    0.0
2019/01/15 09:35:40.000   4280225.2340  -4034420.1256  -2458279.6332   5   6   9.1552   6.9088  10.0052  -6.7529   5.9094  -7.1350   0.00    0.0
2019/01/15 09:35:41.000   4280225.2311  -4034420.0608  -2458279.4074   5   6   9.1551   6.9082  10.0024  -6.7524   5.9077  -7.1329   0.00    0.0
2019/01/15 09:35:42.000   4280225.3169  -4034420.0261  -2458279.0065   5   6   9.1550   6.9075   9.9996  -6.7520   5.9059  -7.1309   0.00    0.0
2019/01/15 09:35:43.000   4280224.9223  -4034419.7548  -2458278.1762   5   6   9.1549   6.9068   9.9967  -6.7516   5.9042  -7.1288   0.00    0.0
2019/01/15 09:35:44.000   4280224.9565  -4034419.7441  -2458277.5444   5   6   9.1548   6.9061   9.9939  -6.7512   5.9025  -7.1268   0.00    0.0
2019/01/15 09:35:45.000   4280224.2387  -4034419.0613  -2458276.7597   5   6   9.1547   6.9055   9.9911  -6.7508   5.9007  -7.1247   0.00    0.0
2019/01/15 09:35:46.000   4280223.5912  -4034418.3119  -2458276.3928   5   6   9.1546   6.9048   9.9883  -6.7504   5.8990  -7.1227   0.00    0.0
2019/01/15 09:35:47.000   4280222.7396  -4034417.5120  -2458276.1437   5   6   9.1545   6.9041   9.9855  -6.7499   5.8973  -7.1206   0.00    0.0
2019/01/15 09:35:48.000   4280222.2218  -4034417.1446  -2458276.1311   5   6   9.1544   6.9035   9.9826  -6.7495   5.8955  -7.1186   0.00    0.0
2019/01/15 09:35:49.000   4280221.8897  -4034416.7739  -2458275.9947   5   6   9.1543   6.9028   9.9798  -6.7491   5.8938  -7.1165   0.00    0.0
2019/01/15 09:35:50.000   4280221.8587  -4034416.7557  -2458276.0404   5   6   9.1542   6.9021   9.9770  -6.7487   5.8921  -7.1145   0.00    0.0
2019/01/15 09:35:51.000   4280221.9111  -4034416.9275  -2458276.4440   5   6   9.1541   6.9014   9.9742  -6.7483   5.8903  -7.1124   0.00    0.0
2019/01/15 09:35:52.000   4280222.3537  -4034417.3719  -2458276.5147   5   6   9.1541   6.9008   9.9714  -6.7479   5.8886  -7.1104   0.00    0.0
2019/01/15 09:35:53.000   4280222.0864  -4034417.4693  -2458276.2602   5   6   9.1540   6.9001   9.9685  -6.7475   5.8869  -7.1083   0.00    0.0
2019/01/15 09:35:54.000   4280222.0880  -4034417.9015  -2458275.9714   5   6   9.1539   6.8994   9.9657  -6.7471   5.8852  -7.1063   0.00    0.0
2019/01/15 09:35:55.000   4280222.4687  -4034418.4135  -2458276.0124   5   6   9.1538   6.8988   9.9629  -6.7467   5.8835  -7.1042   0.00    0.0
2019/01/15 09:35:56.000   4280222.7104  -4034418.8158  -2458275.9978   5   6   9.1537   6.8981   9.9601  -6.7463   5.8817  -7.1022   0.00    0.0
2019/01/15 09:35:57.000   4280222.8539  -4034419.1036  -2458276.1386   5   6   9.1536   6.8974   9.9573  -6.7459   5.8800  -7.1002   0.00    0.0
2019/01/15 09:35:58.000   4280222.9283  -4034419.1956  -2458276.3856   5   6   9.1535   6.8968   9.9545  -6.7455   5.8783  -7.0981   0.00    0.0
2019/01/15 09:35:59.000   4280223.3100  -4034419.5550  -2458276.6724   5   6   9.1535   6.8961   9.9517  -6.7451   5.8766  -7.0961   0.00    0.0
2019/01/15 09:36:00.000   4280223.9244  -4034420.0639  -2458276.8879   5   6   9.1534   6.8955   9.9489  -6.7447   5.8749  -7.0941   0.00    0.0
2019/01/15 09:36:01.000   4280224.6082  -4034420.4609  -2458277.1848   5   6   9.1533   6.8948   9.9461  -6.7443   5.8731  -7.0920   0.00    0.0
2019/01/15 09:36:02.000   4280225.2611  -4034420.9301  -2458277.2432   5   6   9.1532   6.8941   9.9433  -6.7439   5.8714  -7.0900   0.00    0.0
2019/01/15 09:36:03.000   4280225.0307  -4034420.9449  -2458276.4288   5   6   9.1531   6.8935   9.9405  -6.7435   5.8697  -7.0880   0.00    0.0
2019/01/15 09:36:04.000   4280224.5192  -4034420.6183  -2458275.8872   5   6   9.1531   6.8928   9.9377  -6.7431   5.8680  -7.0859   0.00    0.0
2019/01/15 09:36:05.000   4280223.8169  -4034420.1905  -2458275.6861   5   6   9.1530   6.8922   9.9349  -6.7427   5.8663  -7.0839   0.00    0.0
2019/01/15 09:36:06.000   4280223.3171  -4034419.8115  -2458275.3252   5   6   9.1529   6.8915   9.9321  -6.7423   5.8646  -7.0819   0.00    0.0
2019/01/15 09:36:07.000   4280222.9955  -4034419.5209  -2458275.4942   5   6   9.1528   6.8908   9.9293  -6.7419   5.8629  -7.0798   0.00    0.0
2019/01/15 09:36:08.000   4280222.7552  -4034419.3974  -2458276.0734   5   6   9.1528   6.8902   9.9265  -6.7415   5.8612  -7.0778   0.00    0.0
2019/01/15 09:36:09.000   4280222.5818  -4034419.2520  -2458276.3980   5   6   9.1527   6.8895   9.9237  -6.7411   5.8595  -7.0758   0.00    0.0
2019/01/15 09:36:10.000   4280222.2698  -4034419.1379  -2458276.4281   5   6   9.1526   6.8889   9.9209  -6.7407   5.8578  -7.0738   0.00    0.0
2019/01/15 09:36:11.000   4280221.7836  -4034418.8041  -2458276.3297   5   6   9.1526   6.8882   9.9181  -6.7403   5.8560  -7.0717   0.00    0.0
2019/01/15 09:36:12.000   4280220.9597  -4034418.1577  -2458276.2779   5   6   9.1525   6.8876   9.9153  -6.7399   5.8543  -7.0697   0.00    0.0
2019/01/15 09:36:13.000   4280220.3948  -4034417.7108  -2458276.0977   5   6   9.1524   6.8869   9.9125  -6.7395   5.8526  -7.0677   0.00    0.0
2019/01/15 09:36:14.000   4280220.0645  -4034417.4939  -2458276.1073   5   6   9.1524   6.8863   9.9097  -6.7392   5.8509  -7.0657   0.00    0.0
2019/01/15 09:36:15.000   4280220.1801  -4034417.5760  -2458276.2987   5   6   9.1523   6.8856   9.9069  -6.7388   5.8492  -7.0637   0.00    0.0
2019/01/15 09:36:16.000   4280220.2616  -4034417.5900  -2458276.4651   5   6   9.1522   6.8850   9.9041  -6.7384   5.8475  -7.0616   0.00    0.0
2019/01/15 09:36:17.000   4280220.1580  -4034417.1355  -2458276.0222   5   6   9.1522   6.8843   9.9013  -6.7380   5.8458  -7.0596   0.00    0.0
2019/01/15 09:36:18.000   4280219.6641  -4034416.1288  -2458275.3087   5   6   9.1521   6.8837   9.8985  -6.7376   5.8441  -7.0576   0.00    0.0
2019/01/15 09:36:19.000   4280219.2560  -4034415.2463  -2458274.7083   5   6   9.1521   6.8830   9.8958  -6.7372   5.8425  -7.0556   0.00    0.0
2019/01/15 09:36:20.000   4280218.3611  -4034414.0257  -2458274.3557   5   6   9.1520   6.8824   9.8930  -6.7369   5.8408  -7.0536   0.00    0.0
2019/01/15 09:36:21.000   4280217.5559  -4034413.1233  -2458274.1481   5   6   9.1519   6.8817   9.8902  -6.7365   5.8391  -7.0516   0.00    0.0
2019/01/15 09:36:22.000   4280217.0371  -4034412.4207  -2458274.0327   5   6   9.1519   6.8811   9.8874  -6.7361   5.8374  -7.0496   0.00    0.0
2019/01/15 09:36:23.000   4280216.6109  -4034412.2456  -2458273.6485   5   6   9.1518   6.8804   9.8846  -6.7357   5.8357  -7.0476   0.00    0.0
2019/01/15 09:36:24.000   4280216.8580  -4034412.6756  -2458273.7975   5   6   9.1518   6.8798   9.8818  -6.7353   5.8340  -7.0456   0.00    0.0
2019/01/15 09:36:25.000   4280217.3963  -4034413.3357  -2458274.1393   5   6   9.1517   6.8791   9.8791  -6.7350   5.8323  -7.0435   0.00    0.0
2019/01/15 09:36:26.000   4280217.7034  -4034413.5776  -2458274.0507   5   6   9.1517   6.8785   9.8763  -6.7346   5.8306  -7.0415   0.00    0.0
2019/01/15 09:36:27.000   4280218.4083  -4034413.9503  -2458274.0888   5   6   9.1516   6.8779   9.8735  -6.7342   5.8289  -7.0395   0.00    0.0
2019/01/15 09:36:28.000   4280218.9441  -4034414.0981  -2458274.0970   5   6   9.1516   6.8772   9.8707  -6.7338   5.8272  -7.0375   0.00    0.0
2019/01/15 09:36:29.000   4280218.9822  -4034413.9520  -2458273.9731   5   6   9.1515   6.8766   9.8680  -6.7335   5.8256  -7.0355   0.00    0.0
2019/01/15 09:36:30.000   4280218.8675  -4034413.8985  -2458273.9042   5   6   9.1515   6.8759   9.8652  -6.7331   5.8239  -7.0335   0.00    0.0
2019/01/15 09:36:31.000   4280218.4843  -4034413.7223  -2458274.0067   5   6   9.1514   6.8753   9.8624  -6.7327   5.8222  -7.0315   0.00    0.0
2019/01/15 09:36:32.000   4280217.9717  -4034413.2973  -2458274.0761   5   6   9.1514   6.8747   9.8596  -6.7324   5.8205  -7.0295   0.00    0.0
2019/01/15 09:36:33.000   4280218.0295  -4034413.2789  -2458274.2932   5   6   9.1513   6.8740   9.8569  -6.7320   5.8188  -7.0275   0.00    0.0
2019/01/15 09:36:34.000   4280218.0470  -4034413.1161  -2458274.8342   5   6   9.1513   6.8734   9.8541  -6.7316   5.8172  -7.0255   0.00    0.0
2019/01/15 09:36:35.000   4280218.5943  -4034413.2432  -2458275.3108   5   6   9.1512   6.8727   9.8513  -6.7313   5.8155  -7.0235   0.00    0.0
2019/01/15 09:36:36.000   4280219.1182  -4034413.4618  -2458275.5273   5   6   9.1512   6.8721   9.8486  -6.7309   5.8138  -7.0215   0.00    0.0
2019/01/15 09:36:37.000   4280219.7743  -4034413.7674  -2458275.5951   5   6   9.1512   6.8715   9.8458  -6.7305   5.8121  -7.0195   0.00    0.0
2019/01/15 09:36:38.000   4280219.9980  -4034413.8747  -2458275.2193   5   6   9.1511   6.8708   9.8430  -6.7302   5.8105  -7.0176   0.00    0.0
2019/01/15 09:36:39.000   4280219.5942  -4034413.6904  -2458274.6738   5   6   9.1511   6.8702   9.8403  -6.7298   5.8088  -7.0156   0.00    0.0
2019/01/15 09:36:40.000   4280219.4399  -4034413.7150  -2458274.1580   5   6   9.1510   6.8696   9.8375  -6.7294   5.8071  -7.0136   0.00    0.0
2019/01/15 09:36:41.000   4280219.2122  -4034413.7166  -2458273.5514   5   6   9.1510   6.8689   9.8347  -6.7291   5.8054  -7.0116   0.00    0.0
2019/01/15 09:36:42.000   4280219.7757  -4034414.2980  -2458273.5112   5   6   9.1510   6.8683   9.8320  -6.7287   5.8038  -7.0096   0.00    0.0
2019/01/15 09:36:43.000   4280220.5633  -4034415.0669  -2458273.3035   5   6   9.1509   6.8677   9.8292  -6.7284   5.8021  -7.0076   0.00    0.0
2019/01/15 09:36:44.000   4280220.9785  -4034415.5681  -2458273.2316   5   6   9.1509   6.8670   9.8264  -6.7280   5.8004  -7.0056   0.00    0.0
2019/01/15 09:36:45.000   4280221.8672  -4034416.1128  -2458273.4894   5   6   9.1509   6.8664   9.8237  -6.7276   5.7988  -7.0036   0.00    0.0
2019/01/15 09:36:46.000   4280222.4777  -4034416.2225  -2458273.4071   5   6   9.1508   6.8658   9.8209  -6.7273   5.7971  -7.0017   0.00    0.0
2019/01/15 09:36:47.000   4280223.0020  -4034416.3988  -2458273.0477   5   6   9.1508   6.8652   9.8182  -6.7269   5.7954  -6.9997   0.00    0.0
2019/01/15 09:36:48.000   4280223.7678  -4034416.9022  -2458273.0581   5   6   9.1508   6.8645   9.8154  -6.7266   5.7938  -6.9977   0.00    0.0
2019/01/15 09:36:49.000   4280224.5351  -4034417.3852  -2458273.3611   5   6   9.1507   6.8639   9.8127  -6.7262   5.7921  -6.9957   0.00    0.0
2019/01/15 09:36:50.000   4280224.7941  -4034417.8225  -2458273.3640   5   6   9.1507   6.8633   9.8099  -6.7259   5.7905  -6.9937   0.00    0.0
2019/01/15 09:36:51.000   4280224.5807  -4034417.8721  -2458272.9845   5   6   9.1507   6.8627   9.8072  -6.7255   5.7888  -6.9918   0.00    0.0
2019/01/15 09:36:52.000   4280224.6456  -4034418.1033  -2458272.7248   5   6   9.1507   6.8620   9.8044  -6.7252   5.7871  -6.9898   0.00    0.0
2019/01/15 09:36:53.000   4280224.2688  -4034417.9836  -2458272.4263   5   6   9.1506   6.8614   9.8017  -6.7248   5.7855  -6.9878   0.00    0.0
2019/01/15 09:36:54.000   4280224.0673  -4034418.0331  -2458272.3589   5   6   9.1506   6.8608   9.7989  -6.7245   5.7838  -6.9858   0.00    0.0
2019/01/15 09:36:55.000   4280223.7965  -4034417.8718  -2458272.3627   5   6   9.1506   6.8602   9.7962  -6.7241   5.7822  -6.9839   0.00    0.0
2019/01/15 09:36:56.000   4280223.8989  -4034418.0330  -2458272.6465   5   6   9.1506   6.8595   9.7934  -6.7238   5.7805  -6.9819   0.00    0.0
2019/01/15 09:36:57.000   4280223.9753  -4034418.3700  -2458272.3902   5   6   9.1506   6.8589   9.7907  -6.7234   5.7789  -6.9799   0.00    0.0
2019/01/15 09:36:58.000   4280223.7080  -4034418.4518  -2458271.9917   5   6   9.1505   6.8583   9.7879  -6.7231   5.7772  -6.9779   0.00    0.0
2019/01/15 09:36:59.000   4280223.3669  -4034418.4210  -2458271.4052   5   6   9.1505   6.8577   9.7852  -6.7227   5.7756  -6.9760   0.00    0.0
2019/01/15 09:37:00.000   4280223.3217  -4034418.5154  -2458270.9438   5   6   9.1505   6.8571   9.7825  -6.7224   5.7739  -6.9740   0.00    0.0
2019/01/15 09:37:01.000   4280223.7559  -4034418.8721  -2458271.1361   5   6   9.1505   6.8564   9.7797  -6.7221   5.7723  -6.9720   0.00    0.0
2019/01/15 09:37:02.000   4280224.4951  -4034419.3891  -2458271.6924   5   6   9.1505   6.8558   9.7770  -6.7217   5.7706  -6.9701   0.00    0.0
2019/01/15 09:37:03.000   4280224.6126  -4034419.2856  -2458271.7971   5   6   9.1505   6.8552   9.7742  -6.7214   5.7690  -6.9681   0.00    0.0
2019/01/15 09:37:04.000   4280224.8245  -4034419.2536  -2458272.1715   5   6   9.1504   6.8546   9.7715  -6.7210   5.7673  -6.9662   0.00    0.0
2019/01/15 09:37:05.000   4280224.8215  -4034419.0973  -2458272.1273   5   6   9.1504   6.8540   9.7688  -6.7207   5.7657  -6.9642   0.00    0.0
2019/01/15 09:37:06.000   4280224.4675  -4034418.8603  -2458271.8341   5   6   9.1504   6.8534   9.7660  -6.7204   5.7640  -6.9622   0.00    0.0
2019/01/15 09:37:07.000   4280223.9601  -4034418.4278  -2458271.7689   5   6   9.1504   6.8527   9.7633  -6.7200   5.7624  -6.9603   0.00    0.0
2019/01/15 09:37:08.000   4280223.9478  -4034418.2951  -2458272.1824   5   6   9.1504   6.8521   9.7606  -6.7197   5.7608  -6.9583   0.00    0.0
2019/01/15 09:37:09.000   4280224.1273  -4034418.3175  -2458272.4705   5   6   9.1504   6.8515   9.7578  -6.7194   5.7591  -6.9564   0.00    0.0
2019/01/15 09:37:10.000   4280224.0588  -4034418.5780  -2458272.1461   5   6   9.1504   6.8509   9.7551  -6.7190   5.7575  -6.9544   0.00    0.0
2019/01/15 09:37:11.000   4280224.1337  -4034418.7241  -2458272.0764   5   6   9.1504   6.8503   9.7524  -6.7187   5.7558  -6.9524   0.00    0.0
2019/01/15 09:37:12.000   4280224.3268  -4034419.0230  -2458271.9314   5   6   9.1504   6.8497   9.7496  -6.7184   5.7542  -6.9505   0.00    0.0
2019/01/15 09:37:13.000   4280225.0687  -4034419.5735  -2458271.9216   5   6   9.1504   6.8491   9.7469  -6.7180   5.7526  -6.9485   0.00    0.0
2019/01/15 09:37:14.000   4280225.4082  -4034419.6367  -2458271.8735   5   6   9.1504   6.8485   9.7442  -6.7177   5.7509  -6.9466   0.00    0.0
2019/01/15 09:37:15.000   4280225.2257  -4034419.4760  -2458271.8420   5   6   9.1504   6.8479   9.7415  -6.7174   5.7493  -6.9446   0.00    0.0
2019/01/15 09:37:16.000   4280224.9540  -4034419.2773  -2458271.7222   5   6   9.1504   6.8473   9.7387  -6.7170   5.7477  -6.9427   0.00    0.0
2019/01/15 09:37:17.000   4280224.6987  -4034418.8663  -2458271.7807   5   6   9.1504   6.8466   9.7360  -6.7167   5.7460  -6.9407   0.00    0.0
2019/01/15 09:37:18.000   4280224.3797  -4034418.6292  -2458272.0572   5   6   9.1504   6.8460   9.7333  -6.7164   5.7444  -6.9388   0.00    0.0
2019/01/15 09:37:19.000   4280223.9576  -4034418.4988  -2458272.0979   5   6   9.1504   6.8454   9.7306  -6.7161   5.7428  -6.9368   0.00    0.0
2019/01/15 09:37:20.000   4280223.6865  -4034418.5735  -2458272.0556   5   6   9.1504   6.8448   9.7279  -6.7157   5.7412  -6.9349   0.00    0.0
2019/01/15 09:37:21.000   4280223.9843  -4034418.9889  -2458272.1406   5   6   9.1504   6.8442   9.7251  -6.7154   5.7395  -6.9330   0.00    0.0
2019/01/15 09:37:22.000   4280224.6297  -4034419.4054  -2458272.5971   5   6   9.1504   6.8436   9.7224  -6.7151   5.7379  -6.9310   0.00    0.0
2019/01/15 09:37:23.000   4280225.2213  -4034419.7592  -2458272.7745   5   6   9.1504   6.8430   9.7197  -6.7148   5.7363  -6.9291   0.00    0.0
2019/01/15 09:37:24.000   4280225.1498  -4034419.8395  -2458272.0306   5   6   9.1504   6.8424   9.7170  -6.7145   5.7347  -6.9271   0.00    0.0
2019/01/15 09:37:25.000   4280224.9434  -4034419.8785  -2458271.4080   5   6   9.1504   6.8418   9.7143  -6.7141   5.7330  -6.9252   0.00    0.0
2019/01/15 09:37:26.000   4280225.0707  -4034420.1589  -2458271.2698   5   6   9.1505   6.8412   9.7116  -6.7138   5.7314  -6.9233   0.00    0.0
2019/01/15 09:37:27.000   4280225.3562  -4034420.3457  -2458271.7126   5   6   9.1505   6.8406   9.7088  -6.7135   5.7298  -6.9213   0.00    0.0
2019/01/15 09:37:28.000   4280225.8898  -4034420.6339  -2458272.2879   5   6   9.1505   6.8400   9.7061  -6.7132   5.7282  -6.9194   0.00    0.0
2019/01/15 09:37:29.000   4280226.3364  -4034420.9127  -2458272.7616   5   6   9.1505   6.8394   9.7034  -6.7129   5.7266  -6.9175   0.00    0.0
2019/01/15 09:37:30.000   4280226.3412  -4034421.0612  -2458272.4985   5   6   9.1505   6.8388   9.7007  -6.7125   5.7249  -6.9155   0.00    0.0
2019/01/15 09:37:31.000   4280225.9580  -4034421.0836  -2458271.7825   5   6   9.1505   6.8382   9.6980  -6.7122   5.7233  -6.9136   0.00    0.0
2019/01/15 09:37:32.000   4280225.7670  -4034420.9245  -2458271.1833   5   6   9.1505   6.8376   9.6953  -6.7119   5.7217  -6.9117   0.00    0.0
2019/01/15 09:37:33.000   4280225.4396  -4034420.7368  -2458270.7920   5   6   9.1506   6.8370   9.6926  -6.7116   5.7201  -6.9097   0.00    0.0
2019/01/15 09:37:34.000   4280225.0671  -4034420.4605  -2458270.4006   5   6   9.1506   6.8364   9.6899  -6.7113   5.7185  -6.9078   0.00    0.0
2019/01/15 09:37:35.000   4280225.1281  -4034420.5067  -2458270.5134   5   6   9.1506   6.8359   9.6872  -6.7110   5.7169  -6.9059   0.00    0.0
2019/01/15 09:37:36.000   4280225.4064  -4034420.7049  -2458270.6488   5   6   9.1506   6.8353   9.6845  -6.7107   5.7153  -6.9039   0.00    0.0
2019/01/15 09:37:37.000   4280226.0417  -4034421.1022  -2458270.9000   5   6   9.1506   6.8347   9.6818  -6.7104   5.7137  -6.9020   0.00    0.0
2019/01/15 09:37:38.000   4280226.4782  -4034421.4382  -2458271.0990   5   6   9.1507   6.8341   9.6791  -6.7101   5.7121  -6.9001   0.00    0.0
2019/01/15 09:37:39.000   4280226.3465  -4034421.4658  -2458270.8968   5   6   9.1507   6.8335   9.6764  -6.7098   5.7104  -6.8982   0.00    0.0
2019/01/15 09:37:40.000   4280226.1737  -4034421.3824  -2458270.8181   5   6   9.1507   6.8329   9.6737  -6.7095   5.7088  -6.8963   0.00    0.0
2019/01/15 09:37:41.000   4280225.7736  -4034421.2243  -2458270.7979   5   6   9.1507   6.8323   9.6710  -6.7092   5.7072  -6.8943   0.00    0.0
2019/01/15 09:37:42.000   4280225.2730  -4034421.0578  -2458270.5223   5   6   9.1508   6.8317   9.6683  -6.7088   5.7056  -6.8924   0.00    0.0
2019/01/15 09:37:43.000   4280225.1396  -4034421.0121  -2458270.3621   5   6   9.1508   6.8311   9.6656  -6.7085   5.7040  -6.8905   0.00    0.0
2019/01/15 09:37:44.000   4280225.2195  -4034421.0242  -2458270.2961   5   6   9.1508   6.8305   9.6629  -6.7082   5.7024  -6.8886   0.00    0.0
2019/01/15 09:37:45.000   4280225.3126  -4034420.9583  -2458270.3878   5   6   9.1509   6.8300   9.6602  -6.7079   5.7008  -6.8867   0.00    0.0
2019/01/15 09:37:46.000   4280225.1981  -4034420.7674  -2458270.3206   5   6   9.1509   6.8294   9.6575  -6.7076   5.6992  -6.8847   0.00    0.0
2019/01/15 09:37:47.000   4280224.9625  -4034420.4677  -2458270.1235   5   6   9.1509   6.8288   9.6548  -6.7073   5.6976  -6.8828   0.00    0.0
2019/01/15 09:37:48.000   4280224.8779  -4034420.1616  -2458270.0553   5   6   9.1510   6.8282   9.6521  -6.7070   5.6960  -6.8809   0.00    0.0
2019/01/15 09:37:49.000   4280224.6470  -4034419.9811  -2458269.6297   5   6   9.1510   6.8276   9.6495  -6.7068   5.6944  -6.8790   0.00    0.0
2019/01/15 09:37:50.000   4280224.7869  -4034420.0232  -2458269.1709   5   6   9.1510   6.8270   9.6468  -6.7065   5.6929  -6.8771   0.00    0.0
2019/01/15 09:37:51.000   4280224.7779  -4034419.9471  -2458268.6321   5   6   9.1511   6.8264   9.6441  -6.7062   5.6913  -6.8752   0.00    0.0
2019/01/15 09:37:52.000   4280224.7181  -4034419.8974  -2458268.0594   5   6   9.1511   6.8259   9.6414  -6.7059   5.6897  -6.8733   0.00    0.0
2019/01/15 09:37:53.000   4280224.5190  -4034419.7113  -2458267.5909   5   6   9.1512   6.8253   9.6387  -6.7056   5.6881  -6.8714   0.00    0.0
2019/01/15 09:37:54.000   4280224.8271  -4034419.9975  -2458267.8339   5   6   9.1512   6.8247   9.6360  -6.7053   5.6865  -6.8695   0.00    0.0
2019/01/15 09:37:55.000   4280224.8879  -4034420.1604  -2458268.0062   5   6   9.1512   6.8241   9.6334  -6.7050   5.6849  -6.8676   0.00    0.0
2019/01/15 09:37:56.000   4280224.7833  -4034420.2216  -2458267.9767   5   6   9.1513   6.8235   9.6307  -6.7047   5.6833  -6.8657   0.00    0.0
2019/01/15 09:37:57.000   4280224.1603  -4034420.0239  -2458267.7878   5   6   9.1513   6.8230   9.6280  -6.7044   5.6817  -6.8638   0.00    0.0
2019/01/15 09:37:58.000   4280223.7459  -4034419.7880  -2458267.7928   5   6   9.1514   6.8224   9.6253  -6.7041   5.6801  -6.8619   0.00    0.0
2019/01/15 09:37:59.000   4280223.4966  -4034419.4569  -2458267.7524   5   6   9.1514   6.8218   9.6226  -6.7038   5.6786  -6.8600   0.00    0.0
2019/01/15 09:38:00.000   4280223.3074  -4034419.1679  -2458267.4627   5   6   9.1515   6.8212   9.6200  -6.7035   5.6770  -6.8581   0.00    0.0
2019/01/15 09:38:01.000   4280222.9815  -4034418.8146  -2458267.1690   5   6   9.1515   6.8207   9.6173  -6.7033   5.6754  -6.8562   0.00    0.0
2019/01/15 09:38:02.000   4280222.7747  -4034418.7815  -2458266.9801   5   6   9.1516   6.8201   9.6146  -6.7030   5.6738  -6.8543   0.00    0.0
2019/01/15 09:38:03.000   4280222.5833  -4034418.8529  -2458266.8181   5   6   9.1516   6.8195   9.6119  -6.7027   5.6722  -6.8524   0.00    0.0
2019/01/15 09:38:04.000   4280222.4196  -4034419.0745  -2458266.8883   5   6   9.1517   6.8189   9.6093  -6.7024   5.6707  -6.8505   0.00    0.0
2019/01/15 09:38:05.000   4280222.3824  -4034419.3316  -2458267.0755   5   6   9.1517   6.8184   9.6066  -6.7021   5.6691  -6.8486   0.00    0.0
2019/01/15 09:38:06.000   4280222.3645  -4034419.5116  -2458266.8945   5   6   9.1518   6.8178   9.6039  -6.7018   5.6675  -6.8467   0.00    0.0
2019/01/15 09:38:07.000   4280222.3819  -4034419.6390  -2458266.9901   5   6   9.1518   6.8172   9.6013  -6.7016   5.6659  -6.8448   0.00    0.0
2019/01/15 09:38:08.000   4280222.2860  -4034419.5306  -2458266.9240   5   6   9.1519   6.8166   9.5986  -6.7013   5.6643  -6.8429   0.00    0.0
2019/01/15 09:38:09.000   4280222.2104  -4034419.4491  -2458267.2118   5   6   9.1519   6.8161   9.5959  -6.7010   5.6628  -6.8410   0.00    0.0
2019/01/15 09:38:10.000   4280222.2793  -4034419.1957  -2458267.2217   5   6   9.1520   6.8155   9.5933  -6.7007   5.6612  -6.8391   0.00    0.0
2019/01/15 09:38:11.000   4280222.0941  -4034418.9247  -2458267.3733   5   6   9.1520   6.8149   9.5906  -6.7005   5.6596  -6.8372   0.00    0.0
2019/01/15 09:38:12.000   4280221.7313  -4034418.7038  -2458267.4840   5   6   9.1521   6.8144   9.5879  -6.7002   5.6581  -6.8353   0.00    0.0
2019/01/15 09:38:13.000   4280221.3976  -4034418.7057  -2458267.4488   5   6   9.1522   6.8138   9.5853  -6.6999   5.6565  -6.8335   0.00    0.0
2019/01/15 09:38:14.000   4280221.5297  -4034418.8331  -2458267.4900   5   6   9.1522   6.8132   9.5826  -6.6996   5.6549  -6.8316   0.00    0.0
2019/01/15 09:38:15.000   4280221.7226  -4034419.0256  -2458267.1801   5   6   9.1523   6.8127   9.5800  -6.6994   5.6534  -6.8297   0.00    0.0
2019/01/15 09:38:16.000   4280222.2600  -4034419.3556  -2458266.8181   5   6   9.1523   6.8121   9.5773  -6.6991   5.6518  -6.8278   0.00    0.0
2019/01/15 09:38:17.000   4280222.8580  -4034419.7882  -2458266.5533   5   6   9.1524   6.8115   9.5747  -6.6988   5.6502  -6.8259   0.00    0.0
2019/01/15 09:38:18.000   4280222.9527  -4034419.7022  -2458266.0645   5   6   9.1525   6.8110   9.5720  -6.6985   5.6487  -6.8241   0.00    0.0
2019/01/15 09:38:19.000   4280223.0007  -4034419.6287  -2458265.7146   5   6   9.1525   6.8104   9.5693  -6.6983   5.6471  -6.8222   0.00    0.0
2019/01/15 09:38:20.000   4280223.1827  -4034419.4882  -2458265.8629   5   6   9.1526   6.8098   9.5667  -6.6980   5.6455  -6.8203   0.00    0.0
2019/01/15 09:38:21.000   4280223.0808  -4034419.3116  -2458266.2376   5   6   9.1527   6.8093   9.5640  -6.6977   5.6440  -6.8184   0.00    0.0
2019/01/15 09:38:22.000   4280223.5429  -4034419.4802  -2458267.0361   5   6   9.1527   6.8087   9.5614  -6.6975   5.6424  -6.8166   0.00    0.0
2019/01/15 09:38:23.000   4280223.7103  -4034419.6923  -2458267.4940   5   6   9.1528   6.8082   9.5587  -6.6972   5.6409  -6.8147   0.00    0.0
2019/01/15 09:38:24.000   4280224.2188  -4034420.1382  -2458267.9362   5   6   9.1529   6.8076   9.5561  -6.6969   5.6393  -6.8128   0.00    0.0
2019/01/15 09:38:25.000   4280224.8786  -4034420.5027  -2458268.2930   5   6   9.1530   6.8070   9.5534  -6.6967   5.6378  -6.8109   0.00    0.0
2019/01/15 09:38:26.000   4280225.7623  -4034421.1834  -2458268.4742   5   6   9.1530   6.8065   9.5508  -6.6964   5.6362  -6.8091   0.00    0.0
2019/01/15 09:38:27.000   4280226.2397  -4034421.5681  -2458268.2723   5   6   9.1531   6.8059   9.5481  -6.6961   5.6346  -6.8072   0.00    0.0
2019/01/15 09:38:28.000   4280226.0648  -4034421.4672  -2458267.8560   5   6   9.1532   6.8054   9.5455  -6.6959   5.6331  -6.8053   0.00    0.0
2019/01/15 09:38:29.000   4280225.5976  -4034421.1950  -2458267.3399   5   6   9.1533   6.8048   9.5429  -6.6956   5.6315  -6.8035   0.00    0.0
2019/01/15 09:38:30.000   4280225.3577  -4034420.9926  -2458267.0888   5   6   9.1533   6.8043   9.5402  -6.6954   5.6300  -6.8016   0.00    0.0
2019/01/15 09:38:31.000   4280224.8392  -4034420.7111  -2458266.7676   5   6   9.1534   6.8037   9.5376  -6.6951   5.6284  -6.7997   0.00    0.0
2019/01/15 09:38:32.000   4280224.6389  -4034420.4848  -2458266.9301   5   6   9.1535   6.8031   9.5349  -6.6949   5.6269  -6.7979   0.00    0.0
2019/01/15 09:38:33.000   4280224.5325  -4034420.6001  -2458267.0256   5   6   9.1536   6.8026   9.5323  -6.6946   5.6253  -6.7960   0.00    0.0
2019/01/15 09:38:34.000   4280224.6010  -4034420.7649  -2458266.9761   5   6   9.1537   6.8020   9.5297  -6.6943   5.6238  -6.7941   0.00    0.0
2019/01/15 09:38:35.000   4280224.9095  -4034421.1495  -2458266.9818   5   6   9.1537   6.8015   9.5270  -6.6941   5.6223  -6.7923   0.00    0.0
2019/01/15 09:38:36.000   4280224.6304  -4034421.1166  -2458267.0498   5   6   9.1538   6.8009   9.5244  -6.6938   5.6207  -6.7904   0.00    0.0
2019/01/15 09:38:37.000   4280224.5674  -4034421.1843  -2458267.0568   5   6   9.1539   6.8004   9.5217  -6.6936   5.6192  -6.7886   0.00    0.0
2019/01/15 09:38:38.000   4280224.1306  -4034420.8105  -2458266.6746   5   6   9.1540   6.7998   9.5191  -6.6933   5.6176  -6.7867   0.00    0.0
2019/01/15 09:38:39.000   4280223.8104  -4034420.6351  -2458266.7001   5   6   9.1541   6.7993   9.5165  -6.6931   5.6161  -6.7849   0.00    0.0
2019/01/15 09:38:40.000   4280223.5496  -4034420.3597  -2458266.5456   5   6   9.1542   6.7987   9.5138  -6.6928   5.6145  -6.7830   0.00    0.0
2019/01/15 09:38:41.000   4280223.4039  -4034420.1257  -2458266.5845   5   6   9.1543   6.7982   9.5112  -6.6926   5.6130  -6.7812   0.00    0.0
2019/01/15 09:38:42.000   4280223.3744  -4034419.9188  -2458266.4519   5   6   9.1544   6.7976   9.5086  -6.6923   5.6115  -6.7793   0.00    0.0
2019/01/15 09:38:43.000   4280223.3396  -4034419.7990  -2458266.2387   5   6   9.1544   6.7971   9.5060  -6.6921   5.6099  -6.7775   0.00    0.0
2019/01/15 09:38:44.000   4280223.2410  -4034419.4837  -2458266.2856   5   6   9.1545   6.7965   9.5033  -6.6918   5.6084  -6.7756   0.00    0.0
2019/01/15 09:38:45.000   4280223.5621  -4034419.5224  -2458266.5901   5   6   9.1546   6.7960   9.5007  -6.6916   5.6069  -6.7738   0.00    0.0
2019/01/15 09:38:46.000   4280223.9697  -4034419.7383  -2458266.7207   5   6   9.1547   6.7955   9.4981  -6.6913   5.6053  -6.7719   0.00    0.0
2019/01/15 09:38:47.000   4280224.0984  -4034419.9924  -2458266.9123   5   6   9.1548   6.7949   9.4955  -6.6911   5.6038  -6.7701   0.00    0.0
2019/01/15 09:38:48.000   4280224.0502  -4034420.0974  -2458267.0709   5   6   9.1549   6.7944   9.4928  -6.6909   5.6023  -6.7682   0.00    0.0
2019/01/15 09:38:49.000   4280224.1179  -4034420.2373  -2458267.3534   5   6   9.1550   6.7938   9.4902  -6.6906   5.6007  -6.7664   0.00    0.0
2019/01/15 09:38:50.000   4280224.1686  -4034420.1739  -2458267.6701   5   6   9.1551   6.7933   9.4876  -6.6904   5.5992  -6.7645   0.00    0.0
2019/01/15 09:38:51.000   4280223.8669  -4034419.8855  -2458267.6567   5   6   9.1552   6.7927   9.4850  -6.6901   5.5977  -6.7627   0.00    0.0
2019/01/15 09:38:52.000   4280223.7183  -4034419.7301  -2458267.6087   5   6   9.1553   6.7922   9.4824  -6.6899   5.5962  -6.7608   0.00    0.0
2019/01/15 09:38:53.000   4280223.5330  -4034419.4643  -2458267.5276   5   6   9.1554   6.7917   9.4797  -6.6897   5.5946  -6.7590   0.00    0.0
2019/01/15 09:38:54.000   4280223.3654  -4034419.4201  -2458267.1902   5   6   9.1555   6.7911   9.4771  -6.6894   5.5931  -6.7572   0.00    0.0
2019/01/15 09:38:55.000   4280223.5445  -4034419.5535  -2458266.5927   5   6   9.1556   6.7906   9.4745  -6.6892   5.5916  -6.7553   0.00    0.0
2019/01/15 09:38:56.000   4280223.9045  -4034419.9586  -2458266.6152   5   6   9.1557   6.7900   9.4719  -6.6889   5.5901  -6.7535   0.00    0.0
2019/01/15 09:38:57.000   4280224.0967  -4034420.1296  -2458266.8888   5   6   9.1558   6.7895   9.4693  -6.6887   5.5885  -6.7517   0.00    0.0
2019/01/15 09:38:58.000   4280224.0255  -4034420.3875  -2458267.1388   5   6   9.1559   6.7890   9.4667  -6.6885   5.5870  -6.7498   0.00    0.0
2019/01/15 09:38:59.000   4280223.9856  -4034420.7276  -2458267.3025   5   6   9.1560   6.7884   9.4641  -6.6882   5.5855  -6.7480   0.00    0.0
2019/01/15 09:39:00.000   4280224.0447  -4034421.0738  -2458267.3953   5   6   9.1561   6.7879   9.4614  -6.6880   5.5840  -6.7462   0.00    0.0
2019/01/15 09:39:01.000   4280223.9364  -4034421.1389  -2458267.3567   5   6   9.1563   6.7874   9.4588  -6.6878   5.5825  -6.7443   0.00    0.0
2019/01/15 09:39:02.000   4280224.1589  -4034421.2587  -2458267.5550   5   6   9.1564   6.7868   9.4562  -6.6875   5.5810  -6.7425   0.00    0.0
2019/01/15 09:39:03.000   4280224.5465  -4034421.3252  -2458267.7268   5   6   9.1565   6.7863   9.4536  -6.6873   5.5794  -6.7407   0.00    0.0
2019/01/15 09:39:04.000   4280224.5141  -4034421.1997  -2458267.4100   5   6   9.1566   6.7858   9.4510  -6.6871   5.5779  -6.7388   0.00    0.0
2019/01/15 09:39:05.000   4280224.4935  -4034421.1371  -2458266.6881   5   6   9.1567   6.7852   9.4484  -6.6869   5.5764  -6.7370   0.00    0.0
2019/01/15 09:39:06.000   4280225.0017  -4034421.2594  -2458266.2190   5   6   9.1568   6.7847   9.4458  -6.6866   5.5749  -6.7352   0.00    0.0
2019/01/15 09:39:07.000   4280225.1687  -4034421.1183  -2458265.6693   5   6   9.1569   6.7842   9.4432  -6.6864   5.5734  -6.7334   0.00    0.0
2019/01/15 09:39:08.000   4280225.1182  -4034420.9654  -2458265.2205   5   6   9.1570   6.7836   9.4406  -6.6862   5.5719  -6.7316   0.00    0.0
2019/01/15 09:39:09.000   4280224.8484  -4034420.8451  -2458264.7789   5   6   9.1572   6.7831   9.4380  -6.6860   5.5704  -6.7297   0.00    0.0
2019/01/15 09:39:10.000   4280224.8774  -4034420.9717  -2458264.7495   5   6   9.1573   6.7826   9.4354  -6.6857   5.5689  -6.7279   0.00    0.0
2019/01/15 09:39:11.000   4280224.9404  -4034420.9458  -2458264.7065   5   6   9.1574   6.7820   9.4328  -6.6855   5.5674  -6.7261   0.00    0.0
2019/01/15 09:39:12.000   4280225.1625  -4034421.0793  -2458264.9901   5   6   9.1575   6.7815   9.4302  -6.6853   5.5659  -6.7243   0.00    0.0
2019/01/15 09:39:13.000   4280225.1448  -4034421.0154  -2458265.1399   5   6   9.1576   6.7810   9.4276  -6.6851   5.5643  -6.7225   0.00    0.0
2019/01/15 09:39:14.000   4280225.3636  -4034421.1591  -2458265.5401   5   6   9.1578   6.7805   9.4250  -6.6848   5.5628  -6.7206   0.00    0.0
2019/01/15 09:39:15.000   4280224.7440  -4034420.7173  -2458265.4080   5   6   9.1579   6.7799   9.4224  -6.6846   5.5613  -6.7188   0.00    0.0
2019/01/15 09:39:16.000   4280224.3002  -4034420.2076  -2458265.4779   5   6   9.1580   6.7794   9.4198  -6.6844   5.5598  -6.7170   0.00    0.0
2019/01/15 09:39:17.000   4280223.7231  -4034419.4934  -2458265.2039   5   6   9.1581   6.7789   9.4173  -6.6842   5.5583  -6.7152   0.00    0.0
2019/01/15 09:39:18.000   4280223.7469  -4034419.2200  -2458265.4160   5   6   9.1583   6.7784   9.4147  -6.6840   5.5568  -6.7134   0.00    0.0
2019/01/15 09:39:19.000   4280223.8533  -4034419.1198  -2458265.4360   5   6   9.1584   6.7778   9.4121  -6.6838   5.5553  -6.7116   0.00    0.0
2019/01/15 09:39:20.000   4280223.4030  -4034418.6970  -2458264.9636   5   6   9.1585   6.7773   9.4095  -6.6835   5.5539  -6.7098   0.00    0.0
2019/01/15 09:39:21.000   4280223.2436  -4034418.7692  -2458264.5782   5   6   9.1586   6.7768   9.4069  -6.6833   5.5524  -6.7080   0.00    0.0
2019/01/15 09:39:22.000   4280223.1037  -4034418.9383  -2458264.2814   5   6   9.1588   6.7763   9.4043  -6.6831   5.5509  -6.7062   0.00    0.0
2019/01/15 09:39:23.000   4280222.7219  -4034418.8037  -2458264.1608   5   6   9.1589   6.7757   9.4017  -6.6829   5.5494  -6.7043   0.00    0.0
2019/01/15 09:39:24.000   4280222.6600  -4034418.7539  -2458264.3328   5   6   9.1590   6.7752   9.3992  -6.6827   5.5479  -6.7025   0.00    0.0
2019/01/15 09:39:25.000   4280222.3901  -4034418.5213  -2458264.6793   5   6   9.1592   6.7747   9.3966  -6.6825   5.5464  -6.7007   0.00    0.0
2019/01/15 09:39:26.000   4280222.0892  -4034418.1919  -2458265.0147   5   6   9.1593   6.7742   9.3940  -6.6823   5.5449  -6.6989   0.00    0.0
2019/01/15 09:39:27.000   4280222.4853  -4034418.3508  -2458265.5134   5   6   9.1594   6.7737   9.3914  -6.6821   5.5434  -6.6971   0.00    0.0
2019/01/15 09:39:28.000   4280222.6648  -4034418.4694  -2458265.7414   5   6   9.1596   6.7732   9.3888  -6.6819   5.5419  -6.6953   0.00    0.0
2019/01/15 09:39:29.000   4280222.4943  -4034418.3805  -2458265.4061   5   6   9.1597   6.7726   9.3863  -6.6816   5.5404  -6.6935   0.00    0.0
2019/01/15 09:39:30.000   4280222.2579  -4034418.2421  -2458265.0912   5   6   9.1599   6.7721   9.3837  -6.6814   5.5389  -6.6917   0.00    0.0
2019/01/15 09:39:31.000   4280221.9729  -4034418.2506  -2458264.7218   5   6   9.1600   6.7716   9.3811  -6.6812   5.5375  -6.6899   0.00    0.0
2019/01/15 09:39:32.000   4280221.7171  -4034418.2228  -2458264.6662   5   6   9.1601   6.7711   9.3785  -6.6810   5.5360  -6.6881   0.00    0.0
2019/01/15 09:39:33.000   4280221.6315  -4034418.0569  -2458265.1067   5   6   9.1603   6.7706   9.3760  -6.6808   5.5345  -6.6864   0.00    0.0
2019/01/15 09:39:34.000   4280221.8504  -4034418.0504  -2458265.6471   5   6   9.1604   6.7701   9.3734  -6.6806   5.5330  -6.6846   0.00    0.0
2019/01/15 09:39:35.000   4280222.1478  -4034418.0579  -2458266.2063   5   6   9.1606   6.7696   9.3708  -6.6804   5.5315  -6.6828   0.00    0.0
2019/01/15 09:39:36.000   4280221.8139  -4034417.6733  -2458266.5220   5   6   9.1607   6.7690   9.3682  -6.6802   5.5301  -6.6810   0.00    0.0
2019/01/15 09:39:37.000   4280221.4471  -4034417.3326  -2458266.8145   5   6   9.1609   6.7685   9.3657  -6.6800   5.5286  -6.6792   0.00    0.0
2019/01/15 09:39:38.000   4280221.0809  -4034416.8924  -2458266.8544   5   6   9.1610   6.7680   9.3631  -6.6798   5.5271  -6.6774   0.00    0.0
2019/01/15 09:39:39.000   4280221.3789  -4034416.9073  -2458267.0634   5   6   9.1611   6.7675   9.3605  -6.6796   5.5256  -6.6756   0.00    0.0
2019/01/15 09:39:40.000   4280221.8605  -4034416.9676  -2458267.1354   5   6   9.1613   6.7670   9.3580  -6.6794   5.5241  -6.6738   0.00    0.0
2019/01/15 09:39:41.000   4280222.1709  -4034417.0147  -2458267.2703   5   6   9.1614   6.7665   9.3554  -6.6792   5.5227  -6.6720   0.00    0.0
2019/01/15 09:39:42.000   4280222.2562  -4034417.1472  -2458267.4534   5   6   9.1616   6.7660   9.3528  -6.6790   5.5212  -6.6703   0.00    0.0
2019/01/15 09:39:43.000   4280221.8785  -4034417.0566  -2458267.6788   5   6   9.1617   6.7655   9.3503  -6.6788   5.5197  -6.6685   0.00    0.0
2019/01/15 09:39:44.000   4280222.2647  -4034417.1714  -2458268.3049   5   6   9.1619   6.7650   9.3477  -6.6787   5.5183  -6.6667   0.00    0.0
2019/01/15 09:39:45.000   4280222.6830  -4034417.2570  -2458269.0939   5   6   9.1620   6.7645   9.3452  -6.6785   5.5168  -6.6649   0.00    0.0
2019/01/15 09:39:46.000   4280222.9600  -4034417.4970  -2458269.4333   5   6   9.1622   6.7640   9.3426  -6.6783   5.5153  -6.6631   0.00    0.0
2019/01/15 09:39:47.000   4280223.1775  -4034417.6240  -2458269.5325   5   6   9.1624   6.7634   9.3400  -6.6781   5.5139  -6.6613   0.00    0.0
2019/01/15 09:39:48.000   4280222.9331  -4034417.6908  -2458268.9449   5   6   9.1625   6.7629   9.3375  -6.6779   5.5124  -6.6596   0.00    0.0
2019/01/15 09:39:49.000   4280222.6128  -4034417.5710  -2458268.3340   5   6   9.1627   6.7624   9.3349  -6.6777   5.5109  -6.6578   0.00    0.0
2019/01/15 09:39:50.000   4280222.2961  -4034417.4575  -2458267.7417   5   6   9.1628   6.7619   9.3324  -6.6775   5.5095  -6.6560   0.00    0.0
2019/01/15 09:39:51.000   4280221.4999  -4034416.8451  -2458267.2038   5   6   9.1630   6.7614   9.3298  -6.6773   5.5080  -6.6542   0.00    0.0
2019/01/15 09:39:52.000   4280220.4970  -4034415.9991  -2458266.8073   5   6   9.1631   6.7609   9.3273  -6.6771   5.5065  -6.6525   0.00    0.0
2019/01/15 09:39:53.000   4280219.9274  -4034415.4973  -2458266.8691   5   6   9.1633   6.7604   9.3247  -6.6769   5.5051  -6.6507   0.00    0.0
2019/01/15 09:39:54.000   4280219.2164  -4034414.8024  -2458266.8109   5   6   9.1635   6.7599   9.3222  -6.6768   5.5036  -6.6489   0.00    0.0
2019/01/15 09:39:55.000   4280218.5990  -4034414.0920  -2458266.8183   5   6   9.1636   6.7594   9.3196  -6.6766   5.5021  -6.6472   0.00    0.0
2019/01/15 09:39:56.000   4280218.6636  -4034413.8734  -2458267.0293   5   6   9.1638   6.7589   9.3171  -6.6764   5.5007  -6.6454   0.00    0.0
2019/01/15 09:39:57.000   4280219.0314  -4034414.1638  -2458267.2307   5   6   9.1640   6.7584   9.3145  -6.6762   5.4992  -6.6436   0.00    0.0
2019/01/15 09:39:58.000   4280219.6107  -4034414.4794  -2458267.5700   5   6   9.1641   6.7579   9.3120  -6.6760   5.4978  -6.6419   0.00    0.0
2019/01/15 09:39:59.000   4280220.0846  -4034414.5779  -2458267.4658   5   6   9.1643   6.7574   9.3094  -6.6758   5.4963  -6.6401   0.00    0.0
2019/01/15 09:40:00.000   4280219.8841  -4034414.4560  -2458266.9909   5   6   9.1645   6.7569   9.3069  -6.6757   5.4949  -6.6383   0.00    0.0
2019/01/15 09:40:01.000   4280219.3520  -4034414.2931  -2458266.3747   5   6   9.1646   6.7564   9.3044  -6.6755   5.4934  -6.6366   0.00    0.0
2019/01/15 09:40:02.000   4280218.9495  -4034414.2341  -2458266.1774   5   6   9.1648   6.7560   9.3018  -6.6753   5.4920  -6.6348   0.00    0.0
2019/01/15 09:40:03.000   4280218.6437  -4034414.0874  -2458266.4554   5   6   9.1650   6.7555   9.2993  -6.6751   5.4905  -6.6330   0.00    0.0
2019/01/15 09:40:04.000   4280218.9219  -4034414.1594  -2458266.8839   5   6   9.1651   6.7550   9.2967  -6.6750   5.4891  -6.6313   0.00    0.0
2019/01/15 09:40:05.000   4280218.7787  -4034414.0844  -2458266.9468   5   6   9.1653   6.7545   9.2942  -6.6748   5.4876  -6.6295   0.00    0.0
2019/01/15 09:40:06.000   4280218.6618  -4034414.0563  -2458266.7324   5   6   9.1655   6.7540   9.2917  -6.6746   5.4862  -6.6278   0.00    0.0
2019/01/15 09:40:07.000   4280218.7048  -4034414.0794  -2458266.3042   5   6   9.1657   6.7535   9.2891  -6.6744   5.4847  -6.6260   0.00    0.0
2019/01/15 09:40:08.000   4280218.8070  -4034414.2929  -2458266.1014   5   6   9.1658   6.7530   9.2866  -6.6743   5.4833  -6.6243   0.00    0.0
2019/01/15 09:40:09.000   4280218.7364  -4034414.5062  -2458265.8515   5   6   9.1660   6.7525   9.2841  -6.6741   5.4818  -6.6225   0.00    0.0
2019/01/15 09:40:10.000   4280218.3694  -4034414.5608  -2458265.7198   5   6   9.1662   6.7520   9.2815  -6.6739   5.4804  -6.6207   0.00    0.0
2019/01/15 09:40:11.000   4280218.0541  -4034414.4840  -2458265.7082   5   6   9.1664   6.7515   9.2790  -6.6737   5.4789  -6.6190   0.00    0.0
2019/01/15 09:40:12.000   4280217.8685  -4034414.4229  -2458265.5127   5   6   9.1666   6.7510   9.2765  -6.6736   5.4775  -6.6172   0.00    0.0
2019/01/15 09:40:13.000   4280217.7725  -4034414.5343  -2458265.3915   5   6   9.1667   6.7505   9.2739  -6.6734   5.4761  -6.6155   0.00    0.0
2019/01/15 09:40:14.000   4280217.6563  -4034414.8683  -2458265.5124   5   6   9.1669   6.7501   9.2714  -6.6732   5.4746  -6.6137   0.00    0.0
2019/01/15 09:40:15.000   4280217.4972  -4034415.1964  -2458265.9271   5   6   9.1671   6.7496   9.2689  -6.6731   5.4732  -6.6120   0.00    0.0
2019/01/15 09:40:16.000   4280217.4761  -4034415.3537  -2458266.2758   5   6   9.1673   6.7491   9.2664  -6.6729   5.4717  -6.6103   0.00    0.0
2019/01/15 09:40:17.000   4280217.3378  -4034415.3187  -2458266.1473   5   6   9.1675   6.7486   9.2638  -6.6727   5.4703  -6.6085   0.00    0.0
2019/01/15 09:40:18.000   4280217.2812  -4034415.1146  -2458265.9293   5   6   9.1677   6.7481   9.2613  -6.6726   5.4689  -6.6068   0.00    0.0
2019/01/15 09:40:19.000   4280217.4902  -4034414.9609  -2458265.7908   5   6   9.1678   6.7476   9.2588  -6.6724   5.4674  -6.6050   0.00    0.0
2019/01/15 09:40:20.000   4280217.6191  -4034414.8923  -2458265.5833   5   6   9.1680   6.7471   9.2563  -6.6722   5.4660  -6.6033   0.00    0.0
2019/01/15 09:40:21.000   4280217.4870  -4034414.6909  -2458265.3348   5   6   9.1682   6.7467   9.2537  -6.6721   5.4646  -6.6015   0.00    0.0
2019/01/15 09:40:22.000   4280217.5080  -4034414.5977  -2458265.2640   5   6   9.1684   6.7462   9.2512  -6.6719   5.4631  -6.5998   0.00    0.0
2019/01/15 09:40:23.000   4280217.2713  -4034414.4141  -2458264.9343   5   6   9.1686   6.7457   9.2487  -6.6718   5.4617  -6.5981   0.00    0.0
2019/01/15 09:40:24.000   4280217.0743  -4034414.2030  -2458264.8251   5   6   9.1688   6.7452   9.2462  -6.6716   5.4603  -6.5963   0.00    0.0
2019/01/15 09:40:25.000   4280217.3938  -4034414.2977  -2458265.1712   5   6   9.1690   6.7447   9.2437  -6.6714   5.4589  -6.5946   0.00    0.0
2019/01/15 09:40:26.000   4280217.3736  -4034414.2094  -2458265.5897   5   6   9.1692   6.7443   9.2412  -6.6713   5.4574  -6.5929   0.00    0.0
2019/01/15 09:40:27.000   4280217.2229  -4034413.9359  -2458266.1036   5   6   9.1694   6.7438   9.2387  -6.6711   5.4560  -6.5911   0.00    0.0
2019/01/15 09:40:28.000   4280217.2669  -4034413.9255  -2458266.3776   5   6   9.1696   6.7433   9.2361  -6.6710   5.4546  -6.5894   0.00    0.0
2019/01/15 09:40:29.000   4280217.6714  -4034414.2051  -2458266.7509   5   6   9.1698   6.7428   9.2336  -6.6708   5.4532  -6.5877   0.00    0.0
2019/01/15 09:40:30.000   4280218.0126  -4034414.6583  -2458267.0223   5   6   9.1700   6.7423   9.2311  -6.6707   5.4517  -6.5859   0.00    0.0
2019/01/15 09:40:31.000   4280218.0403  -4034415.0276  -2458267.0486   5   6   9.1702   6.7419   9.2286  -6.6705   5.4503  -6.5842   0.00    0.0
2019/01/15 09:40:32.000   4280217.9265  -4034415.2919  -2458267.1487   5   6   9.1704   6.7414   9.2261  -6.6704   5.4489  -6.5825   0.00    0.0
2019/01/15 09:40:33.000   4280217.5668  -4034415.3103  -2458267.0745   5   6   9.1706   6.7409   9.2236  -6.6702   5.4475  -6.5807   0.00    0.0
2019/01/15 09:40:34.000   4280217.4362  -4034415.4944  -2458267.2377   5   6   9.1708   6.7404   9.2211  -6.6701   5.4461  -6.5790   0.00    0.0
2019/01/15 09:40:35.000   4280217.6047  -4034415.4683  -2458267.8106   5   6   9.1710   6.7400   9.2186  -6.6699   5.4446  -6.5773   0.00    0.0
2019/01/15 09:40:36.000   4280217.5055  -4034415.1382  -2458268.2329   5   6   9.1712   6.7395   9.2161  -6.6698   5.4432  -6.5756   0.00    0.0
2019/01/15 09:40:37.000   4280217.1507  -4034414.5650  -2458268.5976   5   6   9.1714   6.7390   9.2136  -6.6696   5.4418  -6.5738   0.00    0.0
2019/01/15 09:40:38.000   4280216.9165  -4034414.4573  -2458268.7458   5   6   9.1716   6.7385   9.2111  -6.6695   5.4404  -6.5721   0.00    0.0
2019/01/15 09:40:39.000   4280216.7660  -4034414.5600  -2458268.7521   5   6   9.1718   6.7381   9.2086  -6.6693   5.4390  -6.5704   0.00    0.0
2019/01/15 09:40:40.000   4280216.8865  -4034414.8407  -2458268.8792   5   6   9.1720   6.7376   9.2061  -6.6692   5.4376  -6.5687   0.00    0.0
2019/01/15 09:40:41.000   4280216.9972  -4034415.2806  -2458269.0535   5   6   9.1722   6.7371   9.2036  -6.6690   5.4362  -6.5670   0.00    0.0
2019/01/15 09:40:42.000   4280217.3035  -4034415.8806  -2458269.1960   5   6   9.1724   6.7367   9.2011  -6.6689   5.4347  -6.5652   0.00    0.0
2019/01/15 09:40:43.000   4280217.3176  -4034416.0395  -2458269.2649   5   6   9.1726   6.7362   9.1986  -6.6687   5.4333  -6.5635   0.00    0.0
2019/01/15 09:40:44.000   4280217.3661  -4034416.0530  -2458269.5541   5   6   9.1728   6.7357   9.1961  -6.6686   5.4319  -6.5618   0.00    0.0
2019/01/15 09:40:45.000   4280217.3821  -4034416.0277  -2458269.6929   5   6   9.1730   6.7352   9.1936  -6.6684   5.4305  -6.5601   0.00    0.0
2019/01/15 09:40:46.000   4280217.2505  -4034416.0560  -2458269.6776   5   6   9.1732   6.7348   9.1911  -6.6683   5.4291  -6.5584   0.00    0.0
2019/01/15 09:40:47.000   4280217.0683  -4034416.2152  -2458269.3987   5   6   9.1735   6.7343   9.1886  -6.6682   5.4277  -6.5567   0.00    0.0
2019/01/15 09:40:48.000   4280216.8811  -4034416.3573  -2458269.1781   5   6   9.1737   6.7338   9.1861  -6.6680   5.4263  -6.5550   0.00    0.0
2019/01/15 09:40:49.000   4280216.6908  -4034416.2010  -2458268.8788   5   6   9.1739   6.7334   9.1836  -6.6679   5.4249  -6.5532   0.00    0.0
2019/01/15 09:40:50.000   4280216.5682  -4034416.2308  -2458268.9250   5   6   9.1741   6.7329   9.1811  -6.6677   5.4235  -6.5515   0.00    0.0
2019/01/15 09:40:51.000   4280216.7327  -4034416.5999  -2458268.8333   5   6   9.1743   6.7324   9.1787  -6.6676   5.4221  -6.5498   0.00    0.0
2019/01/15 09:40:52.000   4280216.9732  -4034416.8852  -2458268.8259   5   6   9.1745   6.7320   9.1762  -6.6675   5.4207  -6.5481   0.00    0.0
2019/01/15 09:40:53.000   4280217.1719  -4034417.1590  -2458269.0422   5   6   9.1748   6.7315   9.1737  -6.6673   5.4193  -6.5464   0.00    0.0
2019/01/15 09:40:54.000   4280217.7766  -4034417.4833  -2458269.6614   5   6   9.1750   6.7311   9.1712  -6.6672   5.4179  -6.5447   0.00    0.0
2019/01/15 09:40:55.000   4280218.1785  -4034417.6061  -2458270.2633   5   6   9.1752   6.7306   9.1687  -6.6671   5.4165  -6.5430   0.00    0.0
2019/01/15 09:40:56.000   4280218.4232  -4034417.5805  -2458270.5657   5   6   9.1754   6.7301   9.1662  -6.6669   5.4151  -6.5413   0.00    0.0
2019/01/15 09:40:57.000   4280218.3685  -4034417.3701  -2458270.6008   5   6   9.1756   6.7297   9.1638  -6.6668   5.4137  -6.5396   0.00    0.0
2019/01/15 09:40:58.000   4280218.3486  -4034417.1880  -2458270.4145   5   6   9.1759   6.7292   9.1613  -6.6667   5.4123  -6.5379   0.00    0.0
2019/01/15 09:40:59.000   4280218.4833  -4034417.1435  -2458270.2660   5   6   9.1761   6.7288   9.1588  -6.6665   5.4109  -6.5362   0.00    0.0
2019/01/15 09:41:00.000   4280218.7896  -4034417.2421  -2458270.2945   5   6   9.1763   6.7283   9.1563  -6.6664   5.4095  -6.5345   0.00    0.0
2019/01/15 09:41:01.000   4280218.8621  -4034417.3331  -2458270.0569   5   6   9.1766   6.7278   9.1538  -6.6663   5.4081  -6.5328   0.00    0.0
2019/01/15 09:41:02.000   4280218.7061  -4034417.2606  -2458270.0606   5   6   9.1768   6.7274   9.1514  -6.6662   5.4068  -6.5311   0.00    0.0
2019/01/15 09:41:03.000   4280218.4841  -4034417.0963  -2458270.0247   5   6   9.1770   6.7269   9.1489  -6.6660   5.4054  -6.5294   0.00    0.0
2019/01/15 09:41:04.000   4280218.5054  -4034417.0242  -2458270.0681   5   6   9.1772   6.7265   9.1464  -6.6659   5.4040  -6.5277   0.00    0.0
2019/01/15 09:41:05.000   4280219.1206  -4034417.5764  -2458270.6635   5   6   9.1775   6.7260   9.1439  -6.6658   5.4026  -6.5260   0.00    0.0
2019/01/15 09:41:06.000   4280219.5319  -4034417.9830  -2458271.1287   5   6   9.1777   6.7255   9.1415  -6.6657   5.4012  -6.5243   0.00    0.0
2019/01/15 09:41:07.000   4280219.5719  -4034418.1787  -2458271.4603   5   6   9.1779   6.7251   9.1390  -6.6655   5.3998  -6.5227   0.00    0.0
2019/01/15 09:41:08.000   4280219.7136  -4034418.2681  -2458271.4179   5   6   9.1782   6.7246   9.1365  -6.6654   5.3984  -6.5210   0.00    0.0
2019/01/15 09:41:09.000   4280219.4926  -4034418.2005  -2458271.1459   5   6   9.1784   6.7242   9.1341  -6.6653   5.3971  -6.5193   0.00    0.0
2019/01/15 09:41:10.000   4280219.4132  -4034418.2296  -2458271.0520   5   6   9.1786   6.7237   9.1316  -6.6652   5.3957  -6.5176   0.00    0.0
2019/01/15 09:41:11.000   4280219.3268  -4034418.1687  -2458270.6818   5   6   9.1789   6.7233   9.1291  -6.6650   5.3943  -6.5159   0.00    0.0
2019/01/15 09:41:12.000   4280219.5466  -4034418.0493  -2458270.3753   5   6   9.1791   6.7228   9.1267  -6.6649   5.3929  -6.5142   0.00    0.0
2019/01/15 09:41:13.000   4280220.0819  -4034418.3915  -2458270.0591   5   6   9.1793   6.7224   9.1242  -6.6648   5.3915  -6.5125   0.00    0.0
2019/01/15 09:41:14.000   4280220.5980  -4034418.7008  -2458269.6114   5   6   9.1796   6.7219   9.1217  -6.6647   5.3902  -6.5109   0.00    0.0
2019/01/15 09:41:15.000   4280220.5752  -4034418.7510  -2458269.0509   5   6   9.1798   6.7215   9.1193  -6.6646   5.3888  -6.5092   0.00    0.0
2019/01/15 09:41:16.000   4280220.1648  -4034418.5223  -2458268.5918   5   6   9.1801   6.7210   9.1168  -6.6645   5.3874  -6.5075   0.00    0.0
2019/01/15 09:41:17.000   4280220.3105  -4034418.4922  -2458268.6085   5   6   9.1803   6.7206   9.1144  -6.6643   5.3860  -6.5058   0.00    0.0
2019/01/15 09:41:18.000   4280220.7473  -4034418.7620  -2458268.9372   5   6   9.1806   6.7201   9.1119  -6.6642   5.3847  -6.5041   0.00    0.0
2019/01/15 09:41:19.000   4280221.4996  -4034419.3565  -2458269.4854   5   6   9.1808   6.7197   9.1095  -6.6641   5.3833  -6.5025   0.00    0.0
2019/01/15 09:41:20.000   4280222.3610  -4034419.9967  -2458270.2246   5   6   9.1810   6.7192   9.1070  -6.6640   5.3819  -6.5008   0.00    0.0
2019/01/15 09:41:21.000   4280222.9656  -4034420.4104  -2458270.6612   5   6   9.1813   6.7188   9.1045  -6.6639   5.3805  -6.4991   0.00    0.0
2019/01/15 09:41:22.000   4280223.3519  -4034420.6765  -2458270.6773   5   6   9.1815   6.7183   9.1021  -6.6638   5.3792  -6.4974   0.00    0.0
2019/01/15 09:41:23.000   4280223.6244  -4034420.8097  -2458270.7162   5   6   9.1818   6.7179   9.0996  -6.6637   5.3778  -6.4958   0.00    0.0
2019/01/15 09:41:24.000   4280223.6478  -4034420.9086  -2458270.7400   5   6   9.1820   6.7175   9.0972  -6.6635   5.3764  -6.4941   0.00    0.0
2019/01/15 09:41:25.000   4280223.8204  -4034421.1221  -2458271.1903   5   6   9.1823   6.7170   9.0947  -6.6634   5.3751  -6.4924   0.00    0.0
2019/01/15 09:41:26.000   4280224.3115  -4034421.4000  -2458271.8747   5   6   9.1825   6.7166   9.0923  -6.6633   5.3737  -6.4908   0.00    0.0
2019/01/15 09:41:27.000   4280225.0261  -4034421.7967  -2458272.4719   5   6   9.1828   6.7161   9.0898  -6.6632   5.3723  -6.4891   0.00    0.0
2019/01/15 09:41:28.000   4280225.4306  -4034421.9307  -2458272.9060   5   6   9.1830   6.7157   9.0874  -6.6631   5.3710  -6.4874   0.00    0.0
2019/01/15 09:41:29.000   4280225.7228  -4034421.9626  -2458272.8222   5   6   9.1833   6.7152   9.0849  -6.6630   5.3696  -6.4858   0.00    0.0
2019/01/15 09:41:30.000   4280225.7871  -4034421.9777  -2458272.4675   5   6   9.1835   6.7148   9.0825  -6.6629   5.3683  -6.4841   0.00    0.0
