% program   : RTKPOST ver.2.4.2
% inp file  : D:\Google Drive\UERJ\_Projeto Final\Python\tcc-guilherme\20190115_Sta91500.19o
% inp file  : D:\Google Drive\UERJ\_Projeto Final\20190115_Marco 91500 IBGE\riod0151.19o
% inp file  : D:\Google Drive\UERJ\_Projeto Final\20190115_Marco 91500 IBGE\brdm0150.19p
% obs start : 2019/01/15 09:25:22.0 GPST (week2036 206722.0s)
% obs end   : 2019/01/15 10:25:42.0 GPST (week2036 210342.0s)
% pos mode  : static
% freqs     : L1
% solution  : forward
% elev mask : 15.0 deg
% dynamics  : off
% tidecorr  : off
% ionos opt : iono-free
% tropo opt : saastamoinen
% ephemeris : broadcast
% navi sys  : gps glonass galileo
% amb res   : fix and hold
% amb glo   : on
% val thres : 3.0
% antenna1  :                       ( 0.0000  0.0000  0.0000)
% antenna2  :                       ( 0.0000  0.0000  0.0080)
% ref pos   :  4280294.8840  -4034431.2298  -2458141.3831
%
% (x/y/z-ecef=WGS84,Q=1:fix,2:float,3:sbas,4:dgps,5:single,6:ppp,ns=# of satellites)
%  GPST                      x-ecef(m)      y-ecef(m)      z-ecef(m)   Q  ns   sdx(m)   sdy(m)   sdz(m)  sdxy(m)  sdyz(m)  sdzx(m) age(s)  ratio
2019/01/15 09:25:24.000   4280230.2707  -4034435.9413  -2458273.2845   5   9  30.0000  30.0000  30.0000   0.0000   0.0000   0.0000   9.00    0.0
2019/01/15 09:25:25.000   4280230.2707  -4034435.9413  -2458273.2845   5  10  30.0000  30.0000  30.0000   0.0000   0.0000   0.0000  10.00    0.0
2019/01/15 09:25:29.000   4280230.2707  -4034435.9413  -2458273.2845   5   9  30.0000  30.0000  30.0000   0.0000   0.0000   0.0000  14.00    0.0
2019/01/15 09:25:31.000   4280230.2707  -4034435.9413  -2458273.2845   5   9  30.0000  30.0000  30.0000   0.0000   0.0000   0.0000   1.00    0.0
2019/01/15 09:25:32.000   4280230.2707  -4034435.9413  -2458273.2845   5   9  30.0000  30.0000  30.0000   0.0000   0.0000   0.0000   2.00    0.0
2019/01/15 09:25:36.000   4280230.2707  -4034435.9413  -2458273.2845   5   9  30.0000  30.0000  30.0000   0.0000   0.0000   0.0000   6.00    0.0
2019/01/15 09:25:37.000   4280230.2707  -4034435.9413  -2458273.2845   5   9  30.0000  30.0000  30.0000   0.0000   0.0000   0.0000   7.00    0.0
2019/01/15 09:25:41.000   4280230.2707  -4034435.9413  -2458273.2845   5  10  30.0000  30.0000  30.0000   0.0000   0.0000   0.0000  11.00    0.0
2019/01/15 09:25:42.000   4280230.2707  -4034435.9413  -2458273.2845   5  10  30.0000  30.0000  30.0000   0.0000   0.0000   0.0000  12.00    0.0
2019/01/15 09:25:43.000   4280230.2707  -4034435.9413  -2458273.2845   5  10  30.0000  30.0000  30.0000   0.0000   0.0000   0.0000  13.00    0.0
2019/01/15 09:25:44.000   4280230.2707  -4034435.9413  -2458273.2845   5  10  30.0000  30.0000  30.0000   0.0000   0.0000   0.0000  14.00    0.0
2019/01/15 09:25:47.000   4280230.2707  -4034435.9413  -2458273.2845   5  10  30.0000  30.0000  30.0000   0.0000   0.0000   0.0000   2.00    0.0
2019/01/15 09:25:48.000   4280230.2707  -4034435.9413  -2458273.2845   5  10  30.0000  30.0000  30.0000   0.0000   0.0000   0.0000   3.00    0.0
2019/01/15 09:25:49.000   4280230.2707  -4034435.9413  -2458273.2845   5  10  30.0000  30.0000  30.0000   0.0000   0.0000   0.0000   4.00    0.0
2019/01/15 09:25:50.000   4280230.2707  -4034435.9413  -2458273.2845   5  12  30.0000  30.0000  30.0000   0.0000   0.0000   0.0000   5.00    0.0
2019/01/15 09:25:52.000   4280230.2707  -4034435.9413  -2458273.2845   5  12  30.0000  30.0000  30.0000   0.0000   0.0000   0.0000   7.00    0.0
2019/01/15 09:25:54.000   4280230.2707  -4034435.9413  -2458273.2845   5  12  30.0000  30.0000  30.0000   0.0000   0.0000   0.0000   9.00    0.0
2019/01/15 09:25:55.000   4280230.2707  -4034435.9413  -2458273.2845   5  12  30.0000  30.0000  30.0000   0.0000   0.0000   0.0000  10.00    0.0
2019/01/15 09:25:56.000   4280230.2707  -4034435.9413  -2458273.2845   5  12  30.0000  30.0000  30.0000   0.0000   0.0000   0.0000  11.00    0.0
2019/01/15 09:25:57.000   4280230.2707  -4034435.9413  -2458273.2845   5  12  30.0000  30.0000  30.0000   0.0000   0.0000   0.0000  12.00    0.0
2019/01/15 09:26:02.000   4280230.2707  -4034435.9413  -2458273.2845   5  12  30.0000  30.0000  30.0000   0.0000   0.0000   0.0000   2.00    0.0
2019/01/15 09:26:03.000   4280230.2707  -4034435.9413  -2458273.2845   5  12  30.0000  30.0000  30.0000   0.0000   0.0000   0.0000   3.00    0.0
2019/01/15 09:26:04.000   4280230.2707  -4034435.9413  -2458273.2845   5  12  30.0000  30.0000  30.0000   0.0000   0.0000   0.0000   4.00    0.0
2019/01/15 09:26:05.000   4280230.2707  -4034435.9413  -2458273.2845   5  12  30.0000  30.0000  30.0000   0.0000   0.0000   0.0000   5.00    0.0
2019/01/15 09:26:10.000   4280230.2707  -4034435.9413  -2458273.2845   5  12  30.0000  30.0000  30.0000   0.0000   0.0000   0.0000  10.00    0.0
2019/01/15 09:26:15.000   4280230.2707  -4034435.9413  -2458273.2845   5  12  30.0000  30.0000  30.0000   0.0000   0.0000   0.0000   0.00    0.0
2019/01/15 09:26:16.000   4280230.2707  -4034435.9413  -2458273.2845   5  12  30.0000  30.0000  30.0000   0.0000   0.0000   0.0000   1.00    0.0
2019/01/15 09:26:17.000   4280230.2707  -4034435.9413  -2458273.2845   5  12  30.0000  30.0000  30.0000   0.0000   0.0000   0.0000   2.00    0.0
2019/01/15 09:26:18.000   4280230.2707  -4034435.9413  -2458273.2845   5  12  30.0000  30.0000  30.0000   0.0000   0.0000   0.0000   3.00    0.0
2019/01/15 09:26:22.000   4280230.2707  -4034435.9413  -2458273.2845   5  12  30.0000  30.0000  30.0000   0.0000   0.0000   0.0000   7.00    0.0
2019/01/15 09:26:29.000   4280230.2707  -4034435.9413  -2458273.2845   5  12  30.0000  30.0000  30.0000   0.0000   0.0000   0.0000  14.00    0.0
2019/01/15 09:26:32.000   4280230.2707  -4034435.9413  -2458273.2845   5  12  30.0000  30.0000  30.0000   0.0000   0.0000   0.0000   2.00    0.0
2019/01/15 09:26:34.000   4280230.2707  -4034435.9413  -2458273.2845   5  12  30.0000  30.0000  30.0000   0.0000   0.0000   0.0000   4.00    0.0
2019/01/15 09:26:36.000   4280230.2707  -4034435.9413  -2458273.2845   5  12  30.0000  30.0000  30.0000   0.0000   0.0000   0.0000   6.00    0.0
2019/01/15 09:26:37.000   4280230.2707  -4034435.9413  -2458273.2845   5  12  30.0000  30.0000  30.0000   0.0000   0.0000   0.0000   7.00    0.0
2019/01/15 09:26:40.000   4280230.2707  -4034435.9413  -2458273.2845   5  12  30.0000  30.0000  30.0000   0.0000   0.0000   0.0000  10.00    0.0
2019/01/15 09:26:41.000   4280230.2707  -4034435.9413  -2458273.2845   5  12  30.0000  30.0000  30.0000   0.0000   0.0000   0.0000  11.00    0.0
2019/01/15 09:26:46.000   4280230.2707  -4034435.9413  -2458273.2845   5  12  30.0000  30.0000  30.0000   0.0000   0.0000   0.0000   1.00    0.0
2019/01/15 09:26:47.000   4280230.2707  -4034435.9413  -2458273.2845   5  12  30.0000  30.0000  30.0000   0.0000   0.0000   0.0000   2.00    0.0
2019/01/15 09:26:54.000   4280230.2707  -4034435.9413  -2458273.2845   5  12  30.0000  30.0000  30.0000   0.0000   0.0000   0.0000   9.00    0.0
2019/01/15 09:26:57.000   4280230.2707  -4034435.9413  -2458273.2845   5  12  30.0000  30.0000  30.0000   0.0000   0.0000   0.0000  12.00    0.0
2019/01/15 09:27:01.000   4280230.2707  -4034435.9413  -2458273.2845   5  12  30.0000  30.0000  30.0000   0.0000   0.0000   0.0000   1.00    0.0
2019/01/15 09:27:02.000   4280230.2707  -4034435.9413  -2458273.2845   5  12  30.0000  30.0000  30.0000   0.0000   0.0000   0.0000   2.00    0.0
2019/01/15 09:27:04.000   4280230.2707  -4034435.9413  -2458273.2845   5  12  30.0000  30.0000  30.0000   0.0000   0.0000   0.0000   4.00    0.0
2019/01/15 09:27:05.000   4280230.2707  -4034435.9413  -2458273.2845   5  12  30.0000  30.0000  30.0000   0.0000   0.0000   0.0000   5.00    0.0
2019/01/15 09:27:09.000   4280230.2707  -4034435.9413  -2458273.2845   5  12  30.0000  30.0000  30.0000   0.0000   0.0000   0.0000   9.00    0.0
2019/01/15 09:27:13.000   4280230.2707  -4034435.9413  -2458273.2845   5  12  30.0000  30.0000  30.0000   0.0000   0.0000   0.0000  13.00    0.0
2019/01/15 09:27:14.000   4280230.2707  -4034435.9413  -2458273.2845   5  12  30.0000  30.0000  30.0000   0.0000   0.0000   0.0000  14.00    0.0
2019/01/15 09:27:18.000   4280230.2707  -4034435.9413  -2458273.2845   5  12  30.0000  30.0000  30.0000   0.0000   0.0000   0.0000   3.00    0.0
2019/01/15 09:27:20.000   4280230.2707  -4034435.9413  -2458273.2845   5  12  30.0000  30.0000  30.0000   0.0000   0.0000   0.0000   5.00    0.0
2019/01/15 09:27:23.000   4280230.2707  -4034435.9413  -2458273.2845   5  12  30.0000  30.0000  30.0000   0.0000   0.0000   0.0000   8.00    0.0
2019/01/15 09:27:27.000   4280230.2707  -4034435.9413  -2458273.2845   5  12  30.0000  30.0000  30.0000   0.0000   0.0000   0.0000  12.00    0.0
2019/01/15 09:27:40.000   4280230.2707  -4034435.9413  -2458273.2845   5  12  30.0000  30.0000  30.0000   0.0000   0.0000   0.0000  10.00    0.0
2019/01/15 09:27:44.000   4280230.2707  -4034435.9413  -2458273.2845   5  11  30.0000  30.0000  30.0000   0.0000   0.0000   0.0000  14.00    0.0
2019/01/15 09:27:47.000   4280230.2707  -4034435.9413  -2458273.2845   5  12  30.0000  30.0000  30.0000   0.0000   0.0000   0.0000   2.00    0.0
2019/01/15 09:27:49.000   4280230.2707  -4034435.9413  -2458273.2845   5  11  30.0000  30.0000  30.0000   0.0000   0.0000   0.0000   4.00    0.0
2019/01/15 09:27:50.000   4280230.2707  -4034435.9413  -2458273.2845   5  11  30.0000  30.0000  30.0000   0.0000   0.0000   0.0000   5.00    0.0
2019/01/15 09:27:52.000   4280230.2707  -4034435.9413  -2458273.2845   5  11  30.0000  30.0000  30.0000   0.0000   0.0000   0.0000   7.00    0.0
2019/01/15 09:27:53.000   4280230.2707  -4034435.9413  -2458273.2845   5  11  30.0000  30.0000  30.0000   0.0000   0.0000   0.0000   8.00    0.0
2019/01/15 09:27:54.000   4280230.2707  -4034435.9413  -2458273.2845   5  11  30.0000  30.0000  30.0000   0.0000   0.0000   0.0000   9.00    0.0
2019/01/15 09:27:55.000   4280230.2707  -4034435.9413  -2458273.2845   5  11  30.0000  30.0000  30.0000   0.0000   0.0000   0.0000  10.00    0.0
2019/01/15 09:27:57.000   4280230.2707  -4034435.9413  -2458273.2845   5  11  30.0000  30.0000  30.0000   0.0000   0.0000   0.0000  12.00    0.0
2019/01/15 09:28:01.000   4280230.2707  -4034435.9413  -2458273.2845   5  11  30.0000  30.0000  30.0000   0.0000   0.0000   0.0000   1.00    0.0
2019/01/15 09:28:02.000   4280230.2707  -4034435.9413  -2458273.2845   5  11  30.0000  30.0000  30.0000   0.0000   0.0000   0.0000   2.00    0.0
2019/01/15 09:28:04.000   4280230.2707  -4034435.9413  -2458273.2845   5  11  30.0000  30.0000  30.0000   0.0000   0.0000   0.0000   4.00    0.0
2019/01/15 09:28:05.000   4280230.2707  -4034435.9413  -2458273.2845   5  12  30.0000  30.0000  30.0000   0.0000   0.0000   0.0000   5.00    0.0
2019/01/15 09:28:08.000   4280230.2707  -4034435.9413  -2458273.2845   5  12  30.0000  30.0000  30.0000   0.0000   0.0000   0.0000   8.00    0.0
2019/01/15 09:28:20.000   4280230.2707  -4034435.9413  -2458273.2845   5  12  30.0000  30.0000  30.0000   0.0000   0.0000   0.0000   5.00    0.0
2019/01/15 09:28:23.000   4280230.2707  -4034435.9413  -2458273.2845   5  12  30.0000  30.0000  30.0000   0.0000   0.0000   0.0000   8.00    0.0
2019/01/15 09:28:26.000   4280230.2707  -4034435.9413  -2458273.2845   5  12  30.0000  30.0000  30.0000   0.0000   0.0000   0.0000  11.00    0.0
2019/01/15 09:28:32.000   4280230.2707  -4034435.9413  -2458273.2845   5  12  30.0000  30.0000  30.0000   0.0000   0.0000   0.0000   2.00    0.0
2019/01/15 09:28:36.000   4280230.2707  -4034435.9413  -2458273.2845   5  12  30.0000  30.0000  30.0000   0.0000   0.0000   0.0000   6.00    0.0
2019/01/15 09:28:39.000   4280230.2707  -4034435.9413  -2458273.2845   5  12  30.0000  30.0000  30.0000   0.0000   0.0000   0.0000   9.00    0.0
2019/01/15 09:28:43.000   4280230.2707  -4034435.9413  -2458273.2845   5  12  30.0000  30.0000  30.0000   0.0000   0.0000   0.0000  13.00    0.0
2019/01/15 09:28:47.000   4280230.2707  -4034435.9413  -2458273.2845   5  12  30.0000  30.0000  30.0000   0.0000   0.0000   0.0000   2.00    0.0
2019/01/15 09:28:51.000   4280230.2707  -4034435.9413  -2458273.2845   5  12  30.0000  30.0000  30.0000   0.0000   0.0000   0.0000   6.00    0.0
2019/01/15 09:28:54.000   4280230.2707  -4034435.9413  -2458273.2845   5  12  30.0000  30.0000  30.0000   0.0000   0.0000   0.0000   9.00    0.0
2019/01/15 09:28:55.000   4280230.2707  -4034435.9413  -2458273.2845   5  12  30.0000  30.0000  30.0000   0.0000   0.0000   0.0000  10.00    0.0
2019/01/15 09:28:56.000   4280230.2707  -4034435.9413  -2458273.2845   5  12  30.0000  30.0000  30.0000   0.0000   0.0000   0.0000  11.00    0.0
2019/01/15 09:28:57.000   4280230.2707  -4034435.9413  -2458273.2845   5  12  30.0000  30.0000  30.0000   0.0000   0.0000   0.0000  12.00    0.0
2019/01/15 09:28:58.000   4280230.2707  -4034435.9413  -2458273.2845   5  12  30.0000  30.0000  30.0000   0.0000   0.0000   0.0000  13.00    0.0
2019/01/15 09:29:00.000   4280230.2707  -4034435.9413  -2458273.2845   5  12  30.0000  30.0000  30.0000   0.0000   0.0000   0.0000   0.00    0.0
2019/01/15 09:29:02.000   4280230.2707  -4034435.9413  -2458273.2845   5  12  30.0000  30.0000  30.0000   0.0000   0.0000   0.0000   2.00    0.0
2019/01/15 09:29:42.000   4280230.2707  -4034435.9413  -2458273.2845   5  12  30.0000  30.0000  30.0000   0.0000   0.0000   0.0000  12.00    0.0
2019/01/15 09:29:43.000   4280230.2707  -4034435.9413  -2458273.2845   5  12  30.0000  30.0000  30.0000   0.0000   0.0000   0.0000  13.00    0.0
2019/01/15 09:29:44.000   4280230.2707  -4034435.9413  -2458273.2845   5  12  30.0000  30.0000  30.0000   0.0000   0.0000   0.0000  14.00    0.0
2019/01/15 09:29:53.000   4280230.2707  -4034435.9413  -2458273.2845   5  12  30.0000  30.0000  30.0000   0.0000   0.0000   0.0000   8.00    0.0
2019/01/15 09:29:55.000   4280230.2707  -4034435.9413  -2458273.2845   5  12  30.0000  30.0000  30.0000   0.0000   0.0000   0.0000  10.00    0.0
2019/01/15 09:29:59.000   4280230.2707  -4034435.9413  -2458273.2845   5  12  30.0000  30.0000  30.0000   0.0000   0.0000   0.0000  14.00    0.0
2019/01/15 09:30:00.000   4280230.2707  -4034435.9413  -2458273.2845   5  12  30.0000  30.0000  30.0000   0.0000   0.0000   0.0000   0.00    0.0
2019/01/15 09:30:01.000   4280230.2707  -4034435.9413  -2458273.2845   5  12  30.0000  30.0000  30.0000   0.0000   0.0000   0.0000   1.00    0.0
2019/01/15 09:30:03.000   4280230.2707  -4034435.9413  -2458273.2845   5  12  30.0000  30.0000  30.0000   0.0000   0.0000   0.0000   3.00    0.0
2019/01/15 09:30:04.000   4280230.2707  -4034435.9413  -2458273.2845   5  12  30.0000  30.0000  30.0000   0.0000   0.0000   0.0000   4.00    0.0
2019/01/15 09:30:14.000   4280230.2707  -4034435.9413  -2458273.2845   5  11  30.0000  30.0000  30.0000   0.0000   0.0000   0.0000  14.00    0.0
2019/01/15 09:30:15.000   4280230.2707  -4034435.9413  -2458273.2845   5  11  30.0000  30.0000  30.0000   0.0000   0.0000   0.0000   0.00    0.0
2019/01/15 09:30:18.000   4280230.2707  -4034435.9413  -2458273.2845   5  12  30.0000  30.0000  30.0000   0.0000   0.0000   0.0000   3.00    0.0
2019/01/15 09:30:22.000   4280230.2707  -4034435.9413  -2458273.2845   5  12  30.0000  30.0000  30.0000   0.0000   0.0000   0.0000   7.00    0.0
2019/01/15 09:30:25.000   4280230.2707  -4034435.9413  -2458273.2845   5  12  30.0000  30.0000  30.0000   0.0000   0.0000   0.0000  10.00    0.0
2019/01/15 09:30:26.000   4280230.2707  -4034435.9413  -2458273.2845   5  12  30.0000  30.0000  30.0000   0.0000   0.0000   0.0000  11.00    0.0
2019/01/15 09:30:27.000   4280230.2707  -4034435.9413  -2458273.2845   5  12  30.0000  30.0000  30.0000   0.0000   0.0000   0.0000  12.00    0.0
2019/01/15 09:30:29.000   4280230.2707  -4034435.9413  -2458273.2845   5  12  30.0000  30.0000  30.0000   0.0000   0.0000   0.0000  14.00    0.0
2019/01/15 09:30:31.000   4280230.2707  -4034435.9413  -2458273.2845   5  12  30.0000  30.0000  30.0000   0.0000   0.0000   0.0000   1.00    0.0
2019/01/15 09:30:33.000   4280230.2707  -4034435.9413  -2458273.2845   5  12  30.0000  30.0000  30.0000   0.0000   0.0000   0.0000   3.00    0.0
2019/01/15 09:30:40.000   4280230.2707  -4034435.9413  -2458273.2845   5  12  30.0000  30.0000  30.0000   0.0000   0.0000   0.0000  10.00    0.0
2019/01/15 09:30:44.000   4280230.2707  -4034435.9413  -2458273.2845   5  12  30.0000  30.0000  30.0000   0.0000   0.0000   0.0000  14.00    0.0
2019/01/15 09:30:46.000   4280230.2707  -4034435.9413  -2458273.2845   5  12  30.0000  30.0000  30.0000   0.0000   0.0000   0.0000   1.00    0.0
2019/01/15 09:30:50.000   4280230.2707  -4034435.9413  -2458273.2845   5  12  30.0000  30.0000  30.0000   0.0000   0.0000   0.0000   5.00    0.0
2019/01/15 09:30:53.000   4280230.2707  -4034435.9413  -2458273.2845   5  12  30.0000  30.0000  30.0000   0.0000   0.0000   0.0000   8.00    0.0
2019/01/15 09:30:54.000   4280230.2707  -4034435.9413  -2458273.2845   5  12  30.0000  30.0000  30.0000   0.0000   0.0000   0.0000   9.00    0.0
2019/01/15 09:30:55.000   4280230.2707  -4034435.9413  -2458273.2845   5  12  30.0000  30.0000  30.0000   0.0000   0.0000   0.0000  10.00    0.0
2019/01/15 09:31:01.000   4280230.2707  -4034435.9413  -2458273.2845   5  12  30.0000  30.0000  30.0000   0.0000   0.0000   0.0000   1.00    0.0
2019/01/15 09:31:05.000   4280230.2707  -4034435.9413  -2458273.2845   5  12  30.0000  30.0000  30.0000   0.0000   0.0000   0.0000   5.00    0.0
2019/01/15 09:31:06.000   4280230.2707  -4034435.9413  -2458273.2845   5  12  30.0000  30.0000  30.0000   0.0000   0.0000   0.0000   6.00    0.0
2019/01/15 09:31:29.000   4280230.2707  -4034435.9413  -2458273.2845   5  12  30.0000  30.0000  30.0000   0.0000   0.0000   0.0000  14.00    0.0
2019/01/15 09:32:01.000   4280230.2707  -4034435.9413  -2458273.2845   5  12  30.0000  30.0000  30.0000   0.0000   0.0000   0.0000   1.00    0.0
2019/01/15 09:32:11.000   4280230.2707  -4034435.9413  -2458273.2845   5  12  30.0000  30.0000  30.0000   0.0000   0.0000   0.0000  11.00    0.0
2019/01/15 09:32:18.000   4280230.2707  -4034435.9413  -2458273.2845   5  12  30.0000  30.0000  30.0000   0.0000   0.0000   0.0000   3.00    0.0
2019/01/15 09:32:19.000   4280230.2707  -4034435.9413  -2458273.2845   5  12  30.0000  30.0000  30.0000   0.0000   0.0000   0.0000   4.00    0.0
2019/01/15 09:32:21.000   4280230.2707  -4034435.9413  -2458273.2845   5  12  30.0000  30.0000  30.0000   0.0000   0.0000   0.0000   6.00    0.0
2019/01/15 09:32:26.000   4280230.2707  -4034435.9413  -2458273.2845   5  12  30.0000  30.0000  30.0000   0.0000   0.0000   0.0000  11.00    0.0
2019/01/15 09:32:27.000   4280230.2707  -4034435.9413  -2458273.2845   5  12  30.0000  30.0000  30.0000   0.0000   0.0000   0.0000  12.00    0.0
2019/01/15 09:32:28.000   4280230.2707  -4034435.9413  -2458273.2845   5  12  30.0000  30.0000  30.0000   0.0000   0.0000   0.0000  13.00    0.0
2019/01/15 09:32:29.000   4280230.2707  -4034435.9413  -2458273.2845   5  11  30.0000  30.0000  30.0000   0.0000   0.0000   0.0000  14.00    0.0
2019/01/15 09:32:32.000   4280230.2707  -4034435.9413  -2458273.2845   5  11  30.0000  30.0000  30.0000   0.0000   0.0000   0.0000   2.00    0.0
2019/01/15 09:32:33.000   4280230.2707  -4034435.9413  -2458273.2845   5  11  30.0000  30.0000  30.0000   0.0000   0.0000   0.0000   3.00    0.0
2019/01/15 09:32:35.000   4280230.2707  -4034435.9413  -2458273.2845   5  11  30.0000  30.0000  30.0000   0.0000   0.0000   0.0000   5.00    0.0
2019/01/15 09:32:36.000   4280230.2707  -4034435.9413  -2458273.2845   5  11  30.0000  30.0000  30.0000   0.0000   0.0000   0.0000   6.00    0.0
2019/01/15 09:32:46.000   4280230.2707  -4034435.9413  -2458273.2845   5  11  30.0000  30.0000  30.0000   0.0000   0.0000   0.0000   1.00    0.0
2019/01/15 09:32:54.000   4280230.2707  -4034435.9413  -2458273.2845   5  12  30.0000  30.0000  30.0000   0.0000   0.0000   0.0000   9.00    0.0
2019/01/15 09:33:05.000   4280230.2707  -4034435.9413  -2458273.2845   5  12  30.0000  30.0000  30.0000   0.0000   0.0000   0.0000   5.00    0.0
2019/01/15 09:33:06.000   4280230.2707  -4034435.9413  -2458273.2845   5  12  30.0000  30.0000  30.0000   0.0000   0.0000   0.0000   6.00    0.0
2019/01/15 09:33:09.000   4280230.2707  -4034435.9413  -2458273.2845   5  12  30.0000  30.0000  30.0000   0.0000   0.0000   0.0000   9.00    0.0
2019/01/15 09:33:10.000   4280230.2707  -4034435.9413  -2458273.2845   5  12  30.0000  30.0000  30.0000   0.0000   0.0000   0.0000  10.00    0.0
2019/01/15 09:33:17.000   4280230.2707  -4034435.9413  -2458273.2845   5  12  30.0000  30.0000  30.0000   0.0000   0.0000   0.0000   2.00    0.0
2019/01/15 09:33:37.000   4280230.2707  -4034435.9413  -2458273.2845   5  12  30.0000  30.0000  30.0000   0.0000   0.0000   0.0000   7.00    0.0
2019/01/15 09:33:51.000   4280230.2707  -4034435.9413  -2458273.2845   5  12  30.0000  30.0000  30.0000   0.0000   0.0000   0.0000   6.00    0.0
2019/01/15 09:33:59.000   4280230.2707  -4034435.9413  -2458273.2845   5  12  30.0000  30.0000  30.0000   0.0000   0.0000   0.0000  14.00    0.0
2019/01/15 09:34:03.000   4280230.2707  -4034435.9413  -2458273.2845   5  12  30.0000  30.0000  30.0000   0.0000   0.0000   0.0000   3.00    0.0
2019/01/15 09:34:30.000   4280230.2707  -4034435.9413  -2458273.2845   5  11  30.0000  30.0000  30.0000   0.0000   0.0000   0.0000   0.00    0.0
2019/01/15 09:34:32.000   4280230.2707  -4034435.9413  -2458273.2845   5  11  30.0000  30.0000  30.0000   0.0000   0.0000   0.0000   2.00    0.0
2019/01/15 09:34:34.000   4280230.2707  -4034435.9413  -2458273.2845   5  11  30.0000  30.0000  30.0000   0.0000   0.0000   0.0000   4.00    0.0
2019/01/15 09:34:46.000   4280230.2707  -4034435.9413  -2458273.2845   5  12  30.0000  30.0000  30.0000   0.0000   0.0000   0.0000   1.00    0.0
2019/01/15 09:34:47.000   4280230.2707  -4034435.9413  -2458273.2845   5  12  30.0000  30.0000  30.0000   0.0000   0.0000   0.0000   2.00    0.0
2019/01/15 09:34:51.000   4280230.2707  -4034435.9413  -2458273.2845   5  12  30.0000  30.0000  30.0000   0.0000   0.0000   0.0000   6.00    0.0
2019/01/15 09:34:53.000   4280230.2707  -4034435.9413  -2458273.2845   5  12  30.0000  30.0000  30.0000   0.0000   0.0000   0.0000   8.00    0.0
2019/01/15 09:34:54.000   4280230.2707  -4034435.9413  -2458273.2845   5  12  30.0000  30.0000  30.0000   0.0000   0.0000   0.0000   9.00    0.0
2019/01/15 09:34:55.000   4280230.2707  -4034435.9413  -2458273.2845   5  12  30.0000  30.0000  30.0000   0.0000   0.0000   0.0000  10.00    0.0
2019/01/15 09:35:06.000   4280230.2707  -4034435.9413  -2458273.2845   5  12  30.0000  30.0000  30.0000   0.0000   0.0000   0.0000   6.00    0.0
2019/01/15 09:35:07.000   4280230.2707  -4034435.9413  -2458273.2845   5  12  30.0000  30.0000  30.0000   0.0000   0.0000   0.0000   7.00    0.0
2019/01/15 09:35:09.000   4280230.2707  -4034435.9413  -2458273.2845   5  12  30.0000  30.0000  30.0000   0.0000   0.0000   0.0000   9.00    0.0
2019/01/15 09:35:21.000   4280230.2707  -4034435.9413  -2458273.2845   5  12  30.0000  30.0000  30.0000   0.0000   0.0000   0.0000   6.00    0.0
2019/01/15 09:35:26.000   4280230.2707  -4034435.9413  -2458273.2845   5  12  30.0000  30.0000  30.0000   0.0000   0.0000   0.0000  11.00    0.0
2019/01/15 09:35:39.000   4280230.2707  -4034435.9413  -2458273.2845   5  12  30.0000  30.0000  30.0000   0.0000   0.0000   0.0000   9.00    0.0
2019/01/15 09:35:46.000   4280230.2707  -4034435.9413  -2458273.2845   5  12  30.0000  30.0000  30.0000   0.0000   0.0000   0.0000   1.00    0.0
2019/01/15 09:35:48.000   4280230.2707  -4034435.9413  -2458273.2845   5  12  30.0000  30.0000  30.0000   0.0000   0.0000   0.0000   3.00    0.0
2019/01/15 09:36:26.000   4280230.2707  -4034435.9413  -2458273.2845   5  12  30.0000  30.0000  30.0000   0.0000   0.0000   0.0000  11.00    0.0
2019/01/15 09:36:33.000   4280230.2707  -4034435.9413  -2458273.2845   5  12  30.0000  30.0000  30.0000   0.0000   0.0000   0.0000   3.00    0.0
2019/01/15 09:36:34.000   4280230.2707  -4034435.9413  -2458273.2845   5  12  30.0000  30.0000  30.0000   0.0000   0.0000   0.0000   4.00    0.0
2019/01/15 09:36:38.000   4280230.2707  -4034435.9413  -2458273.2845   5  12  30.0000  30.0000  30.0000   0.0000   0.0000   0.0000   8.00    0.0
2019/01/15 09:36:43.000   4280230.2707  -4034435.9413  -2458273.2845   5  12  30.0000  30.0000  30.0000   0.0000   0.0000   0.0000  13.00    0.0
2019/01/15 09:37:16.000   4280230.2707  -4034435.9413  -2458273.2845   5  12  30.0000  30.0000  30.0000   0.0000   0.0000   0.0000   1.00    0.0
2019/01/15 09:37:18.000   4280230.2707  -4034435.9413  -2458273.2845   5  12  30.0000  30.0000  30.0000   0.0000   0.0000   0.0000   3.00    0.0
2019/01/15 09:37:19.000   4280230.2707  -4034435.9413  -2458273.2845   5  12  30.0000  30.0000  30.0000   0.0000   0.0000   0.0000   4.00    0.0
2019/01/15 09:37:24.000   4280230.2707  -4034435.9413  -2458273.2845   5  12  30.0000  30.0000  30.0000   0.0000   0.0000   0.0000   9.00    0.0
2019/01/15 09:37:29.000   4280230.2707  -4034435.9413  -2458273.2845   5  12  30.0000  30.0000  30.0000   0.0000   0.0000   0.0000  14.00    0.0
2019/01/15 09:37:33.000   4280230.2707  -4034435.9413  -2458273.2845   5  12  30.0000  30.0000  30.0000   0.0000   0.0000   0.0000   3.00    0.0
2019/01/15 09:37:35.000   4280230.2707  -4034435.9413  -2458273.2845   5  12  30.0000  30.0000  30.0000   0.0000   0.0000   0.0000   5.00    0.0
2019/01/15 09:37:36.000   4280230.2707  -4034435.9413  -2458273.2845   5  12  30.0000  30.0000  30.0000   0.0000   0.0000   0.0000   6.00    0.0
2019/01/15 09:37:37.000   4280230.2707  -4034435.9413  -2458273.2845   5  12  30.0000  30.0000  30.0000   0.0000   0.0000   0.0000   7.00    0.0
2019/01/15 09:37:41.000   4280230.2707  -4034435.9413  -2458273.2845   5  12  30.0000  30.0000  30.0000   0.0000   0.0000   0.0000  11.00    0.0
2019/01/15 09:37:42.000   4280230.2707  -4034435.9413  -2458273.2845   5  12  30.0000  30.0000  30.0000   0.0000   0.0000   0.0000  12.00    0.0
2019/01/15 09:37:44.000   4280230.2707  -4034435.9413  -2458273.2845   5  12  30.0000  30.0000  30.0000   0.0000   0.0000   0.0000  14.00    0.0
2019/01/15 09:37:45.000   4280230.2707  -4034435.9413  -2458273.2845   5  12  30.0000  30.0000  30.0000   0.0000   0.0000   0.0000   0.00    0.0
2019/01/15 09:37:47.000   4280230.2707  -4034435.9413  -2458273.2845   5  12  30.0000  30.0000  30.0000   0.0000   0.0000   0.0000   2.00    0.0
2019/01/15 09:37:52.000   4280230.2707  -4034435.9413  -2458273.2845   5  12  30.0000  30.0000  30.0000   0.0000   0.0000   0.0000   7.00    0.0
2019/01/15 09:38:17.000   4280230.2707  -4034435.9413  -2458273.2845   5  12  30.0000  30.0000  30.0000   0.0000   0.0000   0.0000   2.00    0.0
2019/01/15 09:38:20.000   4280230.2707  -4034435.9413  -2458273.2845   5  12  30.0000  30.0000  30.0000   0.0000   0.0000   0.0000   5.00    0.0
2019/01/15 09:38:22.000   4280230.2707  -4034435.9413  -2458273.2845   5  12  30.0000  30.0000  30.0000   0.0000   0.0000   0.0000   7.00    0.0
2019/01/15 09:38:28.000   4280230.2707  -4034435.9413  -2458273.2845   5  12  30.0000  30.0000  30.0000   0.0000   0.0000   0.0000  13.00    0.0
2019/01/15 09:38:33.000   4280230.2707  -4034435.9413  -2458273.2845   5  12  30.0000  30.0000  30.0000   0.0000   0.0000   0.0000   3.00    0.0
2019/01/15 09:38:36.000   4280230.2707  -4034435.9413  -2458273.2845   5  12  30.0000  30.0000  30.0000   0.0000   0.0000   0.0000   6.00    0.0
2019/01/15 09:38:39.000   4280230.2707  -4034435.9413  -2458273.2845   5  12  30.0000  30.0000  30.0000   0.0000   0.0000   0.0000   9.00    0.0
2019/01/15 09:38:43.000   4280230.2707  -4034435.9413  -2458273.2845   5  12  30.0000  30.0000  30.0000   0.0000   0.0000   0.0000  13.00    0.0
2019/01/15 09:38:46.000   4280230.2707  -4034435.9413  -2458273.2845   5  12  30.0000  30.0000  30.0000   0.0000   0.0000   0.0000   1.00    0.0
2019/01/15 09:38:49.000   4280230.2707  -4034435.9413  -2458273.2845   5  12  30.0000  30.0000  30.0000   0.0000   0.0000   0.0000   4.00    0.0
2019/01/15 09:38:58.000   4280230.2707  -4034435.9413  -2458273.2845   5  12  30.0000  30.0000  30.0000   0.0000   0.0000   0.0000  13.00    0.0
2019/01/15 09:39:02.000   4280230.2707  -4034435.9413  -2458273.2845   5  12  30.0000  30.0000  30.0000   0.0000   0.0000   0.0000   2.00    0.0
2019/01/15 09:39:09.000   4280230.2707  -4034435.9413  -2458273.2845   5  12  30.0000  30.0000  30.0000   0.0000   0.0000   0.0000   9.00    0.0
2019/01/15 09:39:12.000   4280230.2707  -4034435.9413  -2458273.2845   5  12  30.0000  30.0000  30.0000   0.0000   0.0000   0.0000  12.00    0.0
2019/01/15 09:39:13.000   4280230.2707  -4034435.9413  -2458273.2845   5  12  30.0000  30.0000  30.0000   0.0000   0.0000   0.0000  13.00    0.0
2019/01/15 09:39:21.000   4280230.2707  -4034435.9413  -2458273.2845   5  12  30.0000  30.0000  30.0000   0.0000   0.0000   0.0000   6.00    0.0
2019/01/15 09:39:30.000   4280230.2707  -4034435.9413  -2458273.2845   5  12  30.0000  30.0000  30.0000   0.0000   0.0000   0.0000   0.00    0.0
2019/01/15 09:39:43.000   4280230.2707  -4034435.9413  -2458273.2845   5  12  30.0000  30.0000  30.0000   0.0000   0.0000   0.0000  13.00    0.0
2019/01/15 09:40:18.000   4280230.2707  -4034435.9413  -2458273.2845   5  12  30.0000  30.0000  30.0000   0.0000   0.0000   0.0000   3.00    0.0
2019/01/15 09:40:23.000   4280230.2707  -4034435.9413  -2458273.2845   5  12  30.0000  30.0000  30.0000   0.0000   0.0000   0.0000   8.00    0.0
2019/01/15 09:40:36.000   4280230.2707  -4034435.9413  -2458273.2845   5  12  30.0000  30.0000  30.0000   0.0000   0.0000   0.0000   6.00    0.0
2019/01/15 09:40:42.000   4280230.2707  -4034435.9413  -2458273.2845   5  12  30.0000  30.0000  30.0000   0.0000   0.0000   0.0000  12.00    0.0
2019/01/15 09:40:47.000   4280230.2707  -4034435.9413  -2458273.2845   5  12  30.0000  30.0000  30.0000   0.0000   0.0000   0.0000   2.00    0.0
2019/01/15 09:40:55.000   4280230.2707  -4034435.9413  -2458273.2845   5  12  30.0000  30.0000  30.0000   0.0000   0.0000   0.0000  10.00    0.0
2019/01/15 09:40:56.000   4280230.2707  -4034435.9413  -2458273.2845   5  12  30.0000  30.0000  30.0000   0.0000   0.0000   0.0000  11.00    0.0
2019/01/15 09:41:00.000   4280230.2707  -4034435.9413  -2458273.2845   5  12  30.0000  30.0000  30.0000   0.0000   0.0000   0.0000   0.00    0.0
2019/01/15 09:41:01.000   4280230.2707  -4034435.9413  -2458273.2845   5  12  30.0000  30.0000  30.0000   0.0000   0.0000   0.0000   1.00    0.0
2019/01/15 09:41:02.000   4280230.2707  -4034435.9413  -2458273.2845   5  12  30.0000  30.0000  30.0000   0.0000   0.0000   0.0000   2.00    0.0
2019/01/15 09:41:11.000   4280230.2707  -4034435.9413  -2458273.2845   5  12  30.0000  30.0000  30.0000   0.0000   0.0000   0.0000  11.00    0.0
2019/01/15 09:41:12.000   4280230.2707  -4034435.9413  -2458273.2845   5  12  30.0000  30.0000  30.0000   0.0000   0.0000   0.0000  12.00    0.0
2019/01/15 09:41:16.000   4280230.2707  -4034435.9413  -2458273.2845   5  12  30.0000  30.0000  30.0000   0.0000   0.0000   0.0000   1.00    0.0
2019/01/15 09:41:17.000   4280230.2707  -4034435.9413  -2458273.2845   5  12  30.0000  30.0000  30.0000   0.0000   0.0000   0.0000   2.00    0.0
2019/01/15 09:41:18.000   4280230.2707  -4034435.9413  -2458273.2845   5  12  30.0000  30.0000  30.0000   0.0000   0.0000   0.0000   3.00    0.0
2019/01/15 09:41:19.000   4280230.2707  -4034435.9413  -2458273.2845   5  12  30.0000  30.0000  30.0000   0.0000   0.0000   0.0000   4.00    0.0
2019/01/15 09:41:20.000   4280230.2707  -4034435.9413  -2458273.2845   5  12  30.0000  30.0000  30.0000   0.0000   0.0000   0.0000   5.00    0.0
2019/01/15 09:41:27.000   4280230.2707  -4034435.9413  -2458273.2845   5  12  30.0000  30.0000  30.0000   0.0000   0.0000   0.0000  12.00    0.0
2019/01/15 09:41:31.000   4280230.2707  -4034435.9413  -2458273.2845   5  12  30.0000  30.0000  30.0000   0.0000   0.0000   0.0000   1.00    0.0
2019/01/15 09:41:32.000   4280230.2707  -4034435.9413  -2458273.2845   5  12  30.0000  30.0000  30.0000   0.0000   0.0000   0.0000   2.00    0.0
2019/01/15 09:41:38.000   4280230.2707  -4034435.9413  -2458273.2845   5  12  30.0000  30.0000  30.0000   0.0000   0.0000   0.0000   8.00    0.0
2019/01/15 09:41:40.000   4280230.2707  -4034435.9413  -2458273.2845   5  12  30.0000  30.0000  30.0000   0.0000   0.0000   0.0000  10.00    0.0
2019/01/15 09:41:41.000   4280230.2707  -4034435.9413  -2458273.2845   5  12  30.0000  30.0000  30.0000   0.0000   0.0000   0.0000  11.00    0.0
2019/01/15 09:41:43.000   4280230.2707  -4034435.9413  -2458273.2845   5  12  30.0000  30.0000  30.0000   0.0000   0.0000   0.0000  13.00    0.0
2019/01/15 09:41:50.000   4280230.2707  -4034435.9413  -2458273.2845   5  12  30.0000  30.0000  30.0000   0.0000   0.0000   0.0000   5.00    0.0
2019/01/15 09:41:51.000   4280230.2707  -4034435.9413  -2458273.2845   5  12  30.0000  30.0000  30.0000   0.0000   0.0000   0.0000   6.00    0.0
2019/01/15 09:41:54.000   4280230.2707  -4034435.9413  -2458273.2845   5  12  30.0000  30.0000  30.0000   0.0000   0.0000   0.0000   9.00    0.0
2019/01/15 09:42:00.000   4280230.2707  -4034435.9413  -2458273.2845   5  12  30.0000  30.0000  30.0000   0.0000   0.0000   0.0000   0.00    0.0
2019/01/15 09:42:01.000   4280230.2707  -4034435.9413  -2458273.2845   5  12  30.0000  30.0000  30.0000   0.0000   0.0000   0.0000   1.00    0.0
2019/01/15 09:42:05.000   4280230.2707  -4034435.9413  -2458273.2845   5  12  30.0000  30.0000  30.0000   0.0000   0.0000   0.0000   5.00    0.0
2019/01/15 09:42:09.000   4280230.2707  -4034435.9413  -2458273.2845   5  12  30.0000  30.0000  30.0000   0.0000   0.0000   0.0000   9.00    0.0
2019/01/15 09:42:31.000   4280230.2707  -4034435.9413  -2458273.2845   5  12  30.0000  30.0000  30.0000   0.0000   0.0000   0.0000   1.00    0.0
2019/01/15 09:42:32.000   4280230.2707  -4034435.9413  -2458273.2845   5  12  30.0000  30.0000  30.0000   0.0000   0.0000   0.0000   2.00    0.0
2019/01/15 09:42:36.000   4280230.2707  -4034435.9413  -2458273.2845   5  12  30.0000  30.0000  30.0000   0.0000   0.0000   0.0000   6.00    0.0
2019/01/15 09:42:37.000   4280230.2707  -4034435.9413  -2458273.2845   5  12  30.0000  30.0000  30.0000   0.0000   0.0000   0.0000   7.00    0.0
2019/01/15 09:42:38.000   4280230.2707  -4034435.9413  -2458273.2845   5  12  30.0000  30.0000  30.0000   0.0000   0.0000   0.0000   8.00    0.0
2019/01/15 09:42:43.000   4280230.2707  -4034435.9413  -2458273.2845   5  12  30.0000  30.0000  30.0000   0.0000   0.0000   0.0000  13.00    0.0
2019/01/15 09:42:46.000   4280230.2707  -4034435.9413  -2458273.2845   5  12  30.0000  30.0000  30.0000   0.0000   0.0000   0.0000   1.00    0.0
2019/01/15 09:42:52.000   4280230.2707  -4034435.9413  -2458273.2845   5  12  30.0000  30.0000  30.0000   0.0000   0.0000   0.0000   7.00    0.0
2019/01/15 09:42:59.000   4280230.2707  -4034435.9413  -2458273.2845   5  12  30.0000  30.0000  30.0000   0.0000   0.0000   0.0000  14.00    0.0
2019/01/15 09:43:00.000   4280230.2707  -4034435.9413  -2458273.2845   5  12  30.0000  30.0000  30.0000   0.0000   0.0000   0.0000   0.00    0.0
2019/01/15 09:43:05.000   4280230.2707  -4034435.9413  -2458273.2845   5  12  30.0000  30.0000  30.0000   0.0000   0.0000   0.0000   5.00    0.0
2019/01/15 09:43:06.000   4280230.2707  -4034435.9413  -2458273.2845   5  12  30.0000  30.0000  30.0000   0.0000   0.0000   0.0000   6.00    0.0
2019/01/15 09:43:10.000   4280230.2707  -4034435.9413  -2458273.2845   5  12  30.0000  30.0000  30.0000   0.0000   0.0000   0.0000  10.00    0.0
2019/01/15 09:43:12.000   4280230.2707  -4034435.9413  -2458273.2845   5  12  30.0000  30.0000  30.0000   0.0000   0.0000   0.0000  12.00    0.0
2019/01/15 09:43:21.000   4280230.2707  -4034435.9413  -2458273.2845   5  12  30.0000  30.0000  30.0000   0.0000   0.0000   0.0000   6.00    0.0
2019/01/15 09:43:22.000   4280230.2707  -4034435.9413  -2458273.2845   5  12  30.0000  30.0000  30.0000   0.0000   0.0000   0.0000   7.00    0.0
2019/01/15 09:43:25.000   4280230.2707  -4034435.9413  -2458273.2845   5  12  30.0000  30.0000  30.0000   0.0000   0.0000   0.0000  10.00    0.0
2019/01/15 09:43:28.000   4280230.2707  -4034435.9413  -2458273.2845   5  12  30.0000  30.0000  30.0000   0.0000   0.0000   0.0000  13.00    0.0
2019/01/15 09:43:31.000   4280230.2707  -4034435.9413  -2458273.2845   5  12  30.0000  30.0000  30.0000   0.0000   0.0000   0.0000   1.00    0.0
2019/01/15 09:43:32.000   4280230.2707  -4034435.9413  -2458273.2845   5  12  30.0000  30.0000  30.0000   0.0000   0.0000   0.0000   2.00    0.0
2019/01/15 09:43:33.000   4280230.2707  -4034435.9413  -2458273.2845   5  12  30.0000  30.0000  30.0000   0.0000   0.0000   0.0000   3.00    0.0
2019/01/15 09:43:38.000   4280230.2707  -4034435.9413  -2458273.2845   5  12  30.0000  30.0000  30.0000   0.0000   0.0000   0.0000   8.00    0.0
2019/01/15 09:43:39.000   4280230.2707  -4034435.9413  -2458273.2845   5  12  30.0000  30.0000  30.0000   0.0000   0.0000   0.0000   9.00    0.0
2019/01/15 09:43:40.000   4280230.2707  -4034435.9413  -2458273.2845   5  12  30.0000  30.0000  30.0000   0.0000   0.0000   0.0000  10.00    0.0
2019/01/15 09:43:41.000   4280230.2707  -4034435.9413  -2458273.2845   5  12  30.0000  30.0000  30.0000   0.0000   0.0000   0.0000  11.00    0.0
2019/01/15 09:43:46.000   4280230.2707  -4034435.9413  -2458273.2845   5  12  30.0000  30.0000  30.0000   0.0000   0.0000   0.0000   1.00    0.0
2019/01/15 09:43:48.000   4280230.2707  -4034435.9413  -2458273.2845   5  12  30.0000  30.0000  30.0000   0.0000   0.0000   0.0000   3.00    0.0
2019/01/15 09:43:49.000   4280230.2707  -4034435.9413  -2458273.2845   5  12  30.0000  30.0000  30.0000   0.0000   0.0000   0.0000   4.00    0.0
2019/01/15 09:43:51.000   4280230.2707  -4034435.9413  -2458273.2845   5  12  30.0000  30.0000  30.0000   0.0000   0.0000   0.0000   6.00    0.0
2019/01/15 09:43:54.000   4280230.2707  -4034435.9413  -2458273.2845   5  12  30.0000  30.0000  30.0000   0.0000   0.0000   0.0000   9.00    0.0
2019/01/15 09:43:55.000   4280230.2707  -4034435.9413  -2458273.2845   5  12  30.0000  30.0000  30.0000   0.0000   0.0000   0.0000  10.00    0.0
2019/01/15 09:43:56.000   4280230.2707  -4034435.9413  -2458273.2845   5  12  30.0000  30.0000  30.0000   0.0000   0.0000   0.0000  11.00    0.0
2019/01/15 09:43:58.000   4280230.2707  -4034435.9413  -2458273.2845   5  12  30.0000  30.0000  30.0000   0.0000   0.0000   0.0000  13.00    0.0
2019/01/15 09:44:07.000   4280230.2707  -4034435.9413  -2458273.2845   5  10  30.0000  30.0000  30.0000   0.0000   0.0000   0.0000   7.00    0.0
2019/01/15 09:44:13.000   4280230.2707  -4034435.9413  -2458273.2845   5  11  30.0000  30.0000  30.0000   0.0000   0.0000   0.0000  13.00    0.0
2019/01/15 09:44:24.000   4280230.2707  -4034435.9413  -2458273.2845   5  12  30.0000  30.0000  30.0000   0.0000   0.0000   0.0000   9.00    0.0
2019/01/15 09:44:40.000   4280230.2707  -4034435.9413  -2458273.2845   5  12  30.0000  30.0000  30.0000   0.0000   0.0000   0.0000  10.00    0.0
2019/01/15 09:44:41.000   4280230.2707  -4034435.9413  -2458273.2845   5  12  30.0000  30.0000  30.0000   0.0000   0.0000   0.0000  11.00    0.0
2019/01/15 09:44:49.000   4280230.2707  -4034435.9413  -2458273.2845   5  12  30.0000  30.0000  30.0000   0.0000   0.0000   0.0000   4.00    0.0
2019/01/15 09:44:51.000   4280230.2707  -4034435.9413  -2458273.2845   5  12  30.0000  30.0000  30.0000   0.0000   0.0000   0.0000   6.00    0.0
2019/01/15 09:45:02.000   4280230.2707  -4034435.9413  -2458273.2845   5  12  30.0000  30.0000  30.0000   0.0000   0.0000   0.0000   2.00    0.0
2019/01/15 09:45:07.000   4280230.2707  -4034435.9413  -2458273.2845   5  12  30.0000  30.0000  30.0000   0.0000   0.0000   0.0000   7.00    0.0
2019/01/15 09:45:12.000   4280230.2707  -4034435.9413  -2458273.2845   5  12  30.0000  30.0000  30.0000   0.0000   0.0000   0.0000  12.00    0.0
2019/01/15 09:45:13.000   4280230.2707  -4034435.9413  -2458273.2845   5  12  30.0000  30.0000  30.0000   0.0000   0.0000   0.0000  13.00    0.0
2019/01/15 09:45:26.000   4280230.2707  -4034435.9413  -2458273.2845   5  12  30.0000  30.0000  30.0000   0.0000   0.0000   0.0000  11.00    0.0
2019/01/15 09:45:31.000   4280230.2707  -4034435.9413  -2458273.2845   5  12  30.0000  30.0000  30.0000   0.0000   0.0000   0.0000   1.00    0.0
2019/01/15 09:45:32.000   4280230.2707  -4034435.9413  -2458273.2845   5  12  30.0000  30.0000  30.0000   0.0000   0.0000   0.0000   2.00    0.0
2019/01/15 09:45:34.000   4280230.2707  -4034435.9413  -2458273.2845   5  12  30.0000  30.0000  30.0000   0.0000   0.0000   0.0000   4.00    0.0
2019/01/15 09:45:40.000   4280230.2707  -4034435.9413  -2458273.2845   5  12  30.0000  30.0000  30.0000   0.0000   0.0000   0.0000  10.00    0.0
2019/01/15 09:45:47.000   4280230.2707  -4034435.9413  -2458273.2845   5  12  30.0000  30.0000  30.0000   0.0000   0.0000   0.0000   2.00    0.0
2019/01/15 09:45:51.000   4280230.2707  -4034435.9413  -2458273.2845   5  12  30.0000  30.0000  30.0000   0.0000   0.0000   0.0000   6.00    0.0
2019/01/15 09:46:31.000   4280230.2707  -4034435.9413  -2458273.2845   5  12  30.0000  30.0000  30.0000   0.0000   0.0000   0.0000   1.00    0.0
2019/01/15 09:46:37.000   4280230.2707  -4034435.9413  -2458273.2845   5  12  30.0000  30.0000  30.0000   0.0000   0.0000   0.0000   7.00    0.0
2019/01/15 09:46:38.000   4280230.2707  -4034435.9413  -2458273.2845   5  12  30.0000  30.0000  30.0000   0.0000   0.0000   0.0000   8.00    0.0
2019/01/15 09:46:39.000   4280230.2707  -4034435.9413  -2458273.2845   5  12  30.0000  30.0000  30.0000   0.0000   0.0000   0.0000   9.00    0.0
2019/01/15 09:46:44.000   4280230.2707  -4034435.9413  -2458273.2845   5  12  30.0000  30.0000  30.0000   0.0000   0.0000   0.0000  14.00    0.0
2019/01/15 09:46:50.000   4280230.2707  -4034435.9413  -2458273.2845   5  12  30.0000  30.0000  30.0000   0.0000   0.0000   0.0000   5.00    0.0
2019/01/15 09:46:51.000   4280230.2707  -4034435.9413  -2458273.2845   5  12  30.0000  30.0000  30.0000   0.0000   0.0000   0.0000   6.00    0.0
2019/01/15 09:46:52.000   4280230.2707  -4034435.9413  -2458273.2845   5  12  30.0000  30.0000  30.0000   0.0000   0.0000   0.0000   7.00    0.0
2019/01/15 09:46:56.000   4280230.2707  -4034435.9413  -2458273.2845   5  12  30.0000  30.0000  30.0000   0.0000   0.0000   0.0000  11.00    0.0
2019/01/15 09:47:00.000   4280230.2707  -4034435.9413  -2458273.2845   5  12  30.0000  30.0000  30.0000   0.0000   0.0000   0.0000   0.00    0.0
2019/01/15 09:47:02.000   4280230.2707  -4034435.9413  -2458273.2845   5  12  30.0000  30.0000  30.0000   0.0000   0.0000   0.0000   2.00    0.0
2019/01/15 09:47:15.000   4280230.2707  -4034435.9413  -2458273.2845   5  12  30.0000  30.0000  30.0000   0.0000   0.0000   0.0000   0.00    0.0
2019/01/15 09:47:24.000   4280230.2707  -4034435.9413  -2458273.2845   5  12  30.0000  30.0000  30.0000   0.0000   0.0000   0.0000   9.00    0.0
2019/01/15 09:47:27.000   4280230.2707  -4034435.9413  -2458273.2845   5  12  30.0000  30.0000  30.0000   0.0000   0.0000   0.0000  12.00    0.0
2019/01/15 09:47:29.000   4280230.2707  -4034435.9413  -2458273.2845   5  12  30.0000  30.0000  30.0000   0.0000   0.0000   0.0000  14.00    0.0
2019/01/15 09:47:35.000   4280230.2707  -4034435.9413  -2458273.2845   5  12  30.0000  30.0000  30.0000   0.0000   0.0000   0.0000   5.00    0.0
2019/01/15 09:47:36.000   4280230.2707  -4034435.9413  -2458273.2845   5  12  30.0000  30.0000  30.0000   0.0000   0.0000   0.0000   6.00    0.0
2019/01/15 09:47:39.000   4280230.2707  -4034435.9413  -2458273.2845   5  12  30.0000  30.0000  30.0000   0.0000   0.0000   0.0000   9.00    0.0
2019/01/15 09:47:42.000   4280230.2707  -4034435.9413  -2458273.2845   5  12  30.0000  30.0000  30.0000   0.0000   0.0000   0.0000  12.00    0.0
2019/01/15 09:47:43.000   4280230.2707  -4034435.9413  -2458273.2845   5  12  30.0000  30.0000  30.0000   0.0000   0.0000   0.0000  13.00    0.0
2019/01/15 09:47:45.000   4280230.2707  -4034435.9413  -2458273.2845   5  12  30.0000  30.0000  30.0000   0.0000   0.0000   0.0000   0.00    0.0
2019/01/15 09:47:49.000   4280230.2707  -4034435.9413  -2458273.2845   5  12  30.0000  30.0000  30.0000   0.0000   0.0000   0.0000   4.00    0.0
2019/01/15 09:47:50.000   4280230.2707  -4034435.9413  -2458273.2845   5  12  30.0000  30.0000  30.0000   0.0000   0.0000   0.0000   5.00    0.0
2019/01/15 09:47:52.000   4280230.2707  -4034435.9413  -2458273.2845   5  12  30.0000  30.0000  30.0000   0.0000   0.0000   0.0000   7.00    0.0
2019/01/15 09:47:53.000   4280230.2707  -4034435.9413  -2458273.2845   5  12  30.0000  30.0000  30.0000   0.0000   0.0000   0.0000   8.00    0.0
2019/01/15 09:47:56.000   4280230.2707  -4034435.9413  -2458273.2845   5  12  30.0000  30.0000  30.0000   0.0000   0.0000   0.0000  11.00    0.0
2019/01/15 09:47:57.000   4280230.2707  -4034435.9413  -2458273.2845   5  12  30.0000  30.0000  30.0000   0.0000   0.0000   0.0000  12.00    0.0
2019/01/15 09:47:58.000   4280230.2707  -4034435.9413  -2458273.2845   5  12  30.0000  30.0000  30.0000   0.0000   0.0000   0.0000  13.00    0.0
2019/01/15 09:48:00.000   4280230.2707  -4034435.9413  -2458273.2845   5  12  30.0000  30.0000  30.0000   0.0000   0.0000   0.0000   0.00    0.0
2019/01/15 09:48:02.000   4280230.2707  -4034435.9413  -2458273.2845   5  12  30.0000  30.0000  30.0000   0.0000   0.0000   0.0000   2.00    0.0
2019/01/15 09:48:08.000   4280230.2707  -4034435.9413  -2458273.2845   5  12  30.0000  30.0000  30.0000   0.0000   0.0000   0.0000   8.00    0.0
2019/01/15 09:48:09.000   4280230.2707  -4034435.9413  -2458273.2845   5  12  30.0000  30.0000  30.0000   0.0000   0.0000   0.0000   9.00    0.0
2019/01/15 09:48:26.000   4280230.2707  -4034435.9413  -2458273.2845   5  12  30.0000  30.0000  30.0000   0.0000   0.0000   0.0000  11.00    0.0
2019/01/15 09:48:29.000   4280230.2707  -4034435.9413  -2458273.2845   5  12  30.0000  30.0000  30.0000   0.0000   0.0000   0.0000  14.00    0.0
2019/01/15 09:48:32.000   4280230.2707  -4034435.9413  -2458273.2845   5  12  30.0000  30.0000  30.0000   0.0000   0.0000   0.0000   2.00    0.0
2019/01/15 09:48:33.000   4280230.2707  -4034435.9413  -2458273.2845   5  12  30.0000  30.0000  30.0000   0.0000   0.0000   0.0000   3.00    0.0
2019/01/15 09:48:37.000   4280230.2707  -4034435.9413  -2458273.2845   5  12  30.0000  30.0000  30.0000   0.0000   0.0000   0.0000   7.00    0.0
2019/01/15 09:48:39.000   4280230.2707  -4034435.9413  -2458273.2845   5  12  30.0000  30.0000  30.0000   0.0000   0.0000   0.0000   9.00    0.0
2019/01/15 09:48:45.000   4280230.2707  -4034435.9413  -2458273.2845   5  11  30.0000  30.0000  30.0000   0.0000   0.0000   0.0000   0.00    0.0
2019/01/15 09:48:51.000   4280230.2707  -4034435.9413  -2458273.2845   5  11  30.0000  30.0000  30.0000   0.0000   0.0000   0.0000   6.00    0.0
2019/01/15 09:48:53.000   4280230.2707  -4034435.9413  -2458273.2845   5  11  30.0000  30.0000  30.0000   0.0000   0.0000   0.0000   8.00    0.0
2019/01/15 09:48:59.000   4280230.2707  -4034435.9413  -2458273.2845   5  11  30.0000  30.0000  30.0000   0.0000   0.0000   0.0000  14.00    0.0
2019/01/15 09:49:00.000   4280230.2707  -4034435.9413  -2458273.2845   5  11  30.0000  30.0000  30.0000   0.0000   0.0000   0.0000   0.00    0.0
2019/01/15 09:49:01.000   4280230.2707  -4034435.9413  -2458273.2845   5  11  30.0000  30.0000  30.0000   0.0000   0.0000   0.0000   1.00    0.0
2019/01/15 09:49:02.000   4280230.2707  -4034435.9413  -2458273.2845   5  11  30.0000  30.0000  30.0000   0.0000   0.0000   0.0000   2.00    0.0
2019/01/15 09:49:05.000   4280230.2707  -4034435.9413  -2458273.2845   5  11  30.0000  30.0000  30.0000   0.0000   0.0000   0.0000   5.00    0.0
2019/01/15 09:49:06.000   4280230.2707  -4034435.9413  -2458273.2845   5  11  30.0000  30.0000  30.0000   0.0000   0.0000   0.0000   6.00    0.0
2019/01/15 09:49:07.000   4280230.2707  -4034435.9413  -2458273.2845   5  11  30.0000  30.0000  30.0000   0.0000   0.0000   0.0000   7.00    0.0
2019/01/15 09:49:11.000   4280230.2707  -4034435.9413  -2458273.2845   5  11  30.0000  30.0000  30.0000   0.0000   0.0000   0.0000  11.00    0.0
2019/01/15 09:49:13.000   4280230.2707  -4034435.9413  -2458273.2845   5  11  30.0000  30.0000  30.0000   0.0000   0.0000   0.0000  13.00    0.0
2019/01/15 09:49:17.000   4280230.2707  -4034435.9413  -2458273.2845   5  11  30.0000  30.0000  30.0000   0.0000   0.0000   0.0000   2.00    0.0
2019/01/15 09:49:23.000   4280230.2707  -4034435.9413  -2458273.2845   5  11  30.0000  30.0000  30.0000   0.0000   0.0000   0.0000   8.00    0.0
2019/01/15 09:49:24.000   4280230.2707  -4034435.9413  -2458273.2845   5  11  30.0000  30.0000  30.0000   0.0000   0.0000   0.0000   9.00    0.0
2019/01/15 09:49:26.000   4280230.2707  -4034435.9413  -2458273.2845   5  11  30.0000  30.0000  30.0000   0.0000   0.0000   0.0000  11.00    0.0
2019/01/15 09:49:27.000   4280230.2707  -4034435.9413  -2458273.2845   5  11  30.0000  30.0000  30.0000   0.0000   0.0000   0.0000  12.00    0.0
2019/01/15 09:49:28.000   4280230.2707  -4034435.9413  -2458273.2845   5  11  30.0000  30.0000  30.0000   0.0000   0.0000   0.0000  13.00    0.0
2019/01/15 09:49:29.000   4280230.2707  -4034435.9413  -2458273.2845   5  11  30.0000  30.0000  30.0000   0.0000   0.0000   0.0000  14.00    0.0
2019/01/15 09:49:33.000   4280230.2707  -4034435.9413  -2458273.2845   5  11  30.0000  30.0000  30.0000   0.0000   0.0000   0.0000   3.00    0.0
2019/01/15 09:49:34.000   4280230.2707  -4034435.9413  -2458273.2845   5  11  30.0000  30.0000  30.0000   0.0000   0.0000   0.0000   4.00    0.0
2019/01/15 09:49:41.000   4280230.2707  -4034435.9413  -2458273.2845   5  11  30.0000  30.0000  30.0000   0.0000   0.0000   0.0000  11.00    0.0
2019/01/15 09:49:45.000   4280230.2707  -4034435.9413  -2458273.2845   5  11  30.0000  30.0000  30.0000   0.0000   0.0000   0.0000   0.00    0.0
2019/01/15 09:49:47.000   4280230.2707  -4034435.9413  -2458273.2845   5  11  30.0000  30.0000  30.0000   0.0000   0.0000   0.0000   2.00    0.0
2019/01/15 09:49:49.000   4280230.2707  -4034435.9413  -2458273.2845   5  11  30.0000  30.0000  30.0000   0.0000   0.0000   0.0000   4.00    0.0
2019/01/15 09:49:50.000   4280230.2707  -4034435.9413  -2458273.2845   5  11  30.0000  30.0000  30.0000   0.0000   0.0000   0.0000   5.00    0.0
2019/01/15 09:49:52.000   4280230.2707  -4034435.9413  -2458273.2845   5  11  30.0000  30.0000  30.0000   0.0000   0.0000   0.0000   7.00    0.0
2019/01/15 09:49:54.000   4280230.2707  -4034435.9413  -2458273.2845   5  11  30.0000  30.0000  30.0000   0.0000   0.0000   0.0000   9.00    0.0
2019/01/15 09:49:56.000   4280230.2707  -4034435.9413  -2458273.2845   5  11  30.0000  30.0000  30.0000   0.0000   0.0000   0.0000  11.00    0.0
2019/01/15 09:49:57.000   4280230.2707  -4034435.9413  -2458273.2845   5  11  30.0000  30.0000  30.0000   0.0000   0.0000   0.0000  12.00    0.0
2019/01/15 09:49:59.000   4280230.2707  -4034435.9413  -2458273.2845   5  11  30.0000  30.0000  30.0000   0.0000   0.0000   0.0000  14.00    0.0
2019/01/15 09:50:01.000   4280230.2707  -4034435.9413  -2458273.2845   5  11  30.0000  30.0000  30.0000   0.0000   0.0000   0.0000   1.00    0.0
2019/01/15 09:50:02.000   4280230.2707  -4034435.9413  -2458273.2845   5  11  30.0000  30.0000  30.0000   0.0000   0.0000   0.0000   2.00    0.0
2019/01/15 09:50:13.000   4280230.2707  -4034435.9413  -2458273.2845   5  11  30.0000  30.0000  30.0000   0.0000   0.0000   0.0000  13.00    0.0
2019/01/15 09:50:15.000   4280230.2707  -4034435.9413  -2458273.2845   5  11  30.0000  30.0000  30.0000   0.0000   0.0000   0.0000   0.00    0.0
2019/01/15 09:50:16.000   4280230.2707  -4034435.9413  -2458273.2845   5  11  30.0000  30.0000  30.0000   0.0000   0.0000   0.0000   1.00    0.0
2019/01/15 09:50:17.000   4280230.2707  -4034435.9413  -2458273.2845   5  11  30.0000  30.0000  30.0000   0.0000   0.0000   0.0000   2.00    0.0
2019/01/15 09:50:25.000   4280230.2707  -4034435.9413  -2458273.2845   5  11  30.0000  30.0000  30.0000   0.0000   0.0000   0.0000  10.00    0.0
2019/01/15 09:50:29.000   4280230.2707  -4034435.9413  -2458273.2845   5  11  30.0000  30.0000  30.0000   0.0000   0.0000   0.0000  14.00    0.0
2019/01/15 09:50:31.000   4280230.2707  -4034435.9413  -2458273.2845   5  11  30.0000  30.0000  30.0000   0.0000   0.0000   0.0000   1.00    0.0
2019/01/15 09:50:40.000   4280230.2707  -4034435.9413  -2458273.2845   5  11  30.0000  30.0000  30.0000   0.0000   0.0000   0.0000  10.00    0.0
2019/01/15 09:50:41.000   4280230.2707  -4034435.9413  -2458273.2845   5  11  30.0000  30.0000  30.0000   0.0000   0.0000   0.0000  11.00    0.0
2019/01/15 09:50:47.000   4280230.2707  -4034435.9413  -2458273.2845   5  11  30.0000  30.0000  30.0000   0.0000   0.0000   0.0000   2.00    0.0
2019/01/15 09:50:51.000   4280230.2707  -4034435.9413  -2458273.2845   5  11  30.0000  30.0000  30.0000   0.0000   0.0000   0.0000   6.00    0.0
2019/01/15 09:50:52.000   4280230.2707  -4034435.9413  -2458273.2845   5  11  30.0000  30.0000  30.0000   0.0000   0.0000   0.0000   7.00    0.0
2019/01/15 09:50:53.000   4280230.2707  -4034435.9413  -2458273.2845   5  11  30.0000  30.0000  30.0000   0.0000   0.0000   0.0000   8.00    0.0
2019/01/15 09:50:54.000   4280230.2707  -4034435.9413  -2458273.2845   5  11  30.0000  30.0000  30.0000   0.0000   0.0000   0.0000   9.00    0.0
2019/01/15 09:51:10.000   4280230.2707  -4034435.9413  -2458273.2845   5  11  30.0000  30.0000  30.0000   0.0000   0.0000   0.0000  10.00    0.0
2019/01/15 09:51:14.000   4280230.2707  -4034435.9413  -2458273.2845   5  11  30.0000  30.0000  30.0000   0.0000   0.0000   0.0000  14.00    0.0
2019/01/15 09:51:18.000   4280230.2707  -4034435.9413  -2458273.2845   5  11  30.0000  30.0000  30.0000   0.0000   0.0000   0.0000   3.00    0.0
2019/01/15 09:51:20.000   4280230.2707  -4034435.9413  -2458273.2845   5  11  30.0000  30.0000  30.0000   0.0000   0.0000   0.0000   5.00    0.0
2019/01/15 09:51:21.000   4280230.2707  -4034435.9413  -2458273.2845   5  11  30.0000  30.0000  30.0000   0.0000   0.0000   0.0000   6.00    0.0
2019/01/15 09:51:28.000   4280230.2707  -4034435.9413  -2458273.2845   5  11  30.0000  30.0000  30.0000   0.0000   0.0000   0.0000  13.00    0.0
2019/01/15 09:51:30.000   4280230.2707  -4034435.9413  -2458273.2845   5  11  30.0000  30.0000  30.0000   0.0000   0.0000   0.0000   0.00    0.0
2019/01/15 09:51:36.000   4280230.2707  -4034435.9413  -2458273.2845   5  11  30.0000  30.0000  30.0000   0.0000   0.0000   0.0000   6.00    0.0
2019/01/15 09:51:39.000   4280230.2707  -4034435.9413  -2458273.2845   5  11  30.0000  30.0000  30.0000   0.0000   0.0000   0.0000   9.00    0.0
2019/01/15 09:51:45.000   4280230.2707  -4034435.9413  -2458273.2845   5  11  30.0000  30.0000  30.0000   0.0000   0.0000   0.0000   0.00    0.0
2019/01/15 09:51:47.000   4280230.2707  -4034435.9413  -2458273.2845   5  11  30.0000  30.0000  30.0000   0.0000   0.0000   0.0000   2.00    0.0
2019/01/15 09:51:48.000   4280230.2707  -4034435.9413  -2458273.2845   5  11  30.0000  30.0000  30.0000   0.0000   0.0000   0.0000   3.00    0.0
2019/01/15 09:51:53.000   4280230.2707  -4034435.9413  -2458273.2845   5  11  30.0000  30.0000  30.0000   0.0000   0.0000   0.0000   8.00    0.0
2019/01/15 09:51:57.000   4280230.2707  -4034435.9413  -2458273.2845   5  11  30.0000  30.0000  30.0000   0.0000   0.0000   0.0000  12.00    0.0
2019/01/15 09:51:58.000   4280230.2707  -4034435.9413  -2458273.2845   5  11  30.0000  30.0000  30.0000   0.0000   0.0000   0.0000  13.00    0.0
2019/01/15 09:51:59.000   4280230.2707  -4034435.9413  -2458273.2845   5  11  30.0000  30.0000  30.0000   0.0000   0.0000   0.0000  14.00    0.0
2019/01/15 09:52:00.000   4280230.2707  -4034435.9413  -2458273.2845   5  11  30.0000  30.0000  30.0000   0.0000   0.0000   0.0000   0.00    0.0
2019/01/15 09:52:08.000   4280230.2707  -4034435.9413  -2458273.2845   5  11  30.0000  30.0000  30.0000   0.0000   0.0000   0.0000   8.00    0.0
2019/01/15 09:52:13.000   4280230.2707  -4034435.9413  -2458273.2845   5  11  30.0000  30.0000  30.0000   0.0000   0.0000   0.0000  13.00    0.0
2019/01/15 09:52:14.000   4280230.2707  -4034435.9413  -2458273.2845   5  11  30.0000  30.0000  30.0000   0.0000   0.0000   0.0000  14.00    0.0
2019/01/15 09:52:16.000   4280230.2707  -4034435.9413  -2458273.2845   5  11  30.0000  30.0000  30.0000   0.0000   0.0000   0.0000   1.00    0.0
2019/01/15 09:52:25.000   4280230.2707  -4034435.9413  -2458273.2845   5  11  30.0000  30.0000  30.0000   0.0000   0.0000   0.0000  10.00    0.0
2019/01/15 09:52:26.000   4280230.2707  -4034435.9413  -2458273.2845   5  11  30.0000  30.0000  30.0000   0.0000   0.0000   0.0000  11.00    0.0
2019/01/15 09:52:27.000   4280230.2707  -4034435.9413  -2458273.2845   5  11  30.0000  30.0000  30.0000   0.0000   0.0000   0.0000  12.00    0.0
2019/01/15 09:52:30.000   4280230.2707  -4034435.9413  -2458273.2845   5  11  30.0000  30.0000  30.0000   0.0000   0.0000   0.0000   0.00    0.0
2019/01/15 09:52:31.000   4280230.2707  -4034435.9413  -2458273.2845   5  11  30.0000  30.0000  30.0000   0.0000   0.0000   0.0000   1.00    0.0
2019/01/15 09:52:32.000   4280230.2707  -4034435.9413  -2458273.2845   5  11  30.0000  30.0000  30.0000   0.0000   0.0000   0.0000   2.00    0.0
2019/01/15 09:52:36.000   4280230.2707  -4034435.9413  -2458273.2845   5  11  30.0000  30.0000  30.0000   0.0000   0.0000   0.0000   6.00    0.0
2019/01/15 09:52:37.000   4280230.2707  -4034435.9413  -2458273.2845   5  11  30.0000  30.0000  30.0000   0.0000   0.0000   0.0000   7.00    0.0
2019/01/15 09:52:39.000   4280230.2707  -4034435.9413  -2458273.2845   5  11  30.0000  30.0000  30.0000   0.0000   0.0000   0.0000   9.00    0.0
2019/01/15 09:52:40.000   4280230.2707  -4034435.9413  -2458273.2845   5  11  30.0000  30.0000  30.0000   0.0000   0.0000   0.0000  10.00    0.0
2019/01/15 09:52:41.000   4280230.2707  -4034435.9413  -2458273.2845   5  11  30.0000  30.0000  30.0000   0.0000   0.0000   0.0000  11.00    0.0
2019/01/15 09:52:42.000   4280230.2707  -4034435.9413  -2458273.2845   5  11  30.0000  30.0000  30.0000   0.0000   0.0000   0.0000  12.00    0.0
2019/01/15 09:52:43.000   4280230.2707  -4034435.9413  -2458273.2845   5  11  30.0000  30.0000  30.0000   0.0000   0.0000   0.0000  13.00    0.0
2019/01/15 09:52:44.000   4280230.2707  -4034435.9413  -2458273.2845   5  11  30.0000  30.0000  30.0000   0.0000   0.0000   0.0000  14.00    0.0
2019/01/15 09:52:45.000   4280230.2707  -4034435.9413  -2458273.2845   5  11  30.0000  30.0000  30.0000   0.0000   0.0000   0.0000   0.00    0.0
2019/01/15 09:52:49.000   4280230.2707  -4034435.9413  -2458273.2845   5  11  30.0000  30.0000  30.0000   0.0000   0.0000   0.0000   4.00    0.0
2019/01/15 09:52:50.000   4280230.2707  -4034435.9413  -2458273.2845   5  11  30.0000  30.0000  30.0000   0.0000   0.0000   0.0000   5.00    0.0
2019/01/15 09:52:53.000   4280230.2707  -4034435.9413  -2458273.2845   5  11  30.0000  30.0000  30.0000   0.0000   0.0000   0.0000   8.00    0.0
2019/01/15 09:52:55.000   4280230.2707  -4034435.9413  -2458273.2845   5  11  30.0000  30.0000  30.0000   0.0000   0.0000   0.0000  10.00    0.0
2019/01/15 09:52:56.000   4280230.2707  -4034435.9413  -2458273.2845   5  11  30.0000  30.0000  30.0000   0.0000   0.0000   0.0000  11.00    0.0
2019/01/15 09:52:57.000   4280230.2707  -4034435.9413  -2458273.2845   5  11  30.0000  30.0000  30.0000   0.0000   0.0000   0.0000  12.00    0.0
2019/01/15 09:52:58.000   4280230.2707  -4034435.9413  -2458273.2845   5  11  30.0000  30.0000  30.0000   0.0000   0.0000   0.0000  13.00    0.0
2019/01/15 09:52:59.000   4280230.2707  -4034435.9413  -2458273.2845   5  11  30.0000  30.0000  30.0000   0.0000   0.0000   0.0000  14.00    0.0
2019/01/15 09:53:00.000   4280230.2707  -4034435.9413  -2458273.2845   5  11  30.0000  30.0000  30.0000   0.0000   0.0000   0.0000   0.00    0.0
