% program   : RTKPOST ver.2.4.2
% inp file  : D:\Google Drive\UERJ\_Projeto Final\Python\tcc-guilherme\20190211_Sta91500_Smoothed.19o
% inp file  : D:\Google Drive\UERJ\_Projeto Final\20190211_Marco91500 IBGE\riod0421.19o
% inp file  : D:\Google Drive\UERJ\_Projeto Final\20190211_Marco91500 IBGE\brdm0420.19p
% obs start : 2019/02/11 08:56:22.0 GPST (week2040 118582.0s)
% obs end   : 2019/02/11 10:26:05.0 GPST (week2040 123965.0s)
% pos mode  : static
% freqs     : L1
% solution  : forward
% elev mask : 15.0 deg
% dynamics  : off
% tidecorr  : off
% ionos opt : iono-free
% tropo opt : saastamoinen
% ephemeris : broadcast
% navi sys  : gps glonass galileo
% amb res   : fix and hold
% amb glo   : on
% val thres : 3.0
% antenna1  :                       ( 0.0000  0.0000  0.0000)
% antenna2  :                       ( 0.0000  0.0000  0.0080)
% ref pos   :  4280294.8840  -4034431.2298  -2458141.3831
%
% (x/y/z-ecef=WGS84,Q=1:fix,2:float,3:sbas,4:dgps,5:single,6:ppp,ns=# of satellites)
%  GPST                      x-ecef(m)      y-ecef(m)      z-ecef(m)   Q  ns   sdx(m)   sdy(m)   sdz(m)  sdxy(m)  sdyz(m)  sdzx(m) age(s)  ratio
2019/02/11 08:56:50.000   4280222.3134  -4034419.8554  -2458261.7760   5  12  30.0000  30.0000  30.0000   0.0000   0.0000   0.0000   5.00    0.0
2019/02/11 08:56:57.000   4280222.3134  -4034419.8554  -2458261.7760   5  12  30.0000  30.0000  30.0000   0.0000   0.0000   0.0000  12.00    0.0
2019/02/11 08:59:58.000   4280222.3134  -4034419.8554  -2458261.7760   5  11  30.0000  30.0000  30.0000   0.0000   0.0000   0.0000  13.00    0.0
2019/02/11 08:59:59.000   4280222.3134  -4034419.8554  -2458261.7760   5  11  30.0000  30.0000  30.0000   0.0000   0.0000   0.0000  14.00    0.0
2019/02/11 09:00:00.000   4280222.3134  -4034419.8554  -2458261.7760   5  11  30.0000  30.0000  30.0000   0.0000   0.0000   0.0000  -0.00    0.0
2019/02/11 09:06:09.000   4280222.3134  -4034419.8554  -2458261.7760   5  12  30.0000  30.0000  30.0000   0.0000   0.0000   0.0000   9.00    0.0
2019/02/11 09:06:10.000   4280222.3134  -4034419.8554  -2458261.7760   5  12  30.0000  30.0000  30.0000   0.0000   0.0000   0.0000  10.00    0.0
2019/02/11 09:06:13.000   4280222.3134  -4034419.8554  -2458261.7760   5  12  30.0000  30.0000  30.0000   0.0000   0.0000   0.0000  13.00    0.0
2019/02/11 09:06:14.000   4280222.3134  -4034419.8554  -2458261.7760   5  12  30.0000  30.0000  30.0000   0.0000   0.0000   0.0000  14.00    0.0
2019/02/11 09:06:15.000   4280222.3134  -4034419.8554  -2458261.7760   5  12  30.0000  30.0000  30.0000   0.0000   0.0000   0.0000  -0.00    0.0
2019/02/11 09:06:18.000   4280222.3134  -4034419.8554  -2458261.7760   5  12  30.0000  30.0000  30.0000   0.0000   0.0000   0.0000   3.00    0.0
2019/02/11 09:06:19.000   4280222.3134  -4034419.8554  -2458261.7760   5  12  30.0000  30.0000  30.0000   0.0000   0.0000   0.0000   4.00    0.0
2019/02/11 09:06:20.000   4280222.3134  -4034419.8554  -2458261.7760   5  12  30.0000  30.0000  30.0000   0.0000   0.0000   0.0000   5.00    0.0
2019/02/11 09:06:21.000   4280222.3134  -4034419.8554  -2458261.7760   5  12  30.0000  30.0000  30.0000   0.0000   0.0000   0.0000   6.00    0.0
2019/02/11 09:06:22.000   4280222.3134  -4034419.8554  -2458261.7760   5  12  30.0000  30.0000  30.0000   0.0000   0.0000   0.0000   7.00    0.0
2019/02/11 09:06:23.000   4280222.3134  -4034419.8554  -2458261.7760   5  12  30.0000  30.0000  30.0000   0.0000   0.0000   0.0000   8.00    0.0
2019/02/11 09:06:24.000   4280222.3134  -4034419.8554  -2458261.7760   5  12  30.0000  30.0000  30.0000   0.0000   0.0000   0.0000   9.00    0.0
2019/02/11 09:06:25.000   4280222.3134  -4034419.8554  -2458261.7760   5  12  30.0000  30.0000  30.0000   0.0000   0.0000   0.0000  10.00    0.0
2019/02/11 09:06:26.000   4280222.3134  -4034419.8554  -2458261.7760   5  12  30.0000  30.0000  30.0000   0.0000   0.0000   0.0000  11.00    0.0
2019/02/11 09:06:27.000   4280222.3134  -4034419.8554  -2458261.7760   5  12  30.0000  30.0000  30.0000   0.0000   0.0000   0.0000  12.00    0.0
2019/02/11 09:06:28.000   4280222.3134  -4034419.8554  -2458261.7760   5  12  30.0000  30.0000  30.0000   0.0000   0.0000   0.0000  13.00    0.0
2019/02/11 09:06:29.000   4280222.3134  -4034419.8554  -2458261.7760   5  12  30.0000  30.0000  30.0000   0.0000   0.0000   0.0000  14.00    0.0
2019/02/11 09:06:30.000   4280222.3134  -4034419.8554  -2458261.7760   5  12  30.0000  30.0000  30.0000   0.0000   0.0000   0.0000  -0.00    0.0
2019/02/11 09:06:31.000   4280222.3134  -4034419.8554  -2458261.7760   5  12  30.0000  30.0000  30.0000   0.0000   0.0000   0.0000   1.00    0.0
2019/02/11 09:06:32.000   4280222.3134  -4034419.8554  -2458261.7760   5  12  30.0000  30.0000  30.0000   0.0000   0.0000   0.0000   2.00    0.0
2019/02/11 09:06:33.000   4280222.3134  -4034419.8554  -2458261.7760   5  12  30.0000  30.0000  30.0000   0.0000   0.0000   0.0000   3.00    0.0
2019/02/11 09:06:34.000   4280222.3134  -4034419.8554  -2458261.7760   5  12  30.0000  30.0000  30.0000   0.0000   0.0000   0.0000   4.00    0.0
2019/02/11 09:06:35.000   4280222.3134  -4034419.8554  -2458261.7760   5  12  30.0000  30.0000  30.0000   0.0000   0.0000   0.0000   5.00    0.0
2019/02/11 09:06:36.000   4280222.3134  -4034419.8554  -2458261.7760   5  12  30.0000  30.0000  30.0000   0.0000   0.0000   0.0000   6.00    0.0
2019/02/11 09:06:37.000   4280222.3134  -4034419.8554  -2458261.7760   5  12  30.0000  30.0000  30.0000   0.0000   0.0000   0.0000   7.00    0.0
2019/02/11 09:06:38.000   4280222.3134  -4034419.8554  -2458261.7760   5  12  30.0000  30.0000  30.0000   0.0000   0.0000   0.0000   8.00    0.0
2019/02/11 09:06:39.000   4280222.3134  -4034419.8554  -2458261.7760   5  12  30.0000  30.0000  30.0000   0.0000   0.0000   0.0000   9.00    0.0
2019/02/11 09:06:40.000   4280222.3134  -4034419.8554  -2458261.7760   5  12  30.0000  30.0000  30.0000   0.0000   0.0000   0.0000  10.00    0.0
2019/02/11 09:06:41.000   4280222.3134  -4034419.8554  -2458261.7760   5  12  30.0000  30.0000  30.0000   0.0000   0.0000   0.0000  11.00    0.0
2019/02/11 09:06:42.000   4280222.3134  -4034419.8554  -2458261.7760   5  11  30.0000  30.0000  30.0000   0.0000   0.0000   0.0000  12.00    0.0
2019/02/11 09:06:43.000   4280222.3134  -4034419.8554  -2458261.7760   5  11  30.0000  30.0000  30.0000   0.0000   0.0000   0.0000  13.00    0.0
2019/02/11 09:06:44.000   4280222.3134  -4034419.8554  -2458261.7760   5  11  30.0000  30.0000  30.0000   0.0000   0.0000   0.0000  14.00    0.0
2019/02/11 09:06:45.000   4280222.3134  -4034419.8554  -2458261.7760   5  11  30.0000  30.0000  30.0000   0.0000   0.0000   0.0000  -0.00    0.0
2019/02/11 09:06:46.000   4280222.3134  -4034419.8554  -2458261.7760   5  12  30.0000  30.0000  30.0000   0.0000   0.0000   0.0000   1.00    0.0
2019/02/11 09:06:47.000   4280222.3134  -4034419.8554  -2458261.7760   5  11  30.0000  30.0000  30.0000   0.0000   0.0000   0.0000   2.00    0.0
2019/02/11 09:06:48.000   4280222.3134  -4034419.8554  -2458261.7760   5  11  30.0000  30.0000  30.0000   0.0000   0.0000   0.0000   3.00    0.0
2019/02/11 09:06:49.000   4280222.3134  -4034419.8554  -2458261.7760   5  11  30.0000  30.0000  30.0000   0.0000   0.0000   0.0000   4.00    0.0
2019/02/11 09:06:50.000   4280222.3134  -4034419.8554  -2458261.7760   5  11  30.0000  30.0000  30.0000   0.0000   0.0000   0.0000   5.00    0.0
2019/02/11 09:06:51.000   4280222.3134  -4034419.8554  -2458261.7760   5  12  30.0000  30.0000  30.0000   0.0000   0.0000   0.0000   6.00    0.0
2019/02/11 09:06:52.000   4280222.3134  -4034419.8554  -2458261.7760   5  11  30.0000  30.0000  30.0000   0.0000   0.0000   0.0000   7.00    0.0
2019/02/11 09:06:53.000   4280222.3134  -4034419.8554  -2458261.7760   5  12  30.0000  30.0000  30.0000   0.0000   0.0000   0.0000   8.00    0.0
2019/02/11 09:06:54.000   4280222.3134  -4034419.8554  -2458261.7760   5  12  30.0000  30.0000  30.0000   0.0000   0.0000   0.0000   9.00    0.0
2019/02/11 09:06:55.000   4280222.3134  -4034419.8554  -2458261.7760   5  12  30.0000  30.0000  30.0000   0.0000   0.0000   0.0000  10.00    0.0
2019/02/11 09:06:56.000   4280222.3134  -4034419.8554  -2458261.7760   5  11  30.0000  30.0000  30.0000   0.0000   0.0000   0.0000  11.00    0.0
2019/02/11 09:06:57.000   4280222.3134  -4034419.8554  -2458261.7760   5  11  30.0000  30.0000  30.0000   0.0000   0.0000   0.0000  12.00    0.0
2019/02/11 09:06:58.000   4280222.3134  -4034419.8554  -2458261.7760   5  11  30.0000  30.0000  30.0000   0.0000   0.0000   0.0000  13.00    0.0
2019/02/11 09:06:59.000   4280222.3134  -4034419.8554  -2458261.7760   5  11  30.0000  30.0000  30.0000   0.0000   0.0000   0.0000  14.00    0.0
2019/02/11 09:07:00.000   4280222.3134  -4034419.8554  -2458261.7760   5  11  30.0000  30.0000  30.0000   0.0000   0.0000   0.0000  -0.00    0.0
2019/02/11 09:07:01.000   4280222.3134  -4034419.8554  -2458261.7760   5  11  30.0000  30.0000  30.0000   0.0000   0.0000   0.0000   1.00    0.0
2019/02/11 09:07:02.000   4280222.3134  -4034419.8554  -2458261.7760   5  11  30.0000  30.0000  30.0000   0.0000   0.0000   0.0000   2.00    0.0
2019/02/11 09:07:03.000   4280222.3134  -4034419.8554  -2458261.7760   5  11  30.0000  30.0000  30.0000   0.0000   0.0000   0.0000   3.00    0.0
2019/02/11 09:07:04.000   4280222.3134  -4034419.8554  -2458261.7760   5  11  30.0000  30.0000  30.0000   0.0000   0.0000   0.0000   4.00    0.0
2019/02/11 09:07:05.000   4280222.3134  -4034419.8554  -2458261.7760   5  11  30.0000  30.0000  30.0000   0.0000   0.0000   0.0000   5.00    0.0
2019/02/11 09:07:06.000   4280222.3134  -4034419.8554  -2458261.7760   5  11  30.0000  30.0000  30.0000   0.0000   0.0000   0.0000   6.00    0.0
2019/02/11 09:07:07.000   4280222.3134  -4034419.8554  -2458261.7760   5  12  30.0000  30.0000  30.0000   0.0000   0.0000   0.0000   7.00    0.0
2019/02/11 09:07:08.000   4280222.3134  -4034419.8554  -2458261.7760   5  11  30.0000  30.0000  30.0000   0.0000   0.0000   0.0000   8.00    0.0
2019/02/11 09:07:09.000   4280222.3134  -4034419.8554  -2458261.7760   5  11  30.0000  30.0000  30.0000   0.0000   0.0000   0.0000   9.00    0.0
2019/02/11 09:07:10.000   4280222.3134  -4034419.8554  -2458261.7760   5  11  30.0000  30.0000  30.0000   0.0000   0.0000   0.0000  10.00    0.0
2019/02/11 09:07:11.000   4280222.3134  -4034419.8554  -2458261.7760   5  11  30.0000  30.0000  30.0000   0.0000   0.0000   0.0000  11.00    0.0
2019/02/11 09:07:12.000   4280222.3134  -4034419.8554  -2458261.7760   5  11  30.0000  30.0000  30.0000   0.0000   0.0000   0.0000  12.00    0.0
2019/02/11 09:07:13.000   4280222.3134  -4034419.8554  -2458261.7760   5  11  30.0000  30.0000  30.0000   0.0000   0.0000   0.0000  13.00    0.0
2019/02/11 09:07:32.000   4280222.3134  -4034419.8554  -2458261.7760   5  12  30.0000  30.0000  30.0000   0.0000   0.0000   0.0000   2.00    0.0
2019/02/11 09:07:43.000   4280222.3134  -4034419.8554  -2458261.7760   5  12  30.0000  30.0000  30.0000   0.0000   0.0000   0.0000  13.00    0.0
2019/02/11 09:07:44.000   4280222.3134  -4034419.8554  -2458261.7760   5  12  30.0000  30.0000  30.0000   0.0000   0.0000   0.0000  14.00    0.0
2019/02/11 09:07:45.000   4280222.3134  -4034419.8554  -2458261.7760   5  12  30.0000  30.0000  30.0000   0.0000   0.0000   0.0000  -0.00    0.0
2019/02/11 09:07:46.000   4280222.3134  -4034419.8554  -2458261.7760   5  12  30.0000  30.0000  30.0000   0.0000   0.0000   0.0000   1.00    0.0
2019/02/11 09:07:47.000   4280222.3134  -4034419.8554  -2458261.7760   5  12  30.0000  30.0000  30.0000   0.0000   0.0000   0.0000   2.00    0.0
2019/02/11 09:07:48.000   4280222.3134  -4034419.8554  -2458261.7760   5  12  30.0000  30.0000  30.0000   0.0000   0.0000   0.0000   3.00    0.0
2019/02/11 09:07:49.000   4280222.3134  -4034419.8554  -2458261.7760   5  12  30.0000  30.0000  30.0000   0.0000   0.0000   0.0000   4.00    0.0
2019/02/11 09:07:50.000   4280222.3134  -4034419.8554  -2458261.7760   5  12  30.0000  30.0000  30.0000   0.0000   0.0000   0.0000   5.00    0.0
2019/02/11 09:07:51.000   4280222.3134  -4034419.8554  -2458261.7760   5  12  30.0000  30.0000  30.0000   0.0000   0.0000   0.0000   6.00    0.0
2019/02/11 09:07:52.000   4280222.3134  -4034419.8554  -2458261.7760   5  12  30.0000  30.0000  30.0000   0.0000   0.0000   0.0000   7.00    0.0
2019/02/11 09:07:53.000   4280222.3134  -4034419.8554  -2458261.7760   5  12  30.0000  30.0000  30.0000   0.0000   0.0000   0.0000   8.00    0.0
2019/02/11 09:07:54.000   4280222.3134  -4034419.8554  -2458261.7760   5  12  30.0000  30.0000  30.0000   0.0000   0.0000   0.0000   9.00    0.0
2019/02/11 09:07:55.000   4280222.3134  -4034419.8554  -2458261.7760   5  12  30.0000  30.0000  30.0000   0.0000   0.0000   0.0000  10.00    0.0
2019/02/11 09:07:56.000   4280222.3134  -4034419.8554  -2458261.7760   5  12  30.0000  30.0000  30.0000   0.0000   0.0000   0.0000  11.00    0.0
2019/02/11 09:07:57.000   4280222.3134  -4034419.8554  -2458261.7760   5  12  30.0000  30.0000  30.0000   0.0000   0.0000   0.0000  12.00    0.0
2019/02/11 09:07:58.000   4280222.3134  -4034419.8554  -2458261.7760   5  12  30.0000  30.0000  30.0000   0.0000   0.0000   0.0000  13.00    0.0
2019/02/11 09:07:59.000   4280222.3134  -4034419.8554  -2458261.7760   5  12  30.0000  30.0000  30.0000   0.0000   0.0000   0.0000  14.00    0.0
2019/02/11 09:08:00.000   4280222.3134  -4034419.8554  -2458261.7760   5  11  30.0000  30.0000  30.0000   0.0000   0.0000   0.0000  -0.00    0.0
2019/02/11 09:08:01.000   4280222.3134  -4034419.8554  -2458261.7760   5  11  30.0000  30.0000  30.0000   0.0000   0.0000   0.0000   1.00    0.0
2019/02/11 09:08:02.000   4280222.3134  -4034419.8554  -2458261.7760   5  11  30.0000  30.0000  30.0000   0.0000   0.0000   0.0000   2.00    0.0
2019/02/11 09:08:03.000   4280222.3134  -4034419.8554  -2458261.7760   5  12  30.0000  30.0000  30.0000   0.0000   0.0000   0.0000   3.00    0.0
2019/02/11 09:08:04.000   4280222.3134  -4034419.8554  -2458261.7760   5  12  30.0000  30.0000  30.0000   0.0000   0.0000   0.0000   4.00    0.0
2019/02/11 09:08:05.000   4280222.3134  -4034419.8554  -2458261.7760   5  12  30.0000  30.0000  30.0000   0.0000   0.0000   0.0000   5.00    0.0
2019/02/11 09:08:06.000   4280222.3134  -4034419.8554  -2458261.7760   5  11  30.0000  30.0000  30.0000   0.0000   0.0000   0.0000   6.00    0.0
2019/02/11 09:08:07.000   4280222.3134  -4034419.8554  -2458261.7760   5  11  30.0000  30.0000  30.0000   0.0000   0.0000   0.0000   7.00    0.0
2019/02/11 09:08:08.000   4280222.3134  -4034419.8554  -2458261.7760   5  11  30.0000  30.0000  30.0000   0.0000   0.0000   0.0000   8.00    0.0
2019/02/11 09:08:09.000   4280222.3134  -4034419.8554  -2458261.7760   5  11  30.0000  30.0000  30.0000   0.0000   0.0000   0.0000   9.00    0.0
2019/02/11 09:08:10.000   4280222.3134  -4034419.8554  -2458261.7760   5  11  30.0000  30.0000  30.0000   0.0000   0.0000   0.0000  10.00    0.0
2019/02/11 09:08:11.000   4280222.3134  -4034419.8554  -2458261.7760   5  11  30.0000  30.0000  30.0000   0.0000   0.0000   0.0000  11.00    0.0
2019/02/11 09:08:12.000   4280222.3134  -4034419.8554  -2458261.7760   5  11  30.0000  30.0000  30.0000   0.0000   0.0000   0.0000  12.00    0.0
2019/02/11 09:08:13.000   4280222.3134  -4034419.8554  -2458261.7760   5  11  30.0000  30.0000  30.0000   0.0000   0.0000   0.0000  13.00    0.0
2019/02/11 09:08:14.000   4280222.3134  -4034419.8554  -2458261.7760   5  11  30.0000  30.0000  30.0000   0.0000   0.0000   0.0000  14.00    0.0
2019/02/11 09:08:15.000   4280222.3134  -4034419.8554  -2458261.7760   5  12  30.0000  30.0000  30.0000   0.0000   0.0000   0.0000  -0.00    0.0
2019/02/11 09:08:16.000   4280222.3134  -4034419.8554  -2458261.7760   5  12  30.0000  30.0000  30.0000   0.0000   0.0000   0.0000   1.00    0.0
2019/02/11 09:08:17.000   4280222.3134  -4034419.8554  -2458261.7760   5  12  30.0000  30.0000  30.0000   0.0000   0.0000   0.0000   2.00    0.0
2019/02/11 09:08:18.000   4280222.3134  -4034419.8554  -2458261.7760   5  12  30.0000  30.0000  30.0000   0.0000   0.0000   0.0000   3.00    0.0
2019/02/11 09:08:19.000   4280222.3134  -4034419.8554  -2458261.7760   5  12  30.0000  30.0000  30.0000   0.0000   0.0000   0.0000   4.00    0.0
2019/02/11 09:08:20.000   4280222.3134  -4034419.8554  -2458261.7760   5  12  30.0000  30.0000  30.0000   0.0000   0.0000   0.0000   5.00    0.0
2019/02/11 09:08:21.000   4280222.3134  -4034419.8554  -2458261.7760   5  12  30.0000  30.0000  30.0000   0.0000   0.0000   0.0000   6.00    0.0
2019/02/11 09:08:22.000   4280222.3134  -4034419.8554  -2458261.7760   5  12  30.0000  30.0000  30.0000   0.0000   0.0000   0.0000   7.00    0.0
2019/02/11 09:08:23.000   4280222.3134  -4034419.8554  -2458261.7760   5  12  30.0000  30.0000  30.0000   0.0000   0.0000   0.0000   8.00    0.0
2019/02/11 09:08:24.000   4280222.3134  -4034419.8554  -2458261.7760   5  12  30.0000  30.0000  30.0000   0.0000   0.0000   0.0000   9.00    0.0
2019/02/11 09:08:25.000   4280222.3134  -4034419.8554  -2458261.7760   5  12  30.0000  30.0000  30.0000   0.0000   0.0000   0.0000  10.00    0.0
2019/02/11 09:08:26.000   4280222.3134  -4034419.8554  -2458261.7760   5  12  30.0000  30.0000  30.0000   0.0000   0.0000   0.0000  11.00    0.0
2019/02/11 09:08:27.000   4280222.3134  -4034419.8554  -2458261.7760   5  11  30.0000  30.0000  30.0000   0.0000   0.0000   0.0000  12.00    0.0
2019/02/11 09:08:28.000   4280222.3134  -4034419.8554  -2458261.7760   5  12  30.0000  30.0000  30.0000   0.0000   0.0000   0.0000  13.00    0.0
2019/02/11 09:08:29.000   4280222.3134  -4034419.8554  -2458261.7760   5  12  30.0000  30.0000  30.0000   0.0000   0.0000   0.0000  14.00    0.0
2019/02/11 09:08:30.000   4280222.3134  -4034419.8554  -2458261.7760   5  11  30.0000  30.0000  30.0000   0.0000   0.0000   0.0000  -0.00    0.0
2019/02/11 09:08:31.000   4280222.3134  -4034419.8554  -2458261.7760   5  12  30.0000  30.0000  30.0000   0.0000   0.0000   0.0000   1.00    0.0
2019/02/11 09:08:32.000   4280222.3134  -4034419.8554  -2458261.7760   5  12  30.0000  30.0000  30.0000   0.0000   0.0000   0.0000   2.00    0.0
2019/02/11 09:08:33.000   4280222.3134  -4034419.8554  -2458261.7760   5  12  30.0000  30.0000  30.0000   0.0000   0.0000   0.0000   3.00    0.0
2019/02/11 09:08:34.000   4280222.3134  -4034419.8554  -2458261.7760   5  12  30.0000  30.0000  30.0000   0.0000   0.0000   0.0000   4.00    0.0
2019/02/11 09:08:35.000   4280222.3134  -4034419.8554  -2458261.7760   5  12  30.0000  30.0000  30.0000   0.0000   0.0000   0.0000   5.00    0.0
2019/02/11 09:08:36.000   4280222.3134  -4034419.8554  -2458261.7760   5  12  30.0000  30.0000  30.0000   0.0000   0.0000   0.0000   6.00    0.0
2019/02/11 09:08:37.000   4280222.3134  -4034419.8554  -2458261.7760   5  12  30.0000  30.0000  30.0000   0.0000   0.0000   0.0000   7.00    0.0
2019/02/11 09:08:38.000   4280222.3134  -4034419.8554  -2458261.7760   5  12  30.0000  30.0000  30.0000   0.0000   0.0000   0.0000   8.00    0.0
2019/02/11 09:08:39.000   4280222.3134  -4034419.8554  -2458261.7760   5  12  30.0000  30.0000  30.0000   0.0000   0.0000   0.0000   9.00    0.0
2019/02/11 09:08:40.000   4280222.3134  -4034419.8554  -2458261.7760   5  12  30.0000  30.0000  30.0000   0.0000   0.0000   0.0000  10.00    0.0
2019/02/11 09:08:53.000   4280222.3134  -4034419.8554  -2458261.7760   5  12  30.0000  30.0000  30.0000   0.0000   0.0000   0.0000   8.00    0.0
2019/02/11 09:08:54.000   4280222.3134  -4034419.8554  -2458261.7760   5  12  30.0000  30.0000  30.0000   0.0000   0.0000   0.0000   9.00    0.0
2019/02/11 09:08:55.000   4280222.3134  -4034419.8554  -2458261.7760   5  12  30.0000  30.0000  30.0000   0.0000   0.0000   0.0000  10.00    0.0
2019/02/11 09:08:56.000   4280222.3134  -4034419.8554  -2458261.7760   5  12  30.0000  30.0000  30.0000   0.0000   0.0000   0.0000  11.00    0.0
2019/02/11 09:09:01.000   4280222.3134  -4034419.8554  -2458261.7760   5  12  30.0000  30.0000  30.0000   0.0000   0.0000   0.0000   1.00    0.0
2019/02/11 09:09:02.000   4280222.3134  -4034419.8554  -2458261.7760   5  12  30.0000  30.0000  30.0000   0.0000   0.0000   0.0000   2.00    0.0
2019/02/11 09:09:03.000   4280222.3134  -4034419.8554  -2458261.7760   5  12  30.0000  30.0000  30.0000   0.0000   0.0000   0.0000   3.00    0.0
2019/02/11 09:09:04.000   4280222.3134  -4034419.8554  -2458261.7760   5  12  30.0000  30.0000  30.0000   0.0000   0.0000   0.0000   4.00    0.0
2019/02/11 09:09:05.000   4280222.3134  -4034419.8554  -2458261.7760   5  12  30.0000  30.0000  30.0000   0.0000   0.0000   0.0000   5.00    0.0
2019/02/11 09:09:06.000   4280222.3134  -4034419.8554  -2458261.7760   5  12  30.0000  30.0000  30.0000   0.0000   0.0000   0.0000   6.00    0.0
2019/02/11 09:09:07.000   4280222.3134  -4034419.8554  -2458261.7760   5  12  30.0000  30.0000  30.0000   0.0000   0.0000   0.0000   7.00    0.0
2019/02/11 09:09:08.000   4280222.3134  -4034419.8554  -2458261.7760   5  12  30.0000  30.0000  30.0000   0.0000   0.0000   0.0000   8.00    0.0
2019/02/11 09:09:09.000   4280222.3134  -4034419.8554  -2458261.7760   5  12  30.0000  30.0000  30.0000   0.0000   0.0000   0.0000   9.00    0.0
2019/02/11 09:09:10.000   4280222.3134  -4034419.8554  -2458261.7760   5  12  30.0000  30.0000  30.0000   0.0000   0.0000   0.0000  10.00    0.0
2019/02/11 09:09:11.000   4280222.3134  -4034419.8554  -2458261.7760   5  12  30.0000  30.0000  30.0000   0.0000   0.0000   0.0000  11.00    0.0
2019/02/11 09:09:12.000   4280222.3134  -4034419.8554  -2458261.7760   5  12  30.0000  30.0000  30.0000   0.0000   0.0000   0.0000  12.00    0.0
2019/02/11 09:09:13.000   4280222.3134  -4034419.8554  -2458261.7760   5  12  30.0000  30.0000  30.0000   0.0000   0.0000   0.0000  13.00    0.0
2019/02/11 09:09:14.000   4280222.3134  -4034419.8554  -2458261.7760   5  12  30.0000  30.0000  30.0000   0.0000   0.0000   0.0000  14.00    0.0
2019/02/11 09:09:15.000   4280222.3134  -4034419.8554  -2458261.7760   5  12  30.0000  30.0000  30.0000   0.0000   0.0000   0.0000  -0.00    0.0
2019/02/11 09:09:16.000   4280222.3134  -4034419.8554  -2458261.7760   5  12  30.0000  30.0000  30.0000   0.0000   0.0000   0.0000   1.00    0.0
2019/02/11 09:09:17.000   4280222.3134  -4034419.8554  -2458261.7760   5  12  30.0000  30.0000  30.0000   0.0000   0.0000   0.0000   2.00    0.0
2019/02/11 09:09:18.000   4280222.3134  -4034419.8554  -2458261.7760   5  12  30.0000  30.0000  30.0000   0.0000   0.0000   0.0000   3.00    0.0
2019/02/11 09:09:19.000   4280222.3134  -4034419.8554  -2458261.7760   5  12  30.0000  30.0000  30.0000   0.0000   0.0000   0.0000   4.00    0.0
2019/02/11 09:09:20.000   4280222.3134  -4034419.8554  -2458261.7760   5  12  30.0000  30.0000  30.0000   0.0000   0.0000   0.0000   5.00    0.0
2019/02/11 09:09:21.000   4280222.3134  -4034419.8554  -2458261.7760   5  12  30.0000  30.0000  30.0000   0.0000   0.0000   0.0000   6.00    0.0
2019/02/11 09:09:22.000   4280222.3134  -4034419.8554  -2458261.7760   5  12  30.0000  30.0000  30.0000   0.0000   0.0000   0.0000   7.00    0.0
2019/02/11 09:09:23.000   4280222.3134  -4034419.8554  -2458261.7760   5  12  30.0000  30.0000  30.0000   0.0000   0.0000   0.0000   8.00    0.0
2019/02/11 09:09:24.000   4280222.3134  -4034419.8554  -2458261.7760   5  12  30.0000  30.0000  30.0000   0.0000   0.0000   0.0000   9.00    0.0
2019/02/11 09:09:25.000   4280222.3134  -4034419.8554  -2458261.7760   5  12  30.0000  30.0000  30.0000   0.0000   0.0000   0.0000  10.00    0.0
2019/02/11 09:09:26.000   4280222.3134  -4034419.8554  -2458261.7760   5  12  30.0000  30.0000  30.0000   0.0000   0.0000   0.0000  11.00    0.0
2019/02/11 09:09:27.000   4280222.3134  -4034419.8554  -2458261.7760   5  12  30.0000  30.0000  30.0000   0.0000   0.0000   0.0000  12.00    0.0
2019/02/11 09:09:28.000   4280222.3134  -4034419.8554  -2458261.7760   5  12  30.0000  30.0000  30.0000   0.0000   0.0000   0.0000  13.00    0.0
2019/02/11 09:09:29.000   4280222.3134  -4034419.8554  -2458261.7760   5  12  30.0000  30.0000  30.0000   0.0000   0.0000   0.0000  14.00    0.0
2019/02/11 09:09:30.000   4280222.3134  -4034419.8554  -2458261.7760   5  12  30.0000  30.0000  30.0000   0.0000   0.0000   0.0000  -0.00    0.0
2019/02/11 09:09:31.000   4280222.3134  -4034419.8554  -2458261.7760   5  12  30.0000  30.0000  30.0000   0.0000   0.0000   0.0000   1.00    0.0
2019/02/11 09:09:32.000   4280222.3134  -4034419.8554  -2458261.7760   5  12  30.0000  30.0000  30.0000   0.0000   0.0000   0.0000   2.00    0.0
2019/02/11 09:09:33.000   4280222.3134  -4034419.8554  -2458261.7760   5  12  30.0000  30.0000  30.0000   0.0000   0.0000   0.0000   3.00    0.0
2019/02/11 09:09:34.000   4280222.3134  -4034419.8554  -2458261.7760   5  12  30.0000  30.0000  30.0000   0.0000   0.0000   0.0000   4.00    0.0
2019/02/11 09:09:35.000   4280222.3134  -4034419.8554  -2458261.7760   5  12  30.0000  30.0000  30.0000   0.0000   0.0000   0.0000   5.00    0.0
2019/02/11 09:09:36.000   4280222.3134  -4034419.8554  -2458261.7760   5  12  30.0000  30.0000  30.0000   0.0000   0.0000   0.0000   6.00    0.0
2019/02/11 09:09:37.000   4280222.3134  -4034419.8554  -2458261.7760   5  12  30.0000  30.0000  30.0000   0.0000   0.0000   0.0000   7.00    0.0
2019/02/11 09:09:38.000   4280222.3134  -4034419.8554  -2458261.7760   5  12  30.0000  30.0000  30.0000   0.0000   0.0000   0.0000   8.00    0.0
2019/02/11 09:09:57.000   4280222.3134  -4034419.8554  -2458261.7760   5  12  30.0000  30.0000  30.0000   0.0000   0.0000   0.0000  12.00    0.0
2019/02/11 09:09:58.000   4280222.3134  -4034419.8554  -2458261.7760   5  11  30.0000  30.0000  30.0000   0.0000   0.0000   0.0000  13.00    0.0
2019/02/11 09:09:59.000   4280222.3134  -4034419.8554  -2458261.7760   5  11  30.0000  30.0000  30.0000   0.0000   0.0000   0.0000  14.00    0.0
2019/02/11 09:10:00.000   4280222.3134  -4034419.8554  -2458261.7760   5  11  30.0000  30.0000  30.0000   0.0000   0.0000   0.0000  -0.00    0.0
2019/02/11 09:10:01.000   4280222.3134  -4034419.8554  -2458261.7760   5  12  30.0000  30.0000  30.0000   0.0000   0.0000   0.0000   1.00    0.0
2019/02/11 09:10:02.000   4280222.3134  -4034419.8554  -2458261.7760   5  12  30.0000  30.0000  30.0000   0.0000   0.0000   0.0000   2.00    0.0
2019/02/11 09:10:03.000   4280222.3134  -4034419.8554  -2458261.7760   5  11  30.0000  30.0000  30.0000   0.0000   0.0000   0.0000   3.00    0.0
2019/02/11 09:10:04.000   4280222.3134  -4034419.8554  -2458261.7760   5  12  30.0000  30.0000  30.0000   0.0000   0.0000   0.0000   4.00    0.0
2019/02/11 09:10:05.000   4280222.3134  -4034419.8554  -2458261.7760   5  12  30.0000  30.0000  30.0000   0.0000   0.0000   0.0000   5.00    0.0
2019/02/11 09:10:06.000   4280222.3134  -4034419.8554  -2458261.7760   5  12  30.0000  30.0000  30.0000   0.0000   0.0000   0.0000   6.00    0.0
2019/02/11 09:10:07.000   4280222.3134  -4034419.8554  -2458261.7760   5  12  30.0000  30.0000  30.0000   0.0000   0.0000   0.0000   7.00    0.0
2019/02/11 09:10:08.000   4280222.3134  -4034419.8554  -2458261.7760   5  12  30.0000  30.0000  30.0000   0.0000   0.0000   0.0000   8.00    0.0
2019/02/11 09:10:09.000   4280222.3134  -4034419.8554  -2458261.7760   5  12  30.0000  30.0000  30.0000   0.0000   0.0000   0.0000   9.00    0.0
2019/02/11 09:10:10.000   4280222.3134  -4034419.8554  -2458261.7760   5  12  30.0000  30.0000  30.0000   0.0000   0.0000   0.0000  10.00    0.0
2019/02/11 09:10:11.000   4280222.3134  -4034419.8554  -2458261.7760   5  12  30.0000  30.0000  30.0000   0.0000   0.0000   0.0000  11.00    0.0
2019/02/11 09:10:12.000   4280222.3134  -4034419.8554  -2458261.7760   5  12  30.0000  30.0000  30.0000   0.0000   0.0000   0.0000  12.00    0.0
2019/02/11 09:10:13.000   4280222.3134  -4034419.8554  -2458261.7760   5  12  30.0000  30.0000  30.0000   0.0000   0.0000   0.0000  13.00    0.0
2019/02/11 09:10:14.000   4280222.3134  -4034419.8554  -2458261.7760   5  12  30.0000  30.0000  30.0000   0.0000   0.0000   0.0000  14.00    0.0
2019/02/11 09:10:15.000   4280222.3134  -4034419.8554  -2458261.7760   5  12  30.0000  30.0000  30.0000   0.0000   0.0000   0.0000  -0.00    0.0
2019/02/11 09:10:16.000   4280222.3134  -4034419.8554  -2458261.7760   5  12  30.0000  30.0000  30.0000   0.0000   0.0000   0.0000   1.00    0.0
2019/02/11 09:10:17.000   4280222.3134  -4034419.8554  -2458261.7760   5  12  30.0000  30.0000  30.0000   0.0000   0.0000   0.0000   2.00    0.0
2019/02/11 09:10:18.000   4280222.3134  -4034419.8554  -2458261.7760   5  12  30.0000  30.0000  30.0000   0.0000   0.0000   0.0000   3.00    0.0
2019/02/11 09:10:19.000   4280222.3134  -4034419.8554  -2458261.7760   5  12  30.0000  30.0000  30.0000   0.0000   0.0000   0.0000   4.00    0.0
2019/02/11 09:10:20.000   4280222.3134  -4034419.8554  -2458261.7760   5  12  30.0000  30.0000  30.0000   0.0000   0.0000   0.0000   5.00    0.0
2019/02/11 09:10:21.000   4280222.3134  -4034419.8554  -2458261.7760   5  12  30.0000  30.0000  30.0000   0.0000   0.0000   0.0000   6.00    0.0
2019/02/11 09:10:22.000   4280222.3134  -4034419.8554  -2458261.7760   5  12  30.0000  30.0000  30.0000   0.0000   0.0000   0.0000   7.00    0.0
2019/02/11 09:10:23.000   4280222.3134  -4034419.8554  -2458261.7760   5  12  30.0000  30.0000  30.0000   0.0000   0.0000   0.0000   8.00    0.0
2019/02/11 09:10:24.000   4280222.3134  -4034419.8554  -2458261.7760   5  12  30.0000  30.0000  30.0000   0.0000   0.0000   0.0000   9.00    0.0
2019/02/11 09:10:25.000   4280222.3134  -4034419.8554  -2458261.7760   5  12  30.0000  30.0000  30.0000   0.0000   0.0000   0.0000  10.00    0.0
2019/02/11 09:10:32.000   4280222.3134  -4034419.8554  -2458261.7760   5  12  30.0000  30.0000  30.0000   0.0000   0.0000   0.0000   2.00    0.0
2019/02/11 09:10:33.000   4280222.3134  -4034419.8554  -2458261.7760   5  11  30.0000  30.0000  30.0000   0.0000   0.0000   0.0000   3.00    0.0
2019/02/11 09:10:34.000   4280222.3134  -4034419.8554  -2458261.7760   5  11  30.0000  30.0000  30.0000   0.0000   0.0000   0.0000   4.00    0.0
2019/02/11 09:10:35.000   4280222.3134  -4034419.8554  -2458261.7760   5  11  30.0000  30.0000  30.0000   0.0000   0.0000   0.0000   5.00    0.0
2019/02/11 09:10:36.000   4280222.3134  -4034419.8554  -2458261.7760   5  12  30.0000  30.0000  30.0000   0.0000   0.0000   0.0000   6.00    0.0
2019/02/11 09:10:37.000   4280222.3134  -4034419.8554  -2458261.7760   5  12  30.0000  30.0000  30.0000   0.0000   0.0000   0.0000   7.00    0.0
2019/02/11 09:10:38.000   4280222.3134  -4034419.8554  -2458261.7760   5  12  30.0000  30.0000  30.0000   0.0000   0.0000   0.0000   8.00    0.0
2019/02/11 09:10:39.000   4280222.3134  -4034419.8554  -2458261.7760   5  12  30.0000  30.0000  30.0000   0.0000   0.0000   0.0000   9.00    0.0
2019/02/11 09:10:40.000   4280222.3134  -4034419.8554  -2458261.7760   5  12  30.0000  30.0000  30.0000   0.0000   0.0000   0.0000  10.00    0.0
2019/02/11 09:10:41.000   4280222.3134  -4034419.8554  -2458261.7760   5  12  30.0000  30.0000  30.0000   0.0000   0.0000   0.0000  11.00    0.0
2019/02/11 09:10:42.000   4280222.3134  -4034419.8554  -2458261.7760   5  12  30.0000  30.0000  30.0000   0.0000   0.0000   0.0000  12.00    0.0
2019/02/11 09:10:43.000   4280222.3134  -4034419.8554  -2458261.7760   5  12  30.0000  30.0000  30.0000   0.0000   0.0000   0.0000  13.00    0.0
2019/02/11 09:10:44.000   4280222.3134  -4034419.8554  -2458261.7760   5  12  30.0000  30.0000  30.0000   0.0000   0.0000   0.0000  14.00    0.0
2019/02/11 09:10:45.000   4280222.3134  -4034419.8554  -2458261.7760   5  12  30.0000  30.0000  30.0000   0.0000   0.0000   0.0000  -0.00    0.0
2019/02/11 09:10:46.000   4280222.3134  -4034419.8554  -2458261.7760   5  12  30.0000  30.0000  30.0000   0.0000   0.0000   0.0000   1.00    0.0
2019/02/11 09:10:47.000   4280222.3134  -4034419.8554  -2458261.7760   5  12  30.0000  30.0000  30.0000   0.0000   0.0000   0.0000   2.00    0.0
2019/02/11 09:10:48.000   4280222.3134  -4034419.8554  -2458261.7760   5  12  30.0000  30.0000  30.0000   0.0000   0.0000   0.0000   3.00    0.0
2019/02/11 09:10:49.000   4280222.3134  -4034419.8554  -2458261.7760   5  12  30.0000  30.0000  30.0000   0.0000   0.0000   0.0000   4.00    0.0
2019/02/11 09:10:50.000   4280222.3134  -4034419.8554  -2458261.7760   5  12  30.0000  30.0000  30.0000   0.0000   0.0000   0.0000   5.00    0.0
2019/02/11 09:10:51.000   4280222.3134  -4034419.8554  -2458261.7760   5  12  30.0000  30.0000  30.0000   0.0000   0.0000   0.0000   6.00    0.0
2019/02/11 09:10:52.000   4280222.3134  -4034419.8554  -2458261.7760   5  12  30.0000  30.0000  30.0000   0.0000   0.0000   0.0000   7.00    0.0
2019/02/11 09:10:53.000   4280222.3134  -4034419.8554  -2458261.7760   5  12  30.0000  30.0000  30.0000   0.0000   0.0000   0.0000   8.00    0.0
2019/02/11 09:10:54.000   4280222.3134  -4034419.8554  -2458261.7760   5  12  30.0000  30.0000  30.0000   0.0000   0.0000   0.0000   9.00    0.0
2019/02/11 09:10:55.000   4280222.3134  -4034419.8554  -2458261.7760   5  12  30.0000  30.0000  30.0000   0.0000   0.0000   0.0000  10.00    0.0
2019/02/11 09:10:56.000   4280222.3134  -4034419.8554  -2458261.7760   5  12  30.0000  30.0000  30.0000   0.0000   0.0000   0.0000  11.00    0.0
2019/02/11 09:10:57.000   4280222.3134  -4034419.8554  -2458261.7760   5  12  30.0000  30.0000  30.0000   0.0000   0.0000   0.0000  12.00    0.0
2019/02/11 09:10:58.000   4280222.3134  -4034419.8554  -2458261.7760   5  12  30.0000  30.0000  30.0000   0.0000   0.0000   0.0000  13.00    0.0
2019/02/11 09:10:59.000   4280222.3134  -4034419.8554  -2458261.7760   5  12  30.0000  30.0000  30.0000   0.0000   0.0000   0.0000  14.00    0.0
2019/02/11 09:11:00.000   4280222.3134  -4034419.8554  -2458261.7760   5  12  30.0000  30.0000  30.0000   0.0000   0.0000   0.0000  -0.00    0.0
2019/02/11 09:11:01.000   4280222.3134  -4034419.8554  -2458261.7760   5  12  30.0000  30.0000  30.0000   0.0000   0.0000   0.0000   1.00    0.0
2019/02/11 09:11:02.000   4280222.3134  -4034419.8554  -2458261.7760   5  12  30.0000  30.0000  30.0000   0.0000   0.0000   0.0000   2.00    0.0
2019/02/11 09:11:03.000   4280222.3134  -4034419.8554  -2458261.7760   5  12  30.0000  30.0000  30.0000   0.0000   0.0000   0.0000   3.00    0.0
2019/02/11 09:11:04.000   4280222.3134  -4034419.8554  -2458261.7760   5  12  30.0000  30.0000  30.0000   0.0000   0.0000   0.0000   4.00    0.0
2019/02/11 09:11:05.000   4280222.3134  -4034419.8554  -2458261.7760   5  12  30.0000  30.0000  30.0000   0.0000   0.0000   0.0000   5.00    0.0
2019/02/11 09:11:06.000   4280222.3134  -4034419.8554  -2458261.7760   5  12  30.0000  30.0000  30.0000   0.0000   0.0000   0.0000   6.00    0.0
2019/02/11 09:11:07.000   4280222.3134  -4034419.8554  -2458261.7760   5  12  30.0000  30.0000  30.0000   0.0000   0.0000   0.0000   7.00    0.0
2019/02/11 09:11:08.000   4280222.3134  -4034419.8554  -2458261.7760   5  12  30.0000  30.0000  30.0000   0.0000   0.0000   0.0000   8.00    0.0
2019/02/11 09:11:09.000   4280222.3134  -4034419.8554  -2458261.7760   5  11  30.0000  30.0000  30.0000   0.0000   0.0000   0.0000   9.00    0.0
2019/02/11 09:11:10.000   4280222.3134  -4034419.8554  -2458261.7760   5  11  30.0000  30.0000  30.0000   0.0000   0.0000   0.0000  10.00    0.0
2019/02/11 09:11:11.000   4280222.3134  -4034419.8554  -2458261.7760   5  12  30.0000  30.0000  30.0000   0.0000   0.0000   0.0000  11.00    0.0
2019/02/11 09:11:12.000   4280222.3134  -4034419.8554  -2458261.7760   5  11  30.0000  30.0000  30.0000   0.0000   0.0000   0.0000  12.00    0.0
2019/02/11 09:11:13.000   4280222.3134  -4034419.8554  -2458261.7760   5  12  30.0000  30.0000  30.0000   0.0000   0.0000   0.0000  13.00    0.0
2019/02/11 09:11:14.000   4280222.3134  -4034419.8554  -2458261.7760   5  12  30.0000  30.0000  30.0000   0.0000   0.0000   0.0000  14.00    0.0
2019/02/11 09:11:15.000   4280222.3134  -4034419.8554  -2458261.7760   5  12  30.0000  30.0000  30.0000   0.0000   0.0000   0.0000  -0.00    0.0
2019/02/11 09:11:16.000   4280222.3134  -4034419.8554  -2458261.7760   5  11  30.0000  30.0000  30.0000   0.0000   0.0000   0.0000   1.00    0.0
2019/02/11 09:11:17.000   4280222.3134  -4034419.8554  -2458261.7760   5  12  30.0000  30.0000  30.0000   0.0000   0.0000   0.0000   2.00    0.0
2019/02/11 09:11:18.000   4280222.3134  -4034419.8554  -2458261.7760   5  12  30.0000  30.0000  30.0000   0.0000   0.0000   0.0000   3.00    0.0
2019/02/11 09:11:19.000   4280222.3134  -4034419.8554  -2458261.7760   5  12  30.0000  30.0000  30.0000   0.0000   0.0000   0.0000   4.00    0.0
2019/02/11 09:11:20.000   4280222.3134  -4034419.8554  -2458261.7760   5  12  30.0000  30.0000  30.0000   0.0000   0.0000   0.0000   5.00    0.0
2019/02/11 09:11:21.000   4280222.3134  -4034419.8554  -2458261.7760   5  12  30.0000  30.0000  30.0000   0.0000   0.0000   0.0000   6.00    0.0
2019/02/11 09:11:22.000   4280222.3134  -4034419.8554  -2458261.7760   5  12  30.0000  30.0000  30.0000   0.0000   0.0000   0.0000   7.00    0.0
2019/02/11 09:11:23.000   4280222.3134  -4034419.8554  -2458261.7760   5  12  30.0000  30.0000  30.0000   0.0000   0.0000   0.0000   8.00    0.0
2019/02/11 09:11:24.000   4280222.3134  -4034419.8554  -2458261.7760   5  12  30.0000  30.0000  30.0000   0.0000   0.0000   0.0000   9.00    0.0
2019/02/11 09:11:25.000   4280222.3134  -4034419.8554  -2458261.7760   5  12  30.0000  30.0000  30.0000   0.0000   0.0000   0.0000  10.00    0.0
2019/02/11 09:11:26.000   4280222.3134  -4034419.8554  -2458261.7760   5  12  30.0000  30.0000  30.0000   0.0000   0.0000   0.0000  11.00    0.0
2019/02/11 09:11:27.000   4280222.3134  -4034419.8554  -2458261.7760   5  12  30.0000  30.0000  30.0000   0.0000   0.0000   0.0000  12.00    0.0
2019/02/11 09:11:28.000   4280222.3134  -4034419.8554  -2458261.7760   5  12  30.0000  30.0000  30.0000   0.0000   0.0000   0.0000  13.00    0.0
2019/02/11 09:11:29.000   4280222.3134  -4034419.8554  -2458261.7760   5  12  30.0000  30.0000  30.0000   0.0000   0.0000   0.0000  14.00    0.0
2019/02/11 09:11:30.000   4280222.3134  -4034419.8554  -2458261.7760   5  12  30.0000  30.0000  30.0000   0.0000   0.0000   0.0000  -0.00    0.0
2019/02/11 09:11:31.000   4280222.3134  -4034419.8554  -2458261.7760   5  12  30.0000  30.0000  30.0000   0.0000   0.0000   0.0000   1.00    0.0
2019/02/11 09:11:32.000   4280222.3134  -4034419.8554  -2458261.7760   5  12  30.0000  30.0000  30.0000   0.0000   0.0000   0.0000   2.00    0.0
2019/02/11 09:11:33.000   4280222.3134  -4034419.8554  -2458261.7760   5  12  30.0000  30.0000  30.0000   0.0000   0.0000   0.0000   3.00    0.0
2019/02/11 09:11:34.000   4280222.3134  -4034419.8554  -2458261.7760   5  12  30.0000  30.0000  30.0000   0.0000   0.0000   0.0000   4.00    0.0
2019/02/11 09:11:35.000   4280222.3134  -4034419.8554  -2458261.7760   5  12  30.0000  30.0000  30.0000   0.0000   0.0000   0.0000   5.00    0.0
2019/02/11 09:11:36.000   4280222.3134  -4034419.8554  -2458261.7760   5  12  30.0000  30.0000  30.0000   0.0000   0.0000   0.0000   6.00    0.0
2019/02/11 09:11:37.000   4280222.3134  -4034419.8554  -2458261.7760   5  12  30.0000  30.0000  30.0000   0.0000   0.0000   0.0000   7.00    0.0
2019/02/11 09:11:38.000   4280222.3134  -4034419.8554  -2458261.7760   5  12  30.0000  30.0000  30.0000   0.0000   0.0000   0.0000   8.00    0.0
2019/02/11 09:11:39.000   4280222.3134  -4034419.8554  -2458261.7760   5  12  30.0000  30.0000  30.0000   0.0000   0.0000   0.0000   9.00    0.0
2019/02/11 09:11:40.000   4280222.3134  -4034419.8554  -2458261.7760   5  12  30.0000  30.0000  30.0000   0.0000   0.0000   0.0000  10.00    0.0
2019/02/11 09:11:41.000   4280222.3134  -4034419.8554  -2458261.7760   5  12  30.0000  30.0000  30.0000   0.0000   0.0000   0.0000  11.00    0.0
2019/02/11 09:11:42.000   4280222.3134  -4034419.8554  -2458261.7760   5  12  30.0000  30.0000  30.0000   0.0000   0.0000   0.0000  12.00    0.0
2019/02/11 09:11:43.000   4280222.3134  -4034419.8554  -2458261.7760   5  12  30.0000  30.0000  30.0000   0.0000   0.0000   0.0000  13.00    0.0
2019/02/11 09:11:44.000   4280222.3134  -4034419.8554  -2458261.7760   5  12  30.0000  30.0000  30.0000   0.0000   0.0000   0.0000  14.00    0.0
2019/02/11 09:11:45.000   4280222.3134  -4034419.8554  -2458261.7760   5  12  30.0000  30.0000  30.0000   0.0000   0.0000   0.0000  -0.00    0.0
2019/02/11 09:11:46.000   4280222.3134  -4034419.8554  -2458261.7760   5  12  30.0000  30.0000  30.0000   0.0000   0.0000   0.0000   1.00    0.0
2019/02/11 09:11:47.000   4280222.3134  -4034419.8554  -2458261.7760   5  12  30.0000  30.0000  30.0000   0.0000   0.0000   0.0000   2.00    0.0
2019/02/11 09:11:48.000   4280222.3134  -4034419.8554  -2458261.7760   5  12  30.0000  30.0000  30.0000   0.0000   0.0000   0.0000   3.00    0.0
2019/02/11 09:11:49.000   4280222.3134  -4034419.8554  -2458261.7760   5  12  30.0000  30.0000  30.0000   0.0000   0.0000   0.0000   4.00    0.0
2019/02/11 09:11:50.000   4280222.3134  -4034419.8554  -2458261.7760   5  11  30.0000  30.0000  30.0000   0.0000   0.0000   0.0000   5.00    0.0
2019/02/11 09:11:51.000   4280222.3134  -4034419.8554  -2458261.7760   5  12  30.0000  30.0000  30.0000   0.0000   0.0000   0.0000   6.00    0.0
2019/02/11 09:11:52.000   4280222.3134  -4034419.8554  -2458261.7760   5  12  30.0000  30.0000  30.0000   0.0000   0.0000   0.0000   7.00    0.0
2019/02/11 09:11:53.000   4280222.3134  -4034419.8554  -2458261.7760   5  12  30.0000  30.0000  30.0000   0.0000   0.0000   0.0000   8.00    0.0
2019/02/11 09:11:54.000   4280222.3134  -4034419.8554  -2458261.7760   5  11  30.0000  30.0000  30.0000   0.0000   0.0000   0.0000   9.00    0.0
2019/02/11 09:11:55.000   4280222.3134  -4034419.8554  -2458261.7760   5  11  30.0000  30.0000  30.0000   0.0000   0.0000   0.0000  10.00    0.0
2019/02/11 09:11:56.000   4280222.3134  -4034419.8554  -2458261.7760   5  11  30.0000  30.0000  30.0000   0.0000   0.0000   0.0000  11.00    0.0
2019/02/11 09:11:57.000   4280222.3134  -4034419.8554  -2458261.7760   5  11  30.0000  30.0000  30.0000   0.0000   0.0000   0.0000  12.00    0.0
2019/02/11 09:11:58.000   4280222.3134  -4034419.8554  -2458261.7760   5  11  30.0000  30.0000  30.0000   0.0000   0.0000   0.0000  13.00    0.0
2019/02/11 09:11:59.000   4280222.3134  -4034419.8554  -2458261.7760   5  12  30.0000  30.0000  30.0000   0.0000   0.0000   0.0000  14.00    0.0
2019/02/11 09:12:00.000   4280222.3134  -4034419.8554  -2458261.7760   5  12  30.0000  30.0000  30.0000   0.0000   0.0000   0.0000  -0.00    0.0
2019/02/11 09:12:01.000   4280222.3134  -4034419.8554  -2458261.7760   5  11  30.0000  30.0000  30.0000   0.0000   0.0000   0.0000   1.00    0.0
2019/02/11 09:12:02.000   4280222.3134  -4034419.8554  -2458261.7760   5  12  30.0000  30.0000  30.0000   0.0000   0.0000   0.0000   2.00    0.0
2019/02/11 09:12:03.000   4280222.3134  -4034419.8554  -2458261.7760   5  11  30.0000  30.0000  30.0000   0.0000   0.0000   0.0000   3.00    0.0
2019/02/11 09:12:04.000   4280222.3134  -4034419.8554  -2458261.7760   5  12  30.0000  30.0000  30.0000   0.0000   0.0000   0.0000   4.00    0.0
2019/02/11 09:12:05.000   4280222.3134  -4034419.8554  -2458261.7760   5  12  30.0000  30.0000  30.0000   0.0000   0.0000   0.0000   5.00    0.0
2019/02/11 09:12:06.000   4280222.3134  -4034419.8554  -2458261.7760   5  12  30.0000  30.0000  30.0000   0.0000   0.0000   0.0000   6.00    0.0
2019/02/11 09:12:07.000   4280222.3134  -4034419.8554  -2458261.7760   5  12  30.0000  30.0000  30.0000   0.0000   0.0000   0.0000   7.00    0.0
2019/02/11 09:12:08.000   4280222.3134  -4034419.8554  -2458261.7760   5  12  30.0000  30.0000  30.0000   0.0000   0.0000   0.0000   8.00    0.0
2019/02/11 09:12:09.000   4280222.3134  -4034419.8554  -2458261.7760   5  12  30.0000  30.0000  30.0000   0.0000   0.0000   0.0000   9.00    0.0
2019/02/11 09:12:10.000   4280222.3134  -4034419.8554  -2458261.7760   5  12  30.0000  30.0000  30.0000   0.0000   0.0000   0.0000  10.00    0.0
2019/02/11 09:12:11.000   4280222.3134  -4034419.8554  -2458261.7760   5  12  30.0000  30.0000  30.0000   0.0000   0.0000   0.0000  11.00    0.0
2019/02/11 09:12:12.000   4280222.3134  -4034419.8554  -2458261.7760   5  12  30.0000  30.0000  30.0000   0.0000   0.0000   0.0000  12.00    0.0
2019/02/11 09:12:13.000   4280222.3134  -4034419.8554  -2458261.7760   5  12  30.0000  30.0000  30.0000   0.0000   0.0000   0.0000  13.00    0.0
2019/02/11 09:12:14.000   4280222.3134  -4034419.8554  -2458261.7760   5  12  30.0000  30.0000  30.0000   0.0000   0.0000   0.0000  14.00    0.0
2019/02/11 09:12:15.000   4280222.3134  -4034419.8554  -2458261.7760   5  12  30.0000  30.0000  30.0000   0.0000   0.0000   0.0000  -0.00    0.0
2019/02/11 09:12:16.000   4280222.3134  -4034419.8554  -2458261.7760   5  12  30.0000  30.0000  30.0000   0.0000   0.0000   0.0000   1.00    0.0
2019/02/11 09:12:17.000   4280222.3134  -4034419.8554  -2458261.7760   5  12  30.0000  30.0000  30.0000   0.0000   0.0000   0.0000   2.00    0.0
2019/02/11 09:12:18.000   4280222.3134  -4034419.8554  -2458261.7760   5  12  30.0000  30.0000  30.0000   0.0000   0.0000   0.0000   3.00    0.0
2019/02/11 09:12:19.000   4280222.3134  -4034419.8554  -2458261.7760   5  12  30.0000  30.0000  30.0000   0.0000   0.0000   0.0000   4.00    0.0
2019/02/11 09:12:20.000   4280222.3134  -4034419.8554  -2458261.7760   5  12  30.0000  30.0000  30.0000   0.0000   0.0000   0.0000   5.00    0.0
2019/02/11 09:12:21.000   4280222.3134  -4034419.8554  -2458261.7760   5  12  30.0000  30.0000  30.0000   0.0000   0.0000   0.0000   6.00    0.0
2019/02/11 09:12:22.000   4280222.3134  -4034419.8554  -2458261.7760   5  12  30.0000  30.0000  30.0000   0.0000   0.0000   0.0000   7.00    0.0
2019/02/11 09:12:23.000   4280222.3134  -4034419.8554  -2458261.7760   5  12  30.0000  30.0000  30.0000   0.0000   0.0000   0.0000   8.00    0.0
2019/02/11 09:12:24.000   4280222.3134  -4034419.8554  -2458261.7760   5  12  30.0000  30.0000  30.0000   0.0000   0.0000   0.0000   9.00    0.0
2019/02/11 09:12:25.000   4280222.3134  -4034419.8554  -2458261.7760   5  12  30.0000  30.0000  30.0000   0.0000   0.0000   0.0000  10.00    0.0
2019/02/11 09:12:26.000   4280222.3134  -4034419.8554  -2458261.7760   5  12  30.0000  30.0000  30.0000   0.0000   0.0000   0.0000  11.00    0.0
2019/02/11 09:12:27.000   4280222.3134  -4034419.8554  -2458261.7760   5  12  30.0000  30.0000  30.0000   0.0000   0.0000   0.0000  12.00    0.0
2019/02/11 09:12:28.000   4280222.3134  -4034419.8554  -2458261.7760   5  12  30.0000  30.0000  30.0000   0.0000   0.0000   0.0000  13.00    0.0
2019/02/11 09:12:29.000   4280222.3134  -4034419.8554  -2458261.7760   5  12  30.0000  30.0000  30.0000   0.0000   0.0000   0.0000  14.00    0.0
2019/02/11 09:12:30.000   4280222.3134  -4034419.8554  -2458261.7760   5  12  30.0000  30.0000  30.0000   0.0000   0.0000   0.0000  -0.00    0.0
2019/02/11 09:12:41.000   4280222.3134  -4034419.8554  -2458261.7760   5  12  30.0000  30.0000  30.0000   0.0000   0.0000   0.0000  11.00    0.0
2019/02/11 09:12:42.000   4280222.3134  -4034419.8554  -2458261.7760   5  12  30.0000  30.0000  30.0000   0.0000   0.0000   0.0000  12.00    0.0
2019/02/11 09:12:45.000   4280222.3134  -4034419.8554  -2458261.7760   5  12  30.0000  30.0000  30.0000   0.0000   0.0000   0.0000  -0.00    0.0
2019/02/11 09:12:46.000   4280222.3134  -4034419.8554  -2458261.7760   5  12  30.0000  30.0000  30.0000   0.0000   0.0000   0.0000   1.00    0.0
2019/02/11 09:12:47.000   4280222.3134  -4034419.8554  -2458261.7760   5  12  30.0000  30.0000  30.0000   0.0000   0.0000   0.0000   2.00    0.0
2019/02/11 09:12:48.000   4280222.3134  -4034419.8554  -2458261.7760   5  12  30.0000  30.0000  30.0000   0.0000   0.0000   0.0000   3.00    0.0
2019/02/11 09:12:49.000   4280222.3134  -4034419.8554  -2458261.7760   5  12  30.0000  30.0000  30.0000   0.0000   0.0000   0.0000   4.00    0.0
2019/02/11 09:12:50.000   4280222.3134  -4034419.8554  -2458261.7760   5  12  30.0000  30.0000  30.0000   0.0000   0.0000   0.0000   5.00    0.0
2019/02/11 09:12:51.000   4280222.3134  -4034419.8554  -2458261.7760   5  12  30.0000  30.0000  30.0000   0.0000   0.0000   0.0000   6.00    0.0
2019/02/11 09:12:52.000   4280222.3134  -4034419.8554  -2458261.7760   5  12  30.0000  30.0000  30.0000   0.0000   0.0000   0.0000   7.00    0.0
2019/02/11 09:12:53.000   4280222.3134  -4034419.8554  -2458261.7760   5  12  30.0000  30.0000  30.0000   0.0000   0.0000   0.0000   8.00    0.0
2019/02/11 09:12:54.000   4280222.3134  -4034419.8554  -2458261.7760   5  12  30.0000  30.0000  30.0000   0.0000   0.0000   0.0000   9.00    0.0
2019/02/11 09:12:55.000   4280222.3134  -4034419.8554  -2458261.7760   5  12  30.0000  30.0000  30.0000   0.0000   0.0000   0.0000  10.00    0.0
2019/02/11 09:12:56.000   4280222.3134  -4034419.8554  -2458261.7760   5  12  30.0000  30.0000  30.0000   0.0000   0.0000   0.0000  11.00    0.0
2019/02/11 09:12:57.000   4280222.3134  -4034419.8554  -2458261.7760   5  12  30.0000  30.0000  30.0000   0.0000   0.0000   0.0000  12.00    0.0
2019/02/11 09:12:58.000   4280222.3134  -4034419.8554  -2458261.7760   5  12  30.0000  30.0000  30.0000   0.0000   0.0000   0.0000  13.00    0.0
2019/02/11 09:12:59.000   4280222.3134  -4034419.8554  -2458261.7760   5  12  30.0000  30.0000  30.0000   0.0000   0.0000   0.0000  14.00    0.0
2019/02/11 09:13:00.000   4280222.3134  -4034419.8554  -2458261.7760   5  12  30.0000  30.0000  30.0000   0.0000   0.0000   0.0000  -0.00    0.0
2019/02/11 09:13:01.000   4280222.3134  -4034419.8554  -2458261.7760   5  12  30.0000  30.0000  30.0000   0.0000   0.0000   0.0000   1.00    0.0
2019/02/11 09:13:02.000   4280222.3134  -4034419.8554  -2458261.7760   5  12  30.0000  30.0000  30.0000   0.0000   0.0000   0.0000   2.00    0.0
2019/02/11 09:13:03.000   4280222.3134  -4034419.8554  -2458261.7760   5  12  30.0000  30.0000  30.0000   0.0000   0.0000   0.0000   3.00    0.0
2019/02/11 09:13:04.000   4280222.3134  -4034419.8554  -2458261.7760   5  11  30.0000  30.0000  30.0000   0.0000   0.0000   0.0000   4.00    0.0
2019/02/11 09:13:05.000   4280222.3134  -4034419.8554  -2458261.7760   5  11  30.0000  30.0000  30.0000   0.0000   0.0000   0.0000   5.00    0.0
2019/02/11 09:13:06.000   4280222.3134  -4034419.8554  -2458261.7760   5  12  30.0000  30.0000  30.0000   0.0000   0.0000   0.0000   6.00    0.0
2019/02/11 09:13:07.000   4280222.3134  -4034419.8554  -2458261.7760   5  11  30.0000  30.0000  30.0000   0.0000   0.0000   0.0000   7.00    0.0
2019/02/11 09:13:08.000   4280222.3134  -4034419.8554  -2458261.7760   5  11  30.0000  30.0000  30.0000   0.0000   0.0000   0.0000   8.00    0.0
2019/02/11 09:13:09.000   4280222.3134  -4034419.8554  -2458261.7760   5  11  30.0000  30.0000  30.0000   0.0000   0.0000   0.0000   9.00    0.0
2019/02/11 09:13:10.000   4280222.3134  -4034419.8554  -2458261.7760   5  12  30.0000  30.0000  30.0000   0.0000   0.0000   0.0000  10.00    0.0
2019/02/11 09:13:11.000   4280222.3134  -4034419.8554  -2458261.7760   5  12  30.0000  30.0000  30.0000   0.0000   0.0000   0.0000  11.00    0.0
2019/02/11 09:13:12.000   4280222.3134  -4034419.8554  -2458261.7760   5  12  30.0000  30.0000  30.0000   0.0000   0.0000   0.0000  12.00    0.0
2019/02/11 09:13:13.000   4280222.3134  -4034419.8554  -2458261.7760   5  12  30.0000  30.0000  30.0000   0.0000   0.0000   0.0000  13.00    0.0
2019/02/11 09:13:14.000   4280222.3134  -4034419.8554  -2458261.7760   5  12  30.0000  30.0000  30.0000   0.0000   0.0000   0.0000  14.00    0.0
2019/02/11 09:13:15.000   4280222.3134  -4034419.8554  -2458261.7760   5  12  30.0000  30.0000  30.0000   0.0000   0.0000   0.0000  -0.00    0.0
2019/02/11 09:13:16.000   4280222.3134  -4034419.8554  -2458261.7760   5  12  30.0000  30.0000  30.0000   0.0000   0.0000   0.0000   1.00    0.0
2019/02/11 09:13:17.000   4280222.3134  -4034419.8554  -2458261.7760   5  12  30.0000  30.0000  30.0000   0.0000   0.0000   0.0000   2.00    0.0
2019/02/11 09:13:18.000   4280222.3134  -4034419.8554  -2458261.7760   5  12  30.0000  30.0000  30.0000   0.0000   0.0000   0.0000   3.00    0.0
2019/02/11 09:13:19.000   4280222.3134  -4034419.8554  -2458261.7760   5  12  30.0000  30.0000  30.0000   0.0000   0.0000   0.0000   4.00    0.0
2019/02/11 09:13:20.000   4280222.3134  -4034419.8554  -2458261.7760   5  12  30.0000  30.0000  30.0000   0.0000   0.0000   0.0000   5.00    0.0
2019/02/11 09:13:21.000   4280222.3134  -4034419.8554  -2458261.7760   5  12  30.0000  30.0000  30.0000   0.0000   0.0000   0.0000   6.00    0.0
2019/02/11 09:13:22.000   4280222.3134  -4034419.8554  -2458261.7760   5  12  30.0000  30.0000  30.0000   0.0000   0.0000   0.0000   7.00    0.0
2019/02/11 09:13:23.000   4280222.3134  -4034419.8554  -2458261.7760   5  12  30.0000  30.0000  30.0000   0.0000   0.0000   0.0000   8.00    0.0
2019/02/11 09:13:24.000   4280222.3134  -4034419.8554  -2458261.7760   5  12  30.0000  30.0000  30.0000   0.0000   0.0000   0.0000   9.00    0.0
2019/02/11 09:13:25.000   4280222.3134  -4034419.8554  -2458261.7760   5  12  30.0000  30.0000  30.0000   0.0000   0.0000   0.0000  10.00    0.0
2019/02/11 09:13:26.000   4280222.3134  -4034419.8554  -2458261.7760   5  12  30.0000  30.0000  30.0000   0.0000   0.0000   0.0000  11.00    0.0
2019/02/11 09:13:27.000   4280222.3134  -4034419.8554  -2458261.7760   5  12  30.0000  30.0000  30.0000   0.0000   0.0000   0.0000  12.00    0.0
2019/02/11 09:13:28.000   4280222.3134  -4034419.8554  -2458261.7760   5  12  30.0000  30.0000  30.0000   0.0000   0.0000   0.0000  13.00    0.0
2019/02/11 09:13:29.000   4280222.3134  -4034419.8554  -2458261.7760   5  12  30.0000  30.0000  30.0000   0.0000   0.0000   0.0000  14.00    0.0
2019/02/11 09:13:30.000   4280222.3134  -4034419.8554  -2458261.7760   5  12  30.0000  30.0000  30.0000   0.0000   0.0000   0.0000  -0.00    0.0
2019/02/11 09:13:31.000   4280222.3134  -4034419.8554  -2458261.7760   5  12  30.0000  30.0000  30.0000   0.0000   0.0000   0.0000   1.00    0.0
2019/02/11 09:13:32.000   4280222.3134  -4034419.8554  -2458261.7760   5  12  30.0000  30.0000  30.0000   0.0000   0.0000   0.0000   2.00    0.0
2019/02/11 09:13:33.000   4280222.3134  -4034419.8554  -2458261.7760   5  12  30.0000  30.0000  30.0000   0.0000   0.0000   0.0000   3.00    0.0
2019/02/11 09:13:34.000   4280222.3134  -4034419.8554  -2458261.7760   5  12  30.0000  30.0000  30.0000   0.0000   0.0000   0.0000   4.00    0.0
2019/02/11 09:13:35.000   4280222.3134  -4034419.8554  -2458261.7760   5  12  30.0000  30.0000  30.0000   0.0000   0.0000   0.0000   5.00    0.0
2019/02/11 09:13:36.000   4280222.3134  -4034419.8554  -2458261.7760   5  12  30.0000  30.0000  30.0000   0.0000   0.0000   0.0000   6.00    0.0
2019/02/11 09:13:37.000   4280222.3134  -4034419.8554  -2458261.7760   5  12  30.0000  30.0000  30.0000   0.0000   0.0000   0.0000   7.00    0.0
2019/02/11 09:13:38.000   4280222.3134  -4034419.8554  -2458261.7760   5  12  30.0000  30.0000  30.0000   0.0000   0.0000   0.0000   8.00    0.0
2019/02/11 09:13:39.000   4280222.3134  -4034419.8554  -2458261.7760   5  12  30.0000  30.0000  30.0000   0.0000   0.0000   0.0000   9.00    0.0
2019/02/11 09:13:40.000   4280222.3134  -4034419.8554  -2458261.7760   5  12  30.0000  30.0000  30.0000   0.0000   0.0000   0.0000  10.00    0.0
2019/02/11 09:13:41.000   4280222.3134  -4034419.8554  -2458261.7760   5  12  30.0000  30.0000  30.0000   0.0000   0.0000   0.0000  11.00    0.0
2019/02/11 09:13:42.000   4280222.3134  -4034419.8554  -2458261.7760   5  12  30.0000  30.0000  30.0000   0.0000   0.0000   0.0000  12.00    0.0
2019/02/11 09:13:43.000   4280222.3134  -4034419.8554  -2458261.7760   5  12  30.0000  30.0000  30.0000   0.0000   0.0000   0.0000  13.00    0.0
2019/02/11 09:13:44.000   4280222.3134  -4034419.8554  -2458261.7760   5  12  30.0000  30.0000  30.0000   0.0000   0.0000   0.0000  14.00    0.0
2019/02/11 09:13:45.000   4280222.3134  -4034419.8554  -2458261.7760   5  12  30.0000  30.0000  30.0000   0.0000   0.0000   0.0000  -0.00    0.0
2019/02/11 09:13:46.000   4280222.3134  -4034419.8554  -2458261.7760   5  12  30.0000  30.0000  30.0000   0.0000   0.0000   0.0000   1.00    0.0
2019/02/11 09:13:47.000   4280222.3134  -4034419.8554  -2458261.7760   5  12  30.0000  30.0000  30.0000   0.0000   0.0000   0.0000   2.00    0.0
2019/02/11 09:13:48.000   4280222.3134  -4034419.8554  -2458261.7760   5  12  30.0000  30.0000  30.0000   0.0000   0.0000   0.0000   3.00    0.0
2019/02/11 09:13:49.000   4280222.3134  -4034419.8554  -2458261.7760   5  12  30.0000  30.0000  30.0000   0.0000   0.0000   0.0000   4.00    0.0
2019/02/11 09:13:50.000   4280222.3134  -4034419.8554  -2458261.7760   5  12  30.0000  30.0000  30.0000   0.0000   0.0000   0.0000   5.00    0.0
2019/02/11 09:13:51.000   4280222.3134  -4034419.8554  -2458261.7760   5  12  30.0000  30.0000  30.0000   0.0000   0.0000   0.0000   6.00    0.0
2019/02/11 09:13:52.000   4280222.3134  -4034419.8554  -2458261.7760   5  12  30.0000  30.0000  30.0000   0.0000   0.0000   0.0000   7.00    0.0
2019/02/11 09:13:53.000   4280222.3134  -4034419.8554  -2458261.7760   5  12  30.0000  30.0000  30.0000   0.0000   0.0000   0.0000   8.00    0.0
2019/02/11 09:13:54.000   4280222.3134  -4034419.8554  -2458261.7760   5  12  30.0000  30.0000  30.0000   0.0000   0.0000   0.0000   9.00    0.0
2019/02/11 09:13:55.000   4280222.3134  -4034419.8554  -2458261.7760   5  12  30.0000  30.0000  30.0000   0.0000   0.0000   0.0000  10.00    0.0
2019/02/11 09:13:56.000   4280222.3134  -4034419.8554  -2458261.7760   5  12  30.0000  30.0000  30.0000   0.0000   0.0000   0.0000  11.00    0.0
2019/02/11 09:13:57.000   4280222.3134  -4034419.8554  -2458261.7760   5  12  30.0000  30.0000  30.0000   0.0000   0.0000   0.0000  12.00    0.0
2019/02/11 09:13:58.000   4280222.3134  -4034419.8554  -2458261.7760   5  12  30.0000  30.0000  30.0000   0.0000   0.0000   0.0000  13.00    0.0
2019/02/11 09:13:59.000   4280222.3134  -4034419.8554  -2458261.7760   5  12  30.0000  30.0000  30.0000   0.0000   0.0000   0.0000  14.00    0.0
2019/02/11 09:14:00.000   4280222.3134  -4034419.8554  -2458261.7760   5  12  30.0000  30.0000  30.0000   0.0000   0.0000   0.0000  -0.00    0.0
2019/02/11 09:14:01.000   4280222.3134  -4034419.8554  -2458261.7760   5  12  30.0000  30.0000  30.0000   0.0000   0.0000   0.0000   1.00    0.0
2019/02/11 09:14:02.000   4280222.3134  -4034419.8554  -2458261.7760   5  12  30.0000  30.0000  30.0000   0.0000   0.0000   0.0000   2.00    0.0
2019/02/11 09:14:03.000   4280222.3134  -4034419.8554  -2458261.7760   5  12  30.0000  30.0000  30.0000   0.0000   0.0000   0.0000   3.00    0.0
2019/02/11 09:14:04.000   4280222.3134  -4034419.8554  -2458261.7760   5  12  30.0000  30.0000  30.0000   0.0000   0.0000   0.0000   4.00    0.0
2019/02/11 09:14:05.000   4280222.3134  -4034419.8554  -2458261.7760   5  12  30.0000  30.0000  30.0000   0.0000   0.0000   0.0000   5.00    0.0
2019/02/11 09:14:06.000   4280222.3134  -4034419.8554  -2458261.7760   5  12  30.0000  30.0000  30.0000   0.0000   0.0000   0.0000   6.00    0.0
2019/02/11 09:14:07.000   4280222.3134  -4034419.8554  -2458261.7760   5  12  30.0000  30.0000  30.0000   0.0000   0.0000   0.0000   7.00    0.0
2019/02/11 09:14:08.000   4280222.3134  -4034419.8554  -2458261.7760   5  12  30.0000  30.0000  30.0000   0.0000   0.0000   0.0000   8.00    0.0
2019/02/11 09:14:09.000   4280222.3134  -4034419.8554  -2458261.7760   5  12  30.0000  30.0000  30.0000   0.0000   0.0000   0.0000   9.00    0.0
2019/02/11 09:14:10.000   4280222.3134  -4034419.8554  -2458261.7760   5  12  30.0000  30.0000  30.0000   0.0000   0.0000   0.0000  10.00    0.0
2019/02/11 09:14:11.000   4280222.3134  -4034419.8554  -2458261.7760   5  12  30.0000  30.0000  30.0000   0.0000   0.0000   0.0000  11.00    0.0
2019/02/11 09:14:12.000   4280222.3134  -4034419.8554  -2458261.7760   5  12  30.0000  30.0000  30.0000   0.0000   0.0000   0.0000  12.00    0.0
