% program   : RTKPOST ver.2.4.2
% inp file  : D:\Google Drive\UERJ\_Projeto Final\Python\tcc-guilherme\20190212_Sta91500_Smoothed.19o
% inp file  : D:\Google Drive\UERJ\_Projeto Final\20190212_Marco91500 IBGE\brdm0430.19p
% obs start : 2019/02/12 08:38:50.0 GPST (week2040 203930.0s)
% obs end   : 2019/02/12 10:17:44.0 GPST (week2040 209864.0s)
% pos mode  : single
% elev mask : 15.0 deg
% ionos opt : off
% tropo opt : off
% ephemeris : broadcast
% navi sys  : gps glonass galileo
%
% (x/y/z-ecef=WGS84,Q=1:fix,2:float,3:sbas,4:dgps,5:single,6:ppp,ns=# of satellites)
%  GPST                      x-ecef(m)      y-ecef(m)      z-ecef(m)   Q  ns   sdx(m)   sdy(m)   sdz(m)  sdxy(m)  sdyz(m)  sdzx(m) age(s)  ratio
2019/02/12 09:13:31.000   4280230.8414  -4034425.3589  -2458271.0186   5  11   8.5948   8.5004   5.9670  -6.9219   6.3407  -5.6918   0.00    0.0
2019/02/12 09:13:32.000   4280231.0729  -4034425.8422  -2458271.1095   5  11   8.5942   8.4982   5.9661  -6.9200   6.3392  -5.6905   0.00    0.0
2019/02/12 09:13:33.000   4280231.4942  -4034426.1881  -2458271.1819   5  11   8.5936   8.4960   5.9652  -6.9182   6.3376  -5.6893   0.00    0.0
2019/02/12 09:13:34.000   4280231.4614  -4034426.2618  -2458271.1018   5  11   8.5930   8.4938   5.9643  -6.9163   6.3360  -5.6881   0.00    0.0
2019/02/12 09:14:15.000   4280240.4520  -4034423.8730  -2458271.4259   5  12   7.4632   8.3633   5.8694  -6.5850   6.2175  -5.3186   0.00    0.0
2019/02/12 09:18:12.000   4280227.6763  -4034414.0601  -2458265.0317   5  10   8.6781  10.4690   5.9980  -7.4365   6.8826  -5.6787   0.00    0.0
2019/02/12 09:18:13.000   4280227.3086  -4034413.4824  -2458264.6483   5  10   8.6771  10.4659   5.9968  -7.4339   6.8805  -5.6771   0.00    0.0
2019/02/12 09:18:14.000   4280227.0430  -4034413.1827  -2458264.5389   5  10   8.6762  10.4627   5.9956  -7.4313   6.8783  -5.6754   0.00    0.0
2019/02/12 09:18:15.000   4280227.1401  -4034413.1828  -2458264.6074   5  10   8.6753  10.4596   5.9944  -7.4287   6.8762  -5.6737   0.00    0.0
2019/02/12 09:18:16.000   4280227.1780  -4034412.9628  -2458264.5140   5  10   8.6743  10.4565   5.9933  -7.4261   6.8741  -5.6721   0.00    0.0
2019/02/12 09:18:17.000   4280227.1298  -4034412.6857  -2458264.4114   5  10   8.6734  10.4533   5.9921  -7.4236   6.8719  -5.6704   0.00    0.0
2019/02/12 09:18:18.000   4280227.0747  -4034412.7634  -2458264.4040   5  10   8.6725  10.4502   5.9909  -7.4210   6.8698  -5.6688   0.00    0.0
2019/02/12 09:18:19.000   4280227.4131  -4034412.8775  -2458264.4740   5  10   8.6715  10.4471   5.9898  -7.4184   6.8676  -5.6671   0.00    0.0
2019/02/12 09:18:20.000   4280227.6248  -4034413.0996  -2458264.6569   5  10   8.6706  10.4439   5.9886  -7.4158   6.8655  -5.6655   0.00    0.0
2019/02/12 09:18:21.000   4280227.5050  -4034413.0886  -2458264.6000   5  10   8.6697  10.4408   5.9874  -7.4132   6.8633  -5.6638   0.00    0.0
2019/02/12 09:18:22.000   4280227.4134  -4034412.8820  -2458264.6568   5  10   8.6688  10.4377   5.9863  -7.4107   6.8612  -5.6622   0.00    0.0
2019/02/12 09:18:23.000   4280221.4747  -4034393.1418  -2458259.6361   5  11   8.4104   7.8615   5.7013  -6.3633   5.8780  -5.3125   0.00    0.0
2019/02/12 09:18:24.000   4280226.6950  -4034409.4282  -2458264.2069   5  11   8.4097   7.8594   5.7004  -6.3614   5.8765  -5.3111   0.00    0.0
2019/02/12 09:18:25.000   4280228.3275  -4034414.8230  -2458265.6741   5  11   8.4091   7.8573   5.6995  -6.3594   5.8749  -5.3098   0.00    0.0
2019/02/12 09:18:40.000   4280236.8664  -4034439.1144  -2458272.6614   5  11   8.3994   7.8254   5.6857  -6.3302   5.8511  -5.2894   0.00    0.0
2019/02/12 09:18:41.000   4280236.7861  -4034438.7168  -2458272.3633   5  11   8.3987   7.8232   5.6847  -6.3283   5.8496  -5.2880   0.00    0.0
2019/02/12 09:18:42.000   4280236.8737  -4034438.5593  -2458272.2356   5  11   8.3981   7.8211   5.6838  -6.3263   5.8480  -5.2866   0.00    0.0
2019/02/12 09:18:43.000   4280236.9213  -4034438.3471  -2458272.0024   5  11   8.3974   7.8190   5.6829  -6.3244   5.8464  -5.2853   0.00    0.0
2019/02/12 09:18:44.000   4280236.7929  -4034437.9431  -2458271.7224   5  11   8.3968   7.8169   5.6820  -6.3224   5.8448  -5.2839   0.00    0.0
2019/02/12 09:18:45.000   4280236.8292  -4034437.8040  -2458271.6125   5  11   8.3961   7.8148   5.6811  -6.3205   5.8432  -5.2825   0.00    0.0
2019/02/12 09:18:46.000   4280236.7687  -4034437.9437  -2458271.6876   5  11   8.3955   7.8126   5.6801  -6.3186   5.8417  -5.2812   0.00    0.0
2019/02/12 09:18:47.000   4280236.7376  -4034438.3188  -2458271.8921   5  11   8.3948   7.8105   5.6792  -6.3166   5.8401  -5.2798   0.00    0.0
2019/02/12 09:18:48.000   4280236.8401  -4034438.7305  -2458272.1315   5  11   8.3942   7.8084   5.6783  -6.3147   5.8385  -5.2784   0.00    0.0
2019/02/12 09:18:49.000   4280237.2610  -4034439.3871  -2458272.7367   5  11   8.3935   7.8063   5.6774  -6.3127   5.8369  -5.2771   0.00    0.0
2019/02/12 09:18:50.000   4280237.6337  -4034440.0729  -2458273.2790   5  11   8.3929   7.8042   5.6765  -6.3108   5.8353  -5.2757   0.00    0.0
2019/02/12 09:19:55.000   4280233.0126  -4034433.5389  -2458270.6701   5  11   8.3511   7.6677   5.6168  -6.1841   5.7331  -5.1863   0.00    0.0
2019/02/12 09:19:56.000   4280233.1435  -4034434.0903  -2458271.0452   5  11   8.3504   7.6656   5.6159  -6.1821   5.7315  -5.1849   0.00    0.0
2019/02/12 09:19:57.000   4280233.0534  -4034434.2507  -2458271.1632   5  11   8.3498   7.6635   5.6150  -6.1802   5.7299  -5.1835   0.00    0.0
2019/02/12 09:19:58.000   4280233.2419  -4034434.4692  -2458271.3972   5  11   8.3492   7.6614   5.6141  -6.1782   5.7284  -5.1821   0.00    0.0
2019/02/12 09:19:59.000   4280233.7521  -4034434.5933  -2458271.5291   5  11   8.3485   7.6594   5.6132  -6.1763   5.7268  -5.1808   0.00    0.0
2019/02/12 09:20:00.000   4280233.8626  -4034434.6867  -2458271.6620   5  11   8.3479   7.6573   5.6123  -6.1743   5.7252  -5.1794   0.00    0.0
2019/02/12 09:20:01.000   4280233.7699  -4034434.8562  -2458271.8151   5  11   8.3472   7.6552   5.6113  -6.1724   5.7237  -5.1780   0.00    0.0
2019/02/12 09:20:02.000   4280233.6691  -4034434.9586  -2458271.8705   5  11   8.3466   7.6531   5.6104  -6.1704   5.7221  -5.1766   0.00    0.0
2019/02/12 09:20:03.000   4280233.5914  -4034435.3168  -2458272.1758   5  11   8.3460   7.6510   5.6095  -6.1685   5.7205  -5.1752   0.00    0.0
2019/02/12 09:20:04.000   4280233.3744  -4034435.3196  -2458272.1543   5  11   8.3453   7.6490   5.6086  -6.1665   5.7190  -5.1738   0.00    0.0
2019/02/12 09:20:05.000   4280233.4538  -4034435.4605  -2458272.0573   5  11   8.3447   7.6469   5.6077  -6.1646   5.7174  -5.1725   0.00    0.0
2019/02/12 09:20:06.000   4280233.3866  -4034435.8036  -2458272.0657   5  11   8.3440   7.6448   5.6068  -6.1626   5.7158  -5.1711   0.00    0.0
2019/02/12 09:20:07.000   4280233.2059  -4034436.1832  -2458272.2795   5  11   8.3434   7.6427   5.6059  -6.1607   5.7143  -5.1697   0.00    0.0
2019/02/12 09:20:08.000   4280233.0753  -4034436.4069  -2458272.4611   5  11   8.3428   7.6407   5.6049  -6.1587   5.7127  -5.1683   0.00    0.0
2019/02/12 09:20:11.000   4280233.3732  -4034436.8454  -2458272.7708   5  11   8.3408   7.6345   5.6022  -6.1529   5.7080  -5.1641   0.00    0.0
2019/02/12 09:20:12.000   4280233.3715  -4034436.6263  -2458272.5475   5  11   8.3402   7.6324   5.6013  -6.1509   5.7065  -5.1627   0.00    0.0
2019/02/12 09:20:13.000   4280233.2202  -4034436.4321  -2458272.3032   5  11   8.3396   7.6303   5.6004  -6.1490   5.7049  -5.1614   0.00    0.0
2019/02/12 09:20:14.000   4280233.1898  -4034436.5645  -2458272.3325   5  11   8.3389   7.6282   5.5995  -6.1470   5.7033  -5.1600   0.00    0.0
2019/02/12 09:20:15.000   4280233.1450  -4034436.7433  -2458272.3920   5  11   8.3383   7.6262   5.5986  -6.1451   5.7018  -5.1586   0.00    0.0
2019/02/12 09:20:24.000   4280231.8500  -4034436.0503  -2458272.1037   5  11   8.3326   7.6076   5.5903  -6.1275   5.6877  -5.1461   0.00    0.0
2019/02/12 09:20:25.000   4280231.7460  -4034435.9747  -2458272.0263   5  11   8.3319   7.6055   5.5894  -6.1255   5.6862  -5.1447   0.00    0.0
2019/02/12 09:20:26.000   4280231.4256  -4034435.7815  -2458271.7692   5  11   8.3313   7.6034   5.5885  -6.1236   5.6846  -5.1433   0.00    0.0
2019/02/12 09:20:43.000   4280226.0594  -4034420.6777  -2458266.4051   5  10   8.5396  10.0050   5.8229  -7.0477   6.5617  -5.4272   0.00    0.0
2019/02/12 09:20:44.000   4280226.4043  -4034420.8408  -2458267.1092   5  10   8.5387  10.0020   5.8217  -7.0452   6.5596  -5.4255   0.00    0.0
2019/02/12 09:20:45.000   4280226.5294  -4034420.8835  -2458267.5569   5  10   8.5378   9.9990   5.8206  -7.0426   6.5575  -5.4238   0.00    0.0
2019/02/12 09:20:46.000   4280226.2587  -4034420.7076  -2458267.6189   5  10   8.5369   9.9960   5.8194  -7.0400   6.5554  -5.4221   0.00    0.0
2019/02/12 09:20:47.000   4280225.9494  -4034420.4852  -2458267.5704   5  10   8.5360   9.9930   5.8183  -7.0375   6.5533  -5.4204   0.00    0.0
2019/02/12 09:20:48.000   4280225.6833  -4034420.2250  -2458267.3345   5  10   8.5351   9.9901   5.8172  -7.0349   6.5512  -5.4188   0.00    0.0
2019/02/12 09:20:49.000   4280225.5652  -4034420.4139  -2458267.2462   5  10   8.5342   9.9871   5.8160  -7.0324   6.5491  -5.4171   0.00    0.0
2019/02/12 09:20:50.000   4280227.9982  -4034428.7362  -2458269.2625   5  11   8.3160   7.5541   5.5667  -6.0768   5.6472  -5.1099   0.00    0.0
2019/02/12 09:21:13.000   4280229.1523  -4034431.3608  -2458269.4095   5  11   8.3015   7.5072   5.5458  -6.0320   5.6115  -5.0777   0.00    0.0
2019/02/12 09:21:14.000   4280229.3530  -4034431.7428  -2458269.7083   5  11   8.3009   7.5051   5.5449  -6.0300   5.6100  -5.0763   0.00    0.0
2019/02/12 09:21:15.000   4280229.5318  -4034431.9648  -2458269.9303   5  11   8.3002   7.5031   5.5440  -6.0281   5.6084  -5.0749   0.00    0.0
2019/02/12 09:21:16.000   4280229.7214  -4034431.9922  -2458270.0337   5  11   8.2996   7.5011   5.5431  -6.0261   5.6069  -5.0735   0.00    0.0
2019/02/12 09:21:17.000   4280229.8166  -4034432.1140  -2458270.1352   5  11   8.2990   7.4990   5.5421  -6.0242   5.6053  -5.0721   0.00    0.0
2019/02/12 09:21:18.000   4280229.7745  -4034432.6091  -2458270.2912   5  11   8.2983   7.4970   5.5412  -6.0222   5.6038  -5.0707   0.00    0.0
2019/02/12 09:21:19.000   4280230.4459  -4034433.3025  -2458270.5667   5  11   8.2977   7.4950   5.5403  -6.0203   5.6022  -5.0693   0.00    0.0
2019/02/12 09:21:20.000   4280230.7896  -4034433.8582  -2458270.7389   5  11   8.2971   7.4929   5.5394  -6.0183   5.6007  -5.0679   0.00    0.0
2019/02/12 09:21:21.000   4280230.6275  -4034434.2424  -2458270.8290   5  11   8.2965   7.4909   5.5385  -6.0164   5.5991  -5.0665   0.00    0.0
2019/02/12 09:21:22.000   4280230.3701  -4034434.0642  -2458270.5775   5  11   8.2958   7.4889   5.5376  -6.0145   5.5976  -5.0651   0.00    0.0
2019/02/12 09:21:23.000   4280230.4851  -4034433.9554  -2458270.4579   5  11   8.2952   7.4869   5.5367  -6.0125   5.5961  -5.0637   0.00    0.0
2019/02/12 09:21:42.000   4280233.1973  -4034436.7111  -2458272.2598   5  11   8.2833   7.4485   5.5195  -5.9755   5.5667  -5.0371   0.00    0.0
2019/02/12 09:21:43.000   4280232.7671  -4034436.8713  -2458272.1039   5  11   8.2827   7.4464   5.5186  -5.9736   5.5652  -5.0357   0.00    0.0
2019/02/12 09:21:44.000   4280232.8181  -4034437.1243  -2458272.0552   5  11   8.2820   7.4444   5.5177  -5.9716   5.5636  -5.0343   0.00    0.0
2019/02/12 09:21:45.000   4280232.9535  -4034437.4753  -2458272.1503   5  11   8.2814   7.4424   5.5168  -5.9697   5.5621  -5.0329   0.00    0.0
2019/02/12 09:21:46.000   4280233.1277  -4034437.4744  -2458272.0988   5  11   8.2808   7.4404   5.5159  -5.9677   5.5606  -5.0315   0.00    0.0
2019/02/12 09:21:47.000   4280233.0085  -4034437.2988  -2458272.0608   5  11   8.2802   7.4384   5.5150  -5.9658   5.5590  -5.0301   0.00    0.0
2019/02/12 09:21:48.000   4280232.8185  -4034436.8514  -2458271.9092   5  11   8.2795   7.4364   5.5141  -5.9638   5.5575  -5.0287   0.00    0.0
2019/02/12 09:21:49.000   4280232.3281  -4034436.3700  -2458271.8952   5  11   8.2789   7.4344   5.5132  -5.9619   5.5560  -5.0273   0.00    0.0
2019/02/12 09:21:50.000   4280231.9042  -4034435.9642  -2458271.8219   5  11   8.2783   7.4324   5.5123  -5.9599   5.5544  -5.0259   0.00    0.0
2019/02/12 09:21:51.000   4280231.7425  -4034435.5160  -2458271.7185   5  11   8.2777   7.4304   5.5114  -5.9580   5.5529  -5.0245   0.00    0.0
2019/02/12 09:21:52.000   4280231.4802  -4034434.9368  -2458271.5453   5  11   8.2770   7.4283   5.5105  -5.9561   5.5513  -5.0230   0.00    0.0
2019/02/12 09:22:21.000   4280232.9573  -4034432.7734  -2458271.1986   5  11   8.2591   7.3704   5.4845  -5.8997   5.5069  -4.9822   0.00    0.0
2019/02/12 09:22:22.000   4280233.2325  -4034432.9074  -2458271.0093   5  11   8.2585   7.3684   5.4836  -5.8977   5.5053  -4.9808   0.00    0.0
2019/02/12 09:22:23.000   4280233.4468  -4034433.1814  -2458270.9393   5  11   8.2578   7.3664   5.4827  -5.8958   5.5038  -4.9794   0.00    0.0
2019/02/12 09:22:24.000   4280233.6207  -4034433.3204  -2458270.9880   5  11   8.2572   7.3644   5.4818  -5.8939   5.5023  -4.9780   0.00    0.0
2019/02/12 09:22:25.000   4280233.6641  -4034433.2356  -2458270.7574   5  11   8.2566   7.3624   5.4809  -5.8919   5.5008  -4.9766   0.00    0.0
2019/02/12 09:22:26.000   4280233.6664  -4034433.2124  -2458270.5499   5  11   8.2560   7.3605   5.4800  -5.8900   5.4992  -4.9752   0.00    0.0
2019/02/12 09:22:27.000   4280233.5827  -4034432.9122  -2458270.2496   5  11   8.2554   7.3585   5.4791  -5.8880   5.4977  -4.9738   0.00    0.0
2019/02/12 09:22:28.000   4280233.3891  -4034432.7786  -2458270.1757   5  11   8.2548   7.3565   5.4782  -5.8861   5.4962  -4.9724   0.00    0.0
2019/02/12 09:22:29.000   4280233.0817  -4034432.7594  -2458270.0975   5  11   8.2541   7.3545   5.4773  -5.8842   5.4947  -4.9709   0.00    0.0
2019/02/12 09:22:30.000   4280232.9405  -4034432.9115  -2458270.2798   5  11   8.2535   7.3525   5.4764  -5.8822   5.4931  -4.9695   0.00    0.0
2019/02/12 09:22:31.000   4280232.8922  -4034433.2428  -2458270.6971   5  11   8.2529   7.3505   5.4755  -5.8803   5.4916  -4.9681   0.00    0.0
2019/02/12 09:22:32.000   4280232.7437  -4034433.4771  -2458270.9246   5  11   8.2523   7.3486   5.4746  -5.8783   5.4901  -4.9667   0.00    0.0
2019/02/12 09:22:33.000   4280232.7463  -4034433.5456  -2458270.8439   5  11   8.2517   7.3466   5.4737  -5.8764   5.4886  -4.9653   0.00    0.0
2019/02/12 09:22:34.000   4280232.5760  -4034433.3626  -2458270.4462   5  11   8.2511   7.3446   5.4728  -5.8744   5.4870  -4.9639   0.00    0.0
2019/02/12 09:22:35.000   4280232.7560  -4034433.0275  -2458270.1190   5  11   8.2505   7.3426   5.4720  -5.8725   5.4855  -4.9625   0.00    0.0
2019/02/12 09:22:36.000   4280233.1037  -4034433.0962  -2458270.1044   5  11   8.2498   7.3406   5.4711  -5.8706   5.4840  -4.9611   0.00    0.0
2019/02/12 09:22:37.000   4280233.3356  -4034433.1711  -2458270.2919   5  11   8.2492   7.3387   5.4702  -5.8686   5.4825  -4.9597   0.00    0.0
2019/02/12 09:22:38.000   4280233.3955  -4034433.2739  -2458270.4655   5  11   8.2486   7.3367   5.4693  -5.8667   5.4809  -4.9582   0.00    0.0
2019/02/12 09:22:39.000   4280233.1434  -4034433.2138  -2458270.3828   5  11   8.2480   7.3347   5.4684  -5.8647   5.4794  -4.9568   0.00    0.0
2019/02/12 09:23:22.000   4280233.6361  -4034427.8273  -2458270.3313   5  11   8.2219   7.2504   5.4302  -5.7814   5.4142  -4.8960   0.00    0.0
2019/02/12 09:23:23.000   4280233.7598  -4034427.8907  -2458270.2904   5  11   8.2213   7.2484   5.4293  -5.7795   5.4127  -4.8946   0.00    0.0
2019/02/12 09:23:24.000   4280233.9103  -4034427.8484  -2458270.1862   5  11   8.2207   7.2465   5.4284  -5.7776   5.4112  -4.8932   0.00    0.0
2019/02/12 09:23:25.000   4280233.8808  -4034427.6739  -2458270.2697   5  11   8.2201   7.2445   5.4275  -5.7756   5.4097  -4.8918   0.00    0.0
2019/02/12 09:23:26.000   4280234.2813  -4034427.3584  -2458270.1519   5  11   8.2195   7.2426   5.4266  -5.7737   5.4082  -4.8903   0.00    0.0
2019/02/12 09:23:27.000   4280234.5658  -4034427.4084  -2458270.1818   5  11   8.2189   7.2406   5.4258  -5.7718   5.4067  -4.8889   0.00    0.0
2019/02/12 09:23:28.000   4280234.4930  -4034427.3298  -2458270.2206   5  11   8.2183   7.2387   5.4249  -5.7698   5.4052  -4.8875   0.00    0.0
2019/02/12 09:23:29.000   4280234.0017  -4034427.0342  -2458270.0432   5  11   8.2177   7.2367   5.4240  -5.7679   5.4037  -4.8861   0.00    0.0
2019/02/12 09:23:30.000   4280233.4943  -4034426.8600  -2458269.7791   5  11   8.2171   7.2348   5.4231  -5.7660   5.4022  -4.8847   0.00    0.0
2019/02/12 09:23:31.000   4280232.9337  -4034426.9600  -2458269.7417   5  11   8.2165   7.2329   5.4222  -5.7640   5.4007  -4.8833   0.00    0.0
2019/02/12 09:23:32.000   4280232.3757  -4034426.5776  -2458269.3380   5  11   8.2159   7.2309   5.4213  -5.7621   5.3992  -4.8818   0.00    0.0
2019/02/12 09:23:33.000   4280231.6883  -4034426.0698  -2458268.9574   5  11   8.2153   7.2290   5.4205  -5.7602   5.3977  -4.8804   0.00    0.0
2019/02/12 09:23:34.000   4280231.3808  -4034425.8585  -2458268.8964   5  11   8.2147   7.2270   5.4196  -5.7582   5.3962  -4.8790   0.00    0.0
2019/02/12 09:23:35.000   4280231.1591  -4034426.0346  -2458268.9904   5  11   8.2141   7.2251   5.4187  -5.7563   5.3947  -4.8776   0.00    0.0
2019/02/12 09:23:36.000   4280231.2925  -4034426.0828  -2458269.0640   5  11   8.2135   7.2232   5.4178  -5.7544   5.3932  -4.8762   0.00    0.0
2019/02/12 09:23:37.000   4280231.2827  -4034425.7537  -2458268.7678   5  11   8.2129   7.2212   5.4169  -5.7524   5.3917  -4.8748   0.00    0.0
2019/02/12 09:23:38.000   4280231.3098  -4034425.6646  -2458268.5995   5  11   8.2123   7.2193   5.4160  -5.7505   5.3902  -4.8733   0.00    0.0
2019/02/12 09:23:39.000   4280231.4279  -4034425.6940  -2458268.5564   5  11   8.2117   7.2174   5.4152  -5.7486   5.3886  -4.8719   0.00    0.0
2019/02/12 09:23:40.000   4280231.4693  -4034425.6123  -2458268.4833   5  11   8.2111   7.2154   5.4143  -5.7466   5.3871  -4.8705   0.00    0.0
2019/02/12 09:23:41.000   4280231.4342  -4034425.5611  -2458268.4561   5  11   8.2105   7.2135   5.4134  -5.7447   5.3856  -4.8691   0.00    0.0
2019/02/12 09:23:42.000   4280231.5834  -4034425.4777  -2458268.4926   5  11   8.2099   7.2116   5.4125  -5.7428   5.3841  -4.8677   0.00    0.0
2019/02/12 09:23:43.000   4280231.7119  -4034425.4403  -2458268.4789   5  11   8.2093   7.2096   5.4116  -5.7409   5.3826  -4.8662   0.00    0.0
2019/02/12 09:23:52.000   4280230.7136  -4034424.6594  -2458268.1961   5  11   8.2039   7.1923   5.4037  -5.7235   5.3692  -4.8535   0.00    0.0
2019/02/12 09:23:57.000   4280230.7546  -4034425.3286  -2458268.1845   5  11   8.2009   7.1827   5.3993  -5.7138   5.3617  -4.8464   0.00    0.0
2019/02/12 09:23:58.000   4280230.2921  -4034425.1917  -2458267.9965   5  11   8.2004   7.1807   5.3985  -5.7119   5.3602  -4.8450   0.00    0.0
2019/02/12 09:23:59.000   4280229.9656  -4034424.8592  -2458267.6751   5  11   8.1998   7.1788   5.3976  -5.7100   5.3587  -4.8435   0.00    0.0
2019/02/12 09:24:00.000   4280229.9338  -4034424.6728  -2458267.4646   5  11   8.1992   7.1769   5.3967  -5.7080   5.3572  -4.8421   0.00    0.0
2019/02/12 09:24:01.000   4280229.6820  -4034424.2187  -2458267.2954   5  11   8.1986   7.1750   5.3958  -5.7061   5.3557  -4.8407   0.00    0.0
2019/02/12 09:24:02.000   4280229.4852  -4034423.6040  -2458267.0612   5  11   8.1980   7.1731   5.3950  -5.7042   5.3542  -4.8393   0.00    0.0
2019/02/12 09:24:03.000   4280229.4925  -4034423.1960  -2458266.9994   5  11   8.1974   7.1711   5.3941  -5.7023   5.3527  -4.8379   0.00    0.0
2019/02/12 09:24:04.000   4280229.4704  -4034422.9233  -2458267.1044   5  11   8.1968   7.1692   5.3932  -5.7003   5.3512  -4.8364   0.00    0.0
2019/02/12 09:24:05.000   4280229.2780  -4034422.5420  -2458267.2486   5  11   8.1962   7.1673   5.3923  -5.6984   5.3497  -4.8350   0.00    0.0
2019/02/12 09:24:32.000   4280227.7411  -4034420.9993  -2458268.2768   5  11   8.1804   7.1159   5.3688  -5.6464   5.3095  -4.7966   0.00    0.0
2019/02/12 09:24:39.000   4280227.8998  -4034419.7283  -2458267.8291   5  11   8.1763   7.1026   5.3627  -5.6330   5.2992  -4.7867   0.00    0.0
2019/02/12 09:24:40.000   4280228.1702  -4034419.9385  -2458268.0658   5  11   8.1757   7.1007   5.3618  -5.6311   5.2977  -4.7853   0.00    0.0
2019/02/12 09:24:41.000   4280228.5244  -4034420.0271  -2458268.1789   5  11   8.1751   7.0988   5.3610  -5.6291   5.2962  -4.7838   0.00    0.0
2019/02/12 09:24:42.000   4280228.9226  -4034420.0254  -2458268.2235   5  11   8.1746   7.0969   5.3601  -5.6272   5.2947  -4.7824   0.00    0.0
2019/02/12 09:24:43.000   4280229.0427  -4034419.8773  -2458268.2179   5  11   8.1740   7.0950   5.3592  -5.6253   5.2933  -4.7810   0.00    0.0
2019/02/12 09:24:44.000   4280229.0249  -4034419.8609  -2458268.2491   5  11   8.1734   7.0932   5.3584  -5.6234   5.2918  -4.7796   0.00    0.0
2019/02/12 09:24:45.000   4280229.1296  -4034420.0534  -2458268.5226   5  11   8.1728   7.0913   5.3575  -5.6215   5.2903  -4.7781   0.00    0.0
2019/02/12 09:24:46.000   4280228.8343  -4034420.1522  -2458268.6137   5  11   8.1722   7.0894   5.3566  -5.6195   5.2888  -4.7767   0.00    0.0
2019/02/12 09:24:47.000   4280228.3413  -4034420.2129  -2458268.6792   5  11   8.1717   7.0875   5.3558  -5.6176   5.2873  -4.7753   0.00    0.0
2019/02/12 09:24:48.000   4280227.9974  -4034420.4746  -2458268.7429   5  11   8.1711   7.0856   5.3549  -5.6157   5.2859  -4.7739   0.00    0.0
2019/02/12 09:25:11.000   4280228.5082  -4034419.2777  -2458269.4493   5  11   8.1579   7.0425   5.3351  -5.5716   5.2520  -4.7411   0.00    0.0
2019/02/12 09:25:40.000   4280226.8489  -4034419.4883  -2458270.7849   5  11   8.1415   6.9886   5.3102  -5.5161   5.2096  -4.6998   0.00    0.0
2019/02/12 09:25:41.000   4280227.0622  -4034419.6473  -2458270.8395   5  11   8.1409   6.9868   5.3094  -5.5142   5.2082  -4.6984   0.00    0.0
2019/02/12 09:25:42.000   4280227.2992  -4034419.7325  -2458270.9453   5  11   8.1403   6.9849   5.3085  -5.5123   5.2067  -4.6969   0.00    0.0
2019/02/12 09:25:43.000   4280227.4039  -4034419.9006  -2458271.0807   5  11   8.1398   6.9831   5.3077  -5.5104   5.2053  -4.6955   0.00    0.0
2019/02/12 09:25:44.000   4280227.1333  -4034420.2255  -2458271.2152   5  11   8.1392   6.9813   5.3068  -5.5085   5.2038  -4.6941   0.00    0.0
2019/02/12 09:25:45.000   4280227.0583  -4034420.8663  -2458271.2977   5  11   8.1387   6.9794   5.3060  -5.5066   5.2024  -4.6927   0.00    0.0
2019/02/12 09:25:46.000   4280227.0542  -4034421.3863  -2458271.3758   5  11   8.1381   6.9776   5.3051  -5.5047   5.2009  -4.6912   0.00    0.0
2019/02/12 09:25:47.000   4280227.1859  -4034421.9831  -2458271.7372   5  11   8.1375   6.9757   5.3043  -5.5028   5.1995  -4.6898   0.00    0.0
2019/02/12 09:25:48.000   4280227.6161  -4034422.4195  -2458272.0484   5  11   8.1370   6.9739   5.3034  -5.5009   5.1980  -4.6884   0.00    0.0
2019/02/12 09:25:49.000   4280227.8615  -4034422.7832  -2458272.2880   5  11   8.1364   6.9720   5.3026  -5.4990   5.1966  -4.6870   0.00    0.0
2019/02/12 09:25:50.000   4280227.9759  -4034422.9089  -2458272.2791   5  11   8.1359   6.9702   5.3017  -5.4971   5.1951  -4.6855   0.00    0.0
2019/02/12 09:25:51.000   4280228.5911  -4034423.2568  -2458272.5059   5  11   8.1353   6.9684   5.3009  -5.4952   5.1937  -4.6841   0.00    0.0
2019/02/12 09:25:52.000   4280228.9001  -4034423.5737  -2458272.7179   5  11   8.1348   6.9665   5.3000  -5.4933   5.1922  -4.6827   0.00    0.0
2019/02/12 09:25:53.000   4280229.0303  -4034423.7253  -2458272.7241   5  11   8.1342   6.9647   5.2992  -5.4913   5.1908  -4.6812   0.00    0.0
2019/02/12 09:25:54.000   4280228.9505  -4034423.9745  -2458272.5904   5  11   8.1336   6.9629   5.2983  -5.4894   5.1893  -4.6798   0.00    0.0
2019/02/12 09:25:55.000   4280228.7292  -4034424.3063  -2458272.4754   5  11   8.1331   6.9610   5.2975  -5.4875   5.1879  -4.6784   0.00    0.0
2019/02/12 09:25:56.000   4280228.8069  -4034424.6658  -2458272.4413   5  11   8.1325   6.9592   5.2966  -5.4856   5.1864  -4.6770   0.00    0.0
2019/02/12 09:25:57.000   4280229.0780  -4034424.9168  -2458272.4677   5  11   8.1320   6.9574   5.2958  -5.4837   5.1850  -4.6755   0.00    0.0
2019/02/12 09:25:58.000   4280229.5354  -4034425.3790  -2458272.5695   5  11   8.1314   6.9555   5.2949  -5.4818   5.1835  -4.6741   0.00    0.0
2019/02/12 09:25:59.000   4280229.9461  -4034425.7263  -2458272.6266   5  11   8.1309   6.9537   5.2941  -5.4799   5.1821  -4.6727   0.00    0.0
2019/02/12 09:26:00.000   4280230.2759  -4034425.8766  -2458272.4678   5  11   8.1303   6.9519   5.2932  -5.4780   5.1806  -4.6713   0.00    0.0
2019/02/12 09:26:01.000   4280230.2029  -4034425.7285  -2458272.0316   5  11   8.1298   6.9500   5.2924  -5.4761   5.1792  -4.6698   0.00    0.0
2019/02/12 09:26:02.000   4280229.8411  -4034425.4648  -2458271.5906   5  11   8.1292   6.9482   5.2916  -5.4742   5.1777  -4.6684   0.00    0.0
2019/02/12 09:26:03.000   4280229.3829  -4034425.3167  -2458271.3414   5  11   8.1287   6.9464   5.2907  -5.4723   5.1763  -4.6670   0.00    0.0
2019/02/12 09:26:04.000   4280229.2740  -4034425.4800  -2458271.4001   5  11   8.1281   6.9445   5.2899  -5.4704   5.1748  -4.6656   0.00    0.0
2019/02/12 09:26:05.000   4280229.6988  -4034426.1848  -2458271.9043   5  11   8.1275   6.9427   5.2890  -5.4685   5.1734  -4.6641   0.00    0.0
2019/02/12 09:26:06.000   4280230.5168  -4034427.2453  -2458272.6467   5  11   8.1270   6.9409   5.2882  -5.4666   5.1719  -4.6627   0.00    0.0
2019/02/12 09:26:07.000   4280231.6611  -4034428.6815  -2458274.3441   5  10   8.3035   7.3834   6.6226  -5.8451   6.0658  -5.3413   0.00    0.0
2019/02/12 09:26:08.000   4280231.8908  -4034428.7636  -2458274.2137   5  10   8.3029   7.3816   6.6221  -5.8432   6.0646  -5.3400   0.00    0.0
2019/02/12 09:26:09.000   4280231.3545  -4034427.7658  -2458272.7644   5  11   8.1253   6.9354   5.2856  -5.4609   5.1676  -4.6584   0.00    0.0
2019/02/12 09:26:10.000   4280231.4238  -4034427.6230  -2458272.7168   5  11   8.1248   6.9336   5.2848  -5.4590   5.1662  -4.6570   0.00    0.0
2019/02/12 09:26:11.000   4280231.2638  -4034427.5324  -2458272.5828   5  11   8.1242   6.9318   5.2839  -5.4571   5.1647  -4.6556   0.00    0.0
2019/02/12 09:26:26.000   4280230.0857  -4034426.6686  -2458272.2700   5  11   8.1160   6.9045   5.2713  -5.4286   5.1431  -4.6342   0.00    0.0
2019/02/12 09:26:27.000   4280230.0765  -4034426.9267  -2458272.4342   5  11   8.1155   6.9027   5.2705  -5.4267   5.1417  -4.6327   0.00    0.0
2019/02/12 09:26:28.000   4280229.9684  -4034427.0647  -2458272.5526   5  11   8.1149   6.9009   5.2696  -5.4248   5.1403  -4.6313   0.00    0.0
2019/02/12 09:26:31.000   4280230.3104  -4034426.4082  -2458272.7711   5  11   8.1133   6.8955   5.2671  -5.4191   5.1360  -4.6270   0.00    0.0
2019/02/12 09:26:32.000   4280230.0977  -4034425.7177  -2458272.6704   5  11   8.1128   6.8937   5.2663  -5.4172   5.1345  -4.6256   0.00    0.0
2019/02/12 09:26:33.000   4280229.7333  -4034425.2203  -2458272.5666   5  11   8.1122   6.8919   5.2654  -5.4153   5.1331  -4.6242   0.00    0.0
2019/02/12 09:26:34.000   4280229.5180  -4034424.9703  -2458272.5036   5  11   8.1117   6.8901   5.2646  -5.4134   5.1317  -4.6227   0.00    0.0
2019/02/12 09:26:35.000   4280229.3780  -4034424.7948  -2458272.3856   5  11   8.1111   6.8883   5.2638  -5.4115   5.1302  -4.6213   0.00    0.0
2019/02/12 09:26:36.000   4280229.3546  -4034424.5652  -2458272.3356   5  11   8.1106   6.8865   5.2629  -5.4096   5.1288  -4.6199   0.00    0.0
2019/02/12 09:26:37.000   4280229.5282  -4034424.2050  -2458272.3580   5  11   8.1100   6.8846   5.2621  -5.4077   5.1274  -4.6185   0.00    0.0
2019/02/12 09:26:38.000   4280228.7866  -4034420.2211  -2458271.6473   5  10   8.2464   9.0088   5.4363  -6.1580   5.8506  -4.8337   0.00    0.0
2019/02/12 09:26:39.000   4280230.0880  -4034423.9839  -2458272.7376   5  11   8.1090   6.8810   5.2604  -5.4039   5.1245  -4.6156   0.00    0.0
2019/02/12 09:26:40.000   4280230.1837  -4034423.8231  -2458272.7296   5  11   8.1084   6.8792   5.2596  -5.4020   5.1231  -4.6142   0.00    0.0
2019/02/12 09:26:41.000   4280230.3328  -4034423.6360  -2458272.7780   5  11   8.1079   6.8774   5.2587  -5.4001   5.1216  -4.6127   0.00    0.0
2019/02/12 09:26:42.000   4280230.5571  -4034423.5261  -2458272.7389   5  11   8.1073   6.8756   5.2579  -5.3982   5.1202  -4.6113   0.00    0.0
2019/02/12 09:26:43.000   4280230.5468  -4034423.3185  -2458272.4990   5  11   8.1068   6.8738   5.2571  -5.3963   5.1188  -4.6099   0.00    0.0
2019/02/12 09:26:44.000   4280230.0243  -4034422.7824  -2458272.2528   5  11   8.1063   6.8720   5.2562  -5.3944   5.1174  -4.6085   0.00    0.0
2019/02/12 09:26:45.000   4280229.4516  -4034422.1417  -2458271.9692   5  11   8.1057   6.8703   5.2554  -5.3925   5.1159  -4.6070   0.00    0.0
2019/02/12 09:26:46.000   4280229.1772  -4034421.9530  -2458271.9223   5  11   8.1052   6.8685   5.2546  -5.3906   5.1145  -4.6056   0.00    0.0
2019/02/12 09:26:47.000   4280228.9229  -4034422.0027  -2458272.0424   5  11   8.1046   6.8667   5.2537  -5.3887   5.1131  -4.6042   0.00    0.0
2019/02/12 09:26:48.000   4280230.5017  -4034423.5403  -2458273.0601   5  10   8.8559   7.2954   5.5584  -6.1510   5.5332  -5.2606   0.00    0.0
2019/02/12 09:26:49.000   4280225.3823  -4034420.2284  -2458270.4832   5  11   8.1036   6.8631   5.2521  -5.3850   5.1102  -4.6013   0.00    0.0
2019/02/12 09:26:50.000   4280232.1018  -4034424.9547  -2458273.7191   5  11   8.1030   6.8613   5.2512  -5.3831   5.1088  -4.5999   0.00    0.0
2019/02/12 09:26:51.000   4280228.7156  -4034422.7568  -2458271.8640   5  11   8.1025   6.8595   5.2504  -5.3812   5.1074  -4.5985   0.00    0.0
2019/02/12 09:26:52.000   4280223.5249  -4034419.5418  -2458269.2695   5  11   8.1020   6.8577   5.2496  -5.3793   5.1059  -4.5970   0.00    0.0
2019/02/12 09:26:53.000   4280234.3788  -4034427.4010  -2458274.7896   5  11   8.1014   6.8559   5.2487  -5.3774   5.1045  -4.5956   0.00    0.0
2019/02/12 09:26:54.000   4280235.3708  -4034428.5323  -2458275.3652   5  11   8.1009   6.8541   5.2479  -5.3755   5.1031  -4.5942   0.00    0.0
2019/02/12 09:26:55.000   4280228.8039  -4034424.1687  -2458272.0504   5  11   8.1004   6.8523   5.2471  -5.3736   5.1017  -4.5928   0.00    0.0
2019/02/12 09:26:56.000   4280226.2073  -4034422.5397  -2458270.7112   5  11   8.0998   6.8505   5.2462  -5.3717   5.1002  -4.5913   0.00    0.0
2019/02/12 09:26:57.000   4280226.8511  -4034423.0943  -2458271.1088   5  11   8.0993   6.8488   5.2454  -5.3698   5.0988  -4.5899   0.00    0.0
2019/02/12 09:27:08.000   4280222.7822  -4034421.7825  -2458268.6526   5  11   8.0934   6.8291   5.2363  -5.3490   5.0832  -4.5742   0.00    0.0
2019/02/12 09:27:09.000   4280223.3437  -4034422.2609  -2458269.0330   5  11   8.0929   6.8274   5.2354  -5.3471   5.0818  -4.5728   0.00    0.0
2019/02/12 09:27:10.000   4280224.0110  -4034422.7917  -2458269.4256   5  11   8.0924   6.8256   5.2346  -5.3453   5.0804  -4.5713   0.00    0.0
2019/02/12 09:27:11.000   4280224.3966  -4034423.1960  -2458269.7440   5  11   8.0918   6.8238   5.2338  -5.3434   5.0789  -4.5699   0.00    0.0
2019/02/12 09:27:12.000   4280224.5264  -4034423.5781  -2458269.9359   5  11   8.0913   6.8220   5.2330  -5.3415   5.0775  -4.5685   0.00    0.0
2019/02/12 09:27:13.000   4280224.5667  -4034423.7476  -2458270.1452   5  11   8.0908   6.8203   5.2321  -5.3396   5.0761  -4.5671   0.00    0.0
2019/02/12 09:27:14.000   4280224.6319  -4034424.0140  -2458270.3284   5  11   8.0903   6.8185   5.2313  -5.3377   5.0747  -4.5656   0.00    0.0
2019/02/12 09:27:15.000   4280224.6880  -4034424.1446  -2458270.4086   5  11   8.0897   6.8167   5.2305  -5.3358   5.0733  -4.5642   0.00    0.0
2019/02/12 09:27:16.000   4280225.0081  -4034424.6517  -2458270.5345   5  11   8.0892   6.8149   5.2296  -5.3339   5.0719  -4.5628   0.00    0.0
2019/02/12 09:27:17.000   4280225.3686  -4034425.1086  -2458270.5891   5  11   8.0887   6.8132   5.2288  -5.3320   5.0705  -4.5613   0.00    0.0
2019/02/12 09:27:18.000   4280225.7893  -4034425.5059  -2458270.5988   5  11   8.0882   6.8114   5.2280  -5.3302   5.0690  -4.5599   0.00    0.0
2019/02/12 09:27:19.000   4280225.9374  -4034425.7024  -2458270.6153   5  11   8.0876   6.8096   5.2272  -5.3283   5.0676  -4.5585   0.00    0.0
2019/02/12 09:27:20.000   4280226.1176  -4034425.7437  -2458270.6820   5  11   8.0871   6.8078   5.2263  -5.3264   5.0662  -4.5571   0.00    0.0
2019/02/12 09:27:21.000   4280226.0007  -4034425.6686  -2458270.7474   5  11   8.0866   6.8061   5.2255  -5.3245   5.0648  -4.5556   0.00    0.0
2019/02/12 09:27:22.000   4280226.0544  -4034426.0230  -2458270.8501   5  11   8.0861   6.8043   5.2247  -5.3226   5.0634  -4.5542   0.00    0.0
2019/02/12 09:27:23.000   4280226.1457  -4034426.5233  -2458271.1504   5  11   8.0855   6.8025   5.2239  -5.3207   5.0620  -4.5528   0.00    0.0
2019/02/12 09:27:24.000   4280226.2096  -4034426.9017  -2458271.3508   5  11   8.0850   6.8008   5.2230  -5.3188   5.0606  -4.5513   0.00    0.0
2019/02/12 09:27:25.000   4280226.0056  -4034427.1074  -2458271.3635   5  11   8.0845   6.7990   5.2222  -5.3170   5.0592  -4.5499   0.00    0.0
2019/02/12 09:27:26.000   4280226.0752  -4034427.2597  -2458271.3227   5  11   8.0840   6.7972   5.2214  -5.3151   5.0578  -4.5485   0.00    0.0
2019/02/12 09:27:27.000   4280225.7680  -4034427.0533  -2458271.0562   5  11   8.0834   6.7955   5.2206  -5.3132   5.0563  -4.5471   0.00    0.0
2019/02/12 09:27:28.000   4280225.6825  -4034427.0823  -2458270.9266   5  11   8.0829   6.7937   5.2197  -5.3113   5.0549  -4.5456   0.00    0.0
2019/02/12 09:27:29.000   4280225.7183  -4034426.9092  -2458270.7957   5  11   8.0824   6.7919   5.2189  -5.3094   5.0535  -4.5442   0.00    0.0
2019/02/12 09:27:30.000   4280225.7714  -4034426.9074  -2458270.8193   5  11   8.0819   6.7902   5.2181  -5.3075   5.0521  -4.5428   0.00    0.0
2019/02/12 09:27:31.000   4280226.0276  -4034427.0243  -2458270.9030   5  11   8.0813   6.7884   5.2173  -5.3057   5.0507  -4.5413   0.00    0.0
2019/02/12 09:27:32.000   4280226.2451  -4034427.2009  -2458270.9844   5  11   8.0808   6.7867   5.2165  -5.3038   5.0493  -4.5399   0.00    0.0
2019/02/12 09:27:33.000   4280226.4025  -4034427.3935  -2458271.0966   5  11   8.0803   6.7849   5.2156  -5.3019   5.0479  -4.5385   0.00    0.0
2019/02/12 09:27:34.000   4280226.6709  -4034427.8996  -2458271.4635   5  11   8.0798   6.7831   5.2148  -5.3000   5.0465  -4.5371   0.00    0.0
2019/02/12 09:27:35.000   4280226.8433  -4034428.3010  -2458271.7489   5  11   8.0793   6.7814   5.2140  -5.2981   5.0451  -4.5356   0.00    0.0
2019/02/12 09:27:36.000   4280226.9077  -4034428.5517  -2458271.9011   5  11   8.0787   6.7796   5.2132  -5.2962   5.0437  -4.5342   0.00    0.0
2019/02/12 09:27:37.000   4280226.5988  -4034428.8965  -2458272.0585   5  11   8.0782   6.7779   5.2124  -5.2944   5.0423  -4.5328   0.00    0.0
2019/02/12 09:27:38.000   4280226.3841  -4034429.4416  -2458272.1946   5  11   8.0777   6.7761   5.2115  -5.2925   5.0409  -4.5313   0.00    0.0
2019/02/12 09:27:39.000   4280226.3286  -4034429.8082  -2458272.2013   5  11   8.0772   6.7744   5.2107  -5.2906   5.0395  -4.5299   0.00    0.0
2019/02/12 09:27:40.000   4280226.3114  -4034430.0879  -2458272.2649   5  11   8.0767   6.7726   5.2099  -5.2887   5.0381  -4.5285   0.00    0.0
2019/02/12 09:27:41.000   4280232.2272  -4034438.5326  -2458275.4136   5  10   8.7289   8.1376   5.5087  -6.5499   5.7842  -5.1410   0.00    0.0
2019/02/12 09:27:42.000   4280225.8102  -4034430.0263  -2458271.8297   5  11   8.0756   6.7691   5.2083  -5.2850   5.0353  -4.5256   0.00    0.0
2019/02/12 09:27:43.000   4280226.1664  -4034430.3060  -2458271.8526   5  11   8.0751   6.7673   5.2074  -5.2831   5.0338  -4.5242   0.00    0.0
2019/02/12 09:27:44.000   4280226.4801  -4034430.2987  -2458271.8641   5  11   8.0746   6.7656   5.2066  -5.2812   5.0324  -4.5228   0.00    0.0
2019/02/12 09:27:45.000   4280222.5704  -4034414.6569  -2458268.3584   5  10   8.1982   8.8375   5.3688  -5.9962   5.7253  -4.7232   0.00    0.0
2019/02/12 09:27:46.000   4280222.7910  -4034414.8984  -2458268.6726   5  10   8.1975   8.8350   5.3678  -5.9938   5.7234  -4.7215   0.00    0.0
2019/02/12 09:27:47.000   4280222.7352  -4034415.1869  -2458268.7409   5  10   8.1968   8.8324   5.3668  -5.9914   5.7216  -4.7199   0.00    0.0
2019/02/12 09:27:48.000   4280222.9093  -4034415.7152  -2458268.7825   5  10   8.1961   8.8299   5.3658  -5.9890   5.7197  -4.7182   0.00    0.0
2019/02/12 09:27:49.000   4280222.8508  -4034415.9538  -2458268.7005   5  10   8.1954   8.8274   5.3648  -5.9866   5.7179  -4.7166   0.00    0.0
2019/02/12 09:27:50.000   4280222.6977  -4034416.1349  -2458268.5892   5  10   8.1947   8.8249   5.3638  -5.9842   5.7160  -4.7149   0.00    0.0
2019/02/12 09:27:51.000   4280222.6279  -4034415.7334  -2458268.4621   5  10   8.1940   8.8224   5.3628  -5.9818   5.7142  -4.7133   0.00    0.0
2019/02/12 09:27:52.000   4280222.6513  -4034415.1342  -2458268.3683   5  10   8.1933   8.8199   5.3619  -5.9794   5.7124  -4.7116   0.00    0.0
2019/02/12 09:27:53.000   4280222.4692  -4034414.3638  -2458268.1660   5  10   8.1926   8.8174   5.3609  -5.9770   5.7105  -4.7100   0.00    0.0
2019/02/12 09:27:54.000   4280222.1800  -4034413.9528  -2458268.0453   5  10   8.1919   8.8149   5.3599  -5.9746   5.7087  -4.7084   0.00    0.0
2019/02/12 09:27:55.000   4280222.1386  -4034413.9528  -2458267.9038   5  10   8.1912   8.8124   5.3589  -5.9722   5.7068  -4.7067   0.00    0.0
2019/02/12 09:27:56.000   4280222.1223  -4034413.8687  -2458267.7425   5  10   8.1905   8.8099   5.3579  -5.9698   5.7050  -4.7051   0.00    0.0
2019/02/12 09:27:57.000   4280222.3437  -4034414.0331  -2458267.8107   5  10   8.1898   8.8074   5.3569  -5.9674   5.7032  -4.7034   0.00    0.0
2019/02/12 09:27:58.000   4280222.6586  -4034414.0514  -2458267.7596   5  10   8.1891   8.8049   5.3559  -5.9650   5.7013  -4.7018   0.00    0.0
2019/02/12 09:27:59.000   4280223.1054  -4034414.4275  -2458268.0202   5  10   8.1884   8.8024   5.3549  -5.9626   5.6995  -4.7001   0.00    0.0
2019/02/12 09:28:00.000   4280223.2188  -4034414.8456  -2458268.1400   5  10   8.1877   8.7999   5.3540  -5.9602   5.6976  -4.6985   0.00    0.0
2019/02/12 09:28:01.000   4280222.8587  -4034414.8371  -2458267.8746   5  10   8.1871   8.7974   5.3530  -5.9579   5.6958  -4.6969   0.00    0.0
2019/02/12 09:28:02.000   4280222.7792  -4034414.8453  -2458267.8183   5  10   8.1864   8.7949   5.3520  -5.9555   5.6940  -4.6952   0.00    0.0
2019/02/12 09:28:03.000   4280222.7790  -4034414.9655  -2458267.7405   5  10   8.1857   8.7924   5.3510  -5.9531   5.6921  -4.6936   0.00    0.0
2019/02/12 09:28:04.000   4280223.1216  -4034415.3665  -2458267.8688   5  10   8.1850   8.7899   5.3500  -5.9507   5.6903  -4.6919   0.00    0.0
2019/02/12 09:28:05.000   4280223.7801  -4034415.7732  -2458268.2165   5  10   8.1843   8.7874   5.3490  -5.9483   5.6885  -4.6903   0.00    0.0
2019/02/12 09:28:06.000   4280224.1225  -4034416.2706  -2458268.6574   5  10   8.1836   8.7849   5.3480  -5.9459   5.6866  -4.6886   0.00    0.0
2019/02/12 09:28:07.000   4280224.5639  -4034416.5596  -2458269.1496   5  10   8.1829   8.7824   5.3471  -5.9435   5.6848  -4.6870   0.00    0.0
2019/02/12 09:28:08.000   4280224.8536  -4034416.8820  -2458269.4816   5  10   8.1822   8.7799   5.3461  -5.9411   5.6830  -4.6854   0.00    0.0
2019/02/12 09:28:09.000   4280224.7907  -4034417.0054  -2458269.5134   5  10   8.1815   8.7774   5.3451  -5.9387   5.6811  -4.6837   0.00    0.0
2019/02/12 09:28:10.000   4280229.6165  -4034437.2048  -2458273.8530   5  11   8.0613   6.7203   5.1854  -5.2324   4.9962  -4.4856   0.00    0.0
2019/02/12 09:28:11.000   4280229.1143  -4034436.3191  -2458273.1533   5  11   8.0608   6.7186   5.1846  -5.2305   4.9948  -4.4842   0.00    0.0
2019/02/12 09:28:12.000   4280229.8627  -4034440.0163  -2458273.4266   5  11   8.0603   6.7169   5.1838  -5.2287   4.9934  -4.4828   0.00    0.0
2019/02/12 09:28:13.000   4280223.6227  -4034416.0274  -2458267.2709   5  10   8.1788   8.7675   5.3412  -5.9292   5.6738  -4.6772   0.00    0.0
2019/02/12 09:28:14.000   4280228.9077  -4034439.2064  -2458271.8791   5  11   8.0593   6.7134   5.1822  -5.2249   4.9906  -4.4799   0.00    0.0
2019/02/12 09:28:15.000   4280228.8155  -4034436.2231  -2458273.9813   5  10   8.2290   7.1618   6.5582  -5.6073   5.9109  -5.1722   0.00    0.0
2019/02/12 09:28:16.000   4280227.8849  -4034436.1579  -2458270.4976   5  11   8.0583   6.7099   5.1806  -5.2212   4.9878  -4.4771   0.00    0.0
2019/02/12 09:28:24.000   4280231.1707  -4034441.6119  -2458272.0526   5  11   8.0543   6.6962   5.1741  -5.2062   4.9767  -4.4656   0.00    0.0
2019/02/12 09:28:46.000   4280232.1532  -4034443.4429  -2458273.3854   5  11   8.0433   6.6585   5.1565  -5.1651   4.9464  -4.4342   0.00    0.0
2019/02/12 09:28:47.000   4280241.8454  -4034456.4539  -2458278.5645   5  10   8.6946   8.0075   5.4498  -6.4311   5.6846  -5.0481   0.00    0.0
2019/02/12 09:28:48.000   4280232.5482  -4034443.9301  -2458273.6523   5  11   8.0424   6.6551   5.1549  -5.1614   4.9437  -4.4313   0.00    0.0
2019/02/12 09:28:55.000   4280229.7180  -4034443.5427  -2458274.5952   5  11   8.0389   6.6432   5.1493  -5.1484   4.9341  -4.4213   0.00    0.0
2019/02/12 09:28:56.000   4280229.6033  -4034442.8851  -2458274.3575   5  11   8.0384   6.6415   5.1485  -5.1465   4.9327  -4.4199   0.00    0.0
2019/02/12 09:28:57.000   4280229.4905  -4034442.4804  -2458274.2446   5  11   8.0380   6.6398   5.1477  -5.1447   4.9313  -4.4185   0.00    0.0
2019/02/12 09:28:58.000   4280229.4074  -4034442.7604  -2458274.4406   5  11   8.0375   6.6381   5.1469  -5.1428   4.9300  -4.4171   0.00    0.0
2019/02/12 09:28:59.000   4280229.4598  -4034443.0540  -2458274.4522   5  11   8.0370   6.6364   5.1461  -5.1409   4.9286  -4.4156   0.00    0.0
2019/02/12 09:29:00.000   4280229.1440  -4034443.2500  -2458274.5581   5  11   8.0365   6.6347   5.1453  -5.1391   4.9272  -4.4142   0.00    0.0
2019/02/12 09:29:01.000   4280223.2868  -4034419.7828  -2458269.4107   5  10   8.1466   8.6498   5.2946  -5.8154   5.5870  -4.5986   0.00    0.0
2019/02/12 09:29:02.000   4280223.1085  -4034419.6177  -2458269.3808   5  10   8.1460   8.6473   5.2937  -5.8130   5.5852  -4.5970   0.00    0.0
2019/02/12 09:29:03.000   4280223.0465  -4034419.5660  -2458269.4522   5  10   8.1453   8.6449   5.2927  -5.8106   5.5834  -4.5954   0.00    0.0
2019/02/12 09:29:04.000   4280222.6888  -4034419.6518  -2458269.5556   5  10   8.1447   8.6425   5.2917  -5.8083   5.5816  -4.5937   0.00    0.0
2019/02/12 09:29:05.000   4280222.4453  -4034419.7033  -2458269.6493   5  10   8.1440   8.6401   5.2908  -5.8059   5.5798  -4.5921   0.00    0.0
2019/02/12 09:29:08.000   4280222.9335  -4034419.8614  -2458269.3470   5  10   8.1420   8.6328   5.2879  -5.7989   5.5744  -4.5872   0.00    0.0
2019/02/12 09:29:09.000   4280223.4435  -4034420.1317  -2458269.3058   5  10   8.1414   8.6304   5.2870  -5.7965   5.5726  -4.5856   0.00    0.0
2019/02/12 09:29:10.000   4280224.0233  -4034420.4801  -2458269.5386   5  10   8.1407   8.6280   5.2860  -5.7941   5.5709  -4.5839   0.00    0.0
2019/02/12 09:29:11.000   4280224.4725  -4034420.5977  -2458269.5760   5  10   8.1401   8.6256   5.2851  -5.7918   5.5691  -4.5823   0.00    0.0
2019/02/12 09:29:12.000   4280224.8033  -4034420.5968  -2458269.4202   5  10   8.1394   8.6232   5.2841  -5.7894   5.5673  -4.5807   0.00    0.0
2019/02/12 09:29:13.000   4280225.0811  -4034420.4997  -2458269.1419   5  10   8.1388   8.6208   5.2831  -5.7871   5.5655  -4.5791   0.00    0.0
2019/02/12 09:29:14.000   4280225.1802  -4034420.8193  -2458269.2605   5  10   8.1381   8.6184   5.2822  -5.7847   5.5637  -4.5774   0.00    0.0
2019/02/12 09:29:15.000   4280225.5445  -4034421.2317  -2458269.4857   5  10   8.1375   8.6160   5.2812  -5.7824   5.5619  -4.5758   0.00    0.0
2019/02/12 09:29:16.000   4280225.6515  -4034421.3531  -2458269.6283   5  10   8.1368   8.6136   5.2803  -5.7800   5.5601  -4.5742   0.00    0.0
2019/02/12 09:29:17.000   4280225.8408  -4034421.1966  -2458269.7526   5  10   8.1362   8.6111   5.2793  -5.7777   5.5584  -4.5725   0.00    0.0
2019/02/12 09:29:27.000   4280229.3556  -4034434.8303  -2458272.2616   5  11   8.0235   6.5893   5.1239  -5.0890   4.8905  -4.3756   0.00    0.0
2019/02/12 09:29:28.000   4280229.8505  -4034436.8759  -2458272.8225   5  11   8.0230   6.5876   5.1231  -5.0871   4.8891  -4.3742   0.00    0.0
2019/02/12 09:29:29.000   4280229.3705  -4034435.7965  -2458272.5048   5  11   8.0226   6.5860   5.1224  -5.0853   4.8878  -4.3728   0.00    0.0
2019/02/12 09:29:30.000   4280228.8698  -4034434.3092  -2458271.9978   5  11   8.0221   6.5843   5.1216  -5.0834   4.8864  -4.3714   0.00    0.0
2019/02/12 09:29:31.000   4280227.7352  -4034431.0399  -2458270.9383   5  11   8.0216   6.5826   5.1208  -5.0816   4.8851  -4.3699   0.00    0.0
2019/02/12 09:29:32.000   4280226.8198  -4034429.2677  -2458270.2911   5  11   8.0212   6.5810   5.1200  -5.0797   4.8837  -4.3685   0.00    0.0
2019/02/12 09:29:33.000   4280226.4219  -4034429.1850  -2458270.2050   5  11   8.0207   6.5793   5.1192  -5.0779   4.8824  -4.3671   0.00    0.0
2019/02/12 09:29:34.000   4280226.9190  -4034431.4952  -2458270.8526   5  11   8.0202   6.5776   5.1184  -5.0760   4.8810  -4.3656   0.00    0.0
2019/02/12 09:29:35.000   4280227.4718  -4034433.8354  -2458271.4021   5  11   8.0197   6.5760   5.1176  -5.0742   4.8797  -4.3642   0.00    0.0
2019/02/12 09:29:36.000   4280227.6903  -4034434.4307  -2458271.4819   5  11   8.0193   6.5743   5.1169  -5.0723   4.8783  -4.3628   0.00    0.0
2019/02/12 09:29:37.000   4280227.9654  -4034434.5168  -2458271.4373   5  11   8.0188   6.5726   5.1161  -5.0705   4.8770  -4.3614   0.00    0.0
2019/02/12 09:29:38.000   4280228.1486  -4034434.5487  -2458271.5195   5  11   8.0183   6.5710   5.1153  -5.0686   4.8756  -4.3599   0.00    0.0
2019/02/12 09:29:39.000   4280228.2562  -4034434.8507  -2458271.8070   5  11   8.0179   6.5693   5.1145  -5.0668   4.8743  -4.3585   0.00    0.0
2019/02/12 09:29:40.000   4280228.5499  -4034435.1307  -2458272.0574   5  11   8.0174   6.5676   5.1137  -5.0649   4.8729  -4.3571   0.00    0.0
2019/02/12 09:29:41.000   4280228.4948  -4034435.5541  -2458272.2358   5  11   8.0169   6.5660   5.1129  -5.0631   4.8716  -4.3557   0.00    0.0
2019/02/12 09:29:42.000   4280227.9560  -4034435.6606  -2458272.2973   5  11   8.0164   6.5643   5.1122  -5.0612   4.8702  -4.3542   0.00    0.0
2019/02/12 09:29:43.000   4280227.5542  -4034435.7090  -2458272.3652   5  11   8.0160   6.5627   5.1114  -5.0594   4.8689  -4.3528   0.00    0.0
2019/02/12 09:29:44.000   4280227.9103  -4034435.7735  -2458272.5764   5  11   8.0155   6.5610   5.1106  -5.0575   4.8675  -4.3514   0.00    0.0
2019/02/12 09:29:45.000   4280228.0691  -4034435.8368  -2458272.7460   5  11   8.0150   6.5593   5.1098  -5.0557   4.8662  -4.3499   0.00    0.0
2019/02/12 09:29:46.000   4280228.1082  -4034435.8811  -2458272.8126   5  11   8.0146   6.5577   5.1090  -5.0538   4.8649  -4.3485   0.00    0.0
2019/02/12 09:29:47.000   4280228.2394  -4034436.1288  -2458272.9787   5  11   8.0141   6.5560   5.1082  -5.0520   4.8635  -4.3471   0.00    0.0
2019/02/12 09:29:48.000   4280228.5023  -4034436.2851  -2458273.0061   5  11   8.0136   6.5544   5.1075  -5.0501   4.8622  -4.3457   0.00    0.0
2019/02/12 09:29:49.000   4280228.5190  -4034436.2438  -2458272.8315   5  11   8.0132   6.5527   5.1067  -5.0483   4.8608  -4.3442   0.00    0.0
2019/02/12 09:29:50.000   4280228.6054  -4034436.2064  -2458272.6950   5  11   8.0127   6.5511   5.1059  -5.0464   4.8595  -4.3428   0.00    0.0
2019/02/12 09:29:51.000   4280228.7827  -4034436.2460  -2458272.7394   5  11   8.0122   6.5494   5.1051  -5.0446   4.8581  -4.3414   0.00    0.0
2019/02/12 09:29:52.000   4280229.2847  -4034436.4496  -2458272.9550   5  11   8.0118   6.5477   5.1043  -5.0427   4.8568  -4.3399   0.00    0.0
2019/02/12 09:29:53.000   4280229.5058  -4034436.1783  -2458272.8097   5  11   8.0113   6.5461   5.1036  -5.0409   4.8555  -4.3385   0.00    0.0
2019/02/12 09:29:54.000   4280229.4457  -4034435.6650  -2458272.5078   5  11   8.0109   6.5444   5.1028  -5.0390   4.8541  -4.3371   0.00    0.0
2019/02/12 09:29:55.000   4280229.5569  -4034435.5909  -2458272.4807   5  11   8.0104   6.5428   5.1020  -5.0372   4.8528  -4.3357   0.00    0.0
2019/02/12 09:29:56.000   4280229.6620  -4034435.9358  -2458272.6838   5  11   8.0099   6.5411   5.1012  -5.0354   4.8514  -4.3342   0.00    0.0
2019/02/12 09:29:57.000   4280229.6328  -4034436.4880  -2458272.9838   5  11   8.0095   6.5395   5.1005  -5.0335   4.8501  -4.3328   0.00    0.0
2019/02/12 09:29:58.000   4280229.6958  -4034437.0631  -2458273.2341   5  11   8.0090   6.5378   5.0997  -5.0317   4.8487  -4.3314   0.00    0.0
2019/02/12 09:29:59.000   4280229.8108  -4034437.5957  -2458273.4780   5  11   8.0085   6.5362   5.0989  -5.0298   4.8474  -4.3300   0.00    0.0
2019/02/12 09:30:00.000   4280230.0574  -4034437.6233  -2458273.6253   5  11   8.0081   6.5346   5.0981  -5.0280   4.8461  -4.3285   0.00    0.0
2019/02/12 09:30:01.000   4280229.8082  -4034437.3863  -2458273.5177   5  11   8.0076   6.5329   5.0973  -5.0261   4.8447  -4.3271   0.00    0.0
2019/02/12 09:30:02.000   4280229.3037  -4034436.8597  -2458273.3027   5  11   8.0072   6.5313   5.0966  -5.0243   4.8434  -4.3257   0.00    0.0
2019/02/12 09:30:03.000   4280228.7072  -4034436.2409  -2458273.0391   5  11   8.0067   6.5296   5.0958  -5.0225   4.8421  -4.3242   0.00    0.0
2019/02/12 09:30:04.000   4280225.1502  -4034421.7354  -2458269.9188   5  10   8.1065   8.4995   5.2351  -5.6677   5.4754  -4.4962   0.00    0.0
2019/02/12 09:30:05.000   4280225.0477  -4034421.7854  -2458270.0280   5  10   8.1058   8.4972   5.2342  -5.6654   5.4737  -4.4945   0.00    0.0
2019/02/12 09:30:06.000   4280225.2640  -4034421.8177  -2458270.0369   5  10   8.1052   8.4948   5.2333  -5.6631   5.4719  -4.4929   0.00    0.0
2019/02/12 09:30:07.000   4280225.6178  -4034421.8877  -2458269.8880   5  10   8.1046   8.4925   5.2323  -5.6608   5.4702  -4.4913   0.00    0.0
2019/02/12 09:30:08.000   4280226.0532  -4034422.2639  -2458269.9175   5  10   8.1040   8.4901   5.2314  -5.6584   5.4685  -4.4897   0.00    0.0
2019/02/12 09:30:09.000   4280226.0888  -4034422.2800  -2458270.0006   5  10   8.1034   8.4878   5.2305  -5.6561   5.4667  -4.4881   0.00    0.0
2019/02/12 09:30:10.000   4280225.5198  -4034422.1478  -2458270.1525   5  10   8.1028   8.4854   5.2295  -5.6538   5.4650  -4.4864   0.00    0.0
2019/02/12 09:30:11.000   4280224.7213  -4034422.0187  -2458270.4198   5  10   8.1021   8.4831   5.2286  -5.6515   5.4632  -4.4848   0.00    0.0
2019/02/12 09:30:12.000   4280223.8137  -4034421.5160  -2458270.4107   5  10   8.1015   8.4808   5.2277  -5.6492   5.4615  -4.4832   0.00    0.0
2019/02/12 09:30:13.000   4280223.1986  -4034421.0517  -2458270.4333   5  10   8.1009   8.4784   5.2268  -5.6468   5.4597  -4.4816   0.00    0.0
2019/02/12 09:30:14.000   4280223.1175  -4034420.8691  -2458270.3048   5  10   8.1003   8.4761   5.2258  -5.6445   5.4580  -4.4800   0.00    0.0
2019/02/12 09:30:15.000   4280223.0498  -4034420.7958  -2458270.1122   5  10   8.0997   8.4738   5.2249  -5.6422   5.4563  -4.4783   0.00    0.0
2019/02/12 09:30:16.000   4280223.2010  -4034420.7641  -2458269.9383   5  10   8.0991   8.4714   5.2240  -5.6399   5.4545  -4.4767   0.00    0.0
2019/02/12 09:30:17.000   4280223.3893  -4034420.9236  -2458269.8697   5  10   8.0985   8.4691   5.2231  -5.6375   5.4528  -4.4751   0.00    0.0
2019/02/12 09:30:18.000   4280223.7574  -4034421.0274  -2458269.7153   5  10   8.0979   8.4668   5.2221  -5.6352   5.4511  -4.4735   0.00    0.0
2019/02/12 09:30:19.000   4280224.4205  -4034421.5238  -2458269.4363   5  10   8.0973   8.4644   5.2212  -5.6329   5.4493  -4.4719   0.00    0.0
2019/02/12 09:30:20.000   4280225.0078  -4034421.6460  -2458269.4563   5  10   8.0966   8.4621   5.2203  -5.6306   5.4476  -4.4702   0.00    0.0
2019/02/12 09:30:21.000   4280225.3550  -4034421.8696  -2458269.6117   5  10   8.0960   8.4598   5.2194  -5.6283   5.4458  -4.4686   0.00    0.0
2019/02/12 09:30:22.000   4280225.2639  -4034422.0698  -2458269.8794   5  10   8.0954   8.4574   5.2184  -5.6260   5.4441  -4.4670   0.00    0.0
2019/02/12 09:30:23.000   4280224.8671  -4034422.1259  -2458269.8992   5  10   8.0948   8.4551   5.2175  -5.6236   5.4424  -4.4654   0.00    0.0
2019/02/12 09:30:24.000   4280224.4134  -4034422.1321  -2458269.7032   5  10   8.0942   8.4528   5.2166  -5.6213   5.4406  -4.4638   0.00    0.0
2019/02/12 09:30:25.000   4280224.6863  -4034422.3270  -2458269.6356   5  10   8.0936   8.4505   5.2157  -5.6190   5.4389  -4.4622   0.00    0.0
2019/02/12 09:30:26.000   4280225.2812  -4034422.6215  -2458269.7726   5  10   8.0930   8.4482   5.2148  -5.6167   5.4372  -4.4605   0.00    0.0
2019/02/12 09:30:27.000   4280225.8554  -4034422.9217  -2458269.9782   5  10   8.0924   8.4458   5.2138  -5.6144   5.4354  -4.4589   0.00    0.0
2019/02/12 09:30:28.000   4280226.5561  -4034423.4485  -2458270.4430   5  10   8.0918   8.4435   5.2129  -5.6121   5.4337  -4.4573   0.00    0.0
2019/02/12 09:30:29.000   4280226.7969  -4034423.8603  -2458270.8423   5  10   8.0912   8.4412   5.2120  -5.6097   5.4320  -4.4557   0.00    0.0
2019/02/12 09:30:30.000   4280226.6637  -4034423.9925  -2458270.9574   5  10   8.0906   8.4389   5.2111  -5.6074   5.4303  -4.4541   0.00    0.0
2019/02/12 09:30:31.000   4280226.6750  -4034424.3425  -2458271.1918   5  10   8.0900   8.4366   5.2102  -5.6051   5.4285  -4.4525   0.00    0.0
2019/02/12 09:30:32.000   4280226.6016  -4034424.5323  -2458271.2478   5  10   8.0894   8.4343   5.2092  -5.6028   5.4268  -4.4508   0.00    0.0
2019/02/12 09:30:33.000   4280226.3892  -4034424.7520  -2458271.2998   5  10   8.0888   8.4319   5.2083  -5.6005   5.4251  -4.4492   0.00    0.0
2019/02/12 09:30:34.000   4280226.3161  -4034424.9026  -2458271.2304   5  10   8.0882   8.4296   5.2074  -5.5982   5.4233  -4.4476   0.00    0.0
2019/02/12 09:30:35.000   4280226.1508  -4034424.5983  -2458271.1194   5  10   8.0876   8.4273   5.2065  -5.5959   5.4216  -4.4460   0.00    0.0
2019/02/12 09:30:36.000   4280225.6698  -4034424.3781  -2458271.0420   5  10   8.0870   8.4250   5.2056  -5.5936   5.4199  -4.4444   0.00    0.0
2019/02/12 09:30:37.000   4280225.5623  -4034424.3465  -2458271.0425   5  10   8.0864   8.4227   5.2047  -5.5913   5.4182  -4.4428   0.00    0.0
2019/02/12 09:30:38.000   4280225.6734  -4034424.3604  -2458271.0746   5  10   8.0858   8.4204   5.2038  -5.5889   5.4165  -4.4412   0.00    0.0
2019/02/12 09:30:39.000   4280225.7499  -4034424.3619  -2458271.1533   5  10   8.0852   8.4181   5.2028  -5.5866   5.4147  -4.4395   0.00    0.0
2019/02/12 09:30:40.000   4280226.0806  -4034424.3428  -2458271.1901   5  10   8.0846   8.4158   5.2019  -5.5843   5.4130  -4.4379   0.00    0.0
2019/02/12 09:30:41.000   4280226.3620  -4034424.2767  -2458271.1978   5  10   8.0840   8.4135   5.2010  -5.5820   5.4113  -4.4363   0.00    0.0
2019/02/12 09:30:42.000   4280226.7700  -4034424.2752  -2458271.2145   5  10   8.0834   8.4112   5.2001  -5.5797   5.4096  -4.4347   0.00    0.0
2019/02/12 09:30:43.000   4280227.0757  -4034424.3664  -2458271.2037   5  10   8.0828   8.4089   5.1992  -5.5774   5.4078  -4.4331   0.00    0.0
2019/02/12 09:30:44.000   4280227.0765  -4034424.3633  -2458271.1513   5  10   8.0822   8.4066   5.1983  -5.5751   5.4061  -4.4315   0.00    0.0
2019/02/12 09:30:45.000   4280227.1528  -4034424.7863  -2458271.2417   5  10   8.0816   8.4043   5.1974  -5.5728   5.4044  -4.4299   0.00    0.0
2019/02/12 09:30:46.000   4280227.2094  -4034425.1004  -2458271.3383   5  10   8.0810   8.4020   5.1965  -5.5705   5.4027  -4.4282   0.00    0.0
2019/02/12 09:30:47.000   4280227.4426  -4034425.2126  -2458271.3726   5  10   8.0804   8.3997   5.1955  -5.5682   5.4010  -4.4266   0.00    0.0
2019/02/12 09:30:48.000   4280227.8716  -4034425.1998  -2458271.3548   5  10   8.0798   8.3974   5.1946  -5.5659   5.3993  -4.4250   0.00    0.0
2019/02/12 09:30:49.000   4280228.3683  -4034425.7281  -2458271.4554   5  10   8.0793   8.3951   5.1937  -5.5636   5.3975  -4.4234   0.00    0.0
2019/02/12 09:30:50.000   4280228.3250  -4034426.1544  -2458271.4945   5  10   8.0787   8.3928   5.1928  -5.5613   5.3958  -4.4218   0.00    0.0
2019/02/12 09:30:51.000   4280228.3695  -4034426.4610  -2458271.5283   5  10   8.0781   8.3905   5.1919  -5.5590   5.3941  -4.4202   0.00    0.0
2019/02/12 09:30:52.000   4280228.6505  -4034426.6301  -2458271.5657   5  10   8.0775   8.3882   5.1910  -5.5567   5.3924  -4.4186   0.00    0.0
2019/02/12 09:30:53.000   4280228.7508  -4034426.8974  -2458271.7524   5  10   8.0769   8.3859   5.1901  -5.5544   5.3907  -4.4169   0.00    0.0
2019/02/12 09:30:54.000   4280228.5862  -4034426.9011  -2458271.8645   5  10   8.0763   8.3837   5.1892  -5.5521   5.3890  -4.4153   0.00    0.0
2019/02/12 09:30:55.000   4280228.2727  -4034426.6925  -2458271.9509   5  10   8.0757   8.3814   5.1883  -5.5498   5.3873  -4.4137   0.00    0.0
2019/02/12 09:30:56.000   4280228.2776  -4034426.3504  -2458271.9313   5  10   8.0751   8.3791   5.1874  -5.5475   5.3856  -4.4121   0.00    0.0
2019/02/12 09:30:57.000   4280228.5397  -4034425.8989  -2458271.7666   5  10   8.0745   8.3768   5.1865  -5.5452   5.3839  -4.4105   0.00    0.0
2019/02/12 09:30:58.000   4280228.7055  -4034425.8120  -2458271.8350   5  10   8.0740   8.3745   5.1856  -5.5429   5.3821  -4.4089   0.00    0.0
2019/02/12 09:30:59.000   4280228.8923  -4034425.8905  -2458271.8862   5  10   8.0734   8.3722   5.1847  -5.5406   5.3804  -4.4073   0.00    0.0
2019/02/12 09:31:00.000   4280229.2216  -4034425.9045  -2458271.9818   5  10   8.0728   8.3700   5.1837  -5.5383   5.3787  -4.4057   0.00    0.0
2019/02/12 09:31:01.000   4280229.5324  -4034425.8841  -2458272.0263   5  10   8.0722   8.3677   5.1828  -5.5360   5.3770  -4.4041   0.00    0.0
2019/02/12 09:31:06.000   4280228.7420  -4034424.8960  -2458271.7066   5  10   8.0693   8.3563   5.1783  -5.5245   5.3685  -4.3960   0.00    0.0
2019/02/12 09:31:07.000   4280228.5726  -4034424.3908  -2458271.4791   5  10   8.0687   8.3540   5.1774  -5.5222   5.3668  -4.3944   0.00    0.0
2019/02/12 09:31:14.000   4280229.8388  -4034425.4092  -2458272.2407   5  10   8.0647   8.3382   5.1711  -5.5062   5.3549  -4.3831   0.00    0.0
2019/02/12 09:31:15.000   4280229.6899  -4034425.4169  -2458272.1310   5  10   8.0641   8.3359   5.1702  -5.5039   5.3532  -4.3815   0.00    0.0
2019/02/12 09:31:16.000   4280229.5469  -4034425.1334  -2458271.7710   5  10   8.0635   8.3336   5.1693  -5.5016   5.3515  -4.3799   0.00    0.0
2019/02/12 09:31:17.000   4280229.2454  -4034424.6957  -2458271.3722   5  10   8.0629   8.3314   5.1684  -5.4993   5.3498  -4.3783   0.00    0.0
2019/02/12 09:31:18.000   4280229.0174  -4034424.1734  -2458271.0333   5  10   8.0624   8.3291   5.1675  -5.4970   5.3481  -4.3767   0.00    0.0
2019/02/12 09:31:19.000   4280228.6087  -4034423.6510  -2458270.8105   5  10   8.0618   8.3269   5.1667  -5.4947   5.3464  -4.3751   0.00    0.0
2019/02/12 09:31:20.000   4280228.6321  -4034423.1609  -2458270.5005   5  10   8.0612   8.3246   5.1658  -5.4924   5.3447  -4.3735   0.00    0.0
2019/02/12 09:31:21.000   4280229.1609  -4034423.1886  -2458270.6726   5  10   8.0607   8.3223   5.1649  -5.4902   5.3431  -4.3719   0.00    0.0
2019/02/12 09:31:22.000   4280229.7936  -4034423.7449  -2458270.8951   5  10   8.0601   8.3201   5.1640  -5.4879   5.3414  -4.3703   0.00    0.0
2019/02/12 09:31:23.000   4280230.1370  -4034424.1715  -2458271.2082   5  10   8.0595   8.3178   5.1631  -5.4856   5.3397  -4.3687   0.00    0.0
