% program   : RTKPOST ver.2.4.2
% inp file  : D:\Google Drive\UERJ\_Projeto Final\Python\tcc-guilherme\20190211_Sta91500.19o
% inp file  : D:\Google Drive\UERJ\_Projeto Final\20190211_Marco91500 IBGE\brdm0420.19p
% obs start : 2019/02/11 08:56:22.0 GPST (week2040 118582.0s)
% obs end   : 2019/02/11 10:26:05.0 GPST (week2040 123965.0s)
% pos mode  : single
% elev mask : 15.0 deg
% ionos opt : broadcast
% tropo opt : saastamoinen
% ephemeris : broadcast
% navi sys  : gps glonass
%
% (x/y/z-ecef=WGS84,Q=1:fix,2:float,3:sbas,4:dgps,5:single,6:ppp,ns=# of satellites)
%  GPST                      x-ecef(m)      y-ecef(m)      z-ecef(m)   Q  ns   sdx(m)   sdy(m)   sdz(m)  sdxy(m)  sdyz(m)  sdzx(m) age(s)  ratio
2019/02/11 08:56:35.000   4280222.4312  -4034414.8688  -2458255.1448   5  12   4.8099   6.1619   3.8119  -5.0264   4.4076  -3.7999   0.00    0.0
2019/02/11 08:56:42.000   4280228.4380  -4034422.7982  -2458258.1525   5  12   4.8097   6.1595   3.8110  -5.0249   4.4061  -3.7989   0.00    0.0
2019/02/11 08:56:43.000   4280230.1957  -4034418.4820  -2458263.2090   5  12   4.8097   6.1592   3.8108  -5.0247   4.4059  -3.7987   0.00    0.0
2019/02/11 08:56:51.000   4280219.0571  -4034411.7614  -2458251.7149   5  12   4.8094   6.1565   3.8098  -5.0230   4.4041  -3.7975   0.00    0.0
2019/02/11 08:56:56.000   4280220.4834  -4034414.1517  -2458255.9082   5  12   4.8091   6.1547   3.8090  -5.0218   4.4029  -3.7966   0.00    0.0
2019/02/11 08:56:57.000   4280219.2996  -4034406.6284  -2458263.5104   5  12   4.8091   6.1543   3.8089  -5.0215   4.4026  -3.7964   0.00    0.0
2019/02/11 08:57:00.000   4280218.1740  -4034422.0746  -2458265.2097   5  12   4.8089   6.1532   3.8084  -5.0208   4.4019  -3.7959   0.00    0.0
2019/02/11 08:57:02.000   4280231.1841  -4034423.2408  -2458270.2990   5  12   4.8088   6.1525   3.8081  -5.0203   4.4014  -3.7956   0.00    0.0
2019/02/11 08:57:03.000   4280226.7612  -4034423.9229  -2458269.5614   5  12   4.8087   6.1521   3.8080  -5.0201   4.4011  -3.7954   0.00    0.0
2019/02/11 08:57:05.000   4280211.6891  -4034407.7133  -2458265.0185   5  12   4.8086   6.1514   3.8077  -5.0196   4.4006  -3.7950   0.00    0.0
2019/02/11 08:57:17.000   4280214.3517  -4034399.6756  -2458263.3535   5  12   4.8078   6.1468   3.8058  -5.0165   4.3975  -3.7928   0.00    0.0
2019/02/11 08:57:20.000   4280234.3222  -4034413.7926  -2458268.2024   5  12   4.8075   6.1456   3.8053  -5.0156   4.3967  -3.7921   0.00    0.0
2019/02/11 08:57:22.000   4280207.9116  -4034395.6265  -2458258.9612   5  12   4.8074   6.1448   3.8049  -5.0151   4.3961  -3.7917   0.00    0.0
2019/02/11 08:57:26.000   4280211.7861  -4034392.3315  -2458259.5119   5  12   4.8071   6.1432   3.8042  -5.0140   4.3950  -3.7909   0.00    0.0
2019/02/11 08:57:27.000   4280219.6350  -4034397.6275  -2458255.1300   5  12   4.8070   6.1428   3.8040  -5.0137   4.3947  -3.7907   0.00    0.0
2019/02/11 08:57:30.000   4280223.2447  -4034412.8930  -2458273.3194   5  11   4.8373   6.2958   4.1449  -5.0873   4.6462  -3.9063   0.00    0.0
2019/02/11 08:57:36.000   4280222.5544  -4034410.3599  -2458272.2348   5  11   4.8357   6.2907   4.1409  -5.0836   4.6413  -3.9026   0.00    0.0
2019/02/11 08:57:37.000   4280211.3203  -4034401.2520  -2458267.1634   5  11   4.8354   6.2899   4.1403  -5.0830   4.6405  -3.9019   0.00    0.0
2019/02/11 08:57:42.000   4280231.1675  -4034430.2560  -2458273.9849   5  11   4.8340   6.2856   4.1369  -5.0800   4.6364  -3.8988   0.00    0.0
2019/02/11 08:57:43.000   4280222.8395  -4034422.8725  -2458276.6375   5  11   4.8337   6.2848   4.1362  -5.0793   4.6356  -3.8981   0.00    0.0
2019/02/11 08:57:47.000   4280233.2824  -4034434.6899  -2458276.2318   5  11   4.8326   6.2813   4.1335  -5.0769   4.6323  -3.8956   0.00    0.0
2019/02/11 08:57:52.000   4280214.2801  -4034423.5366  -2458264.1965   5  11   4.8312   6.2770   4.1302  -5.0737   4.6281  -3.8924   0.00    0.0
2019/02/11 08:57:54.000   4280219.4911  -4034425.7080  -2458275.8991   5  11   4.8306   6.2753   4.1288  -5.0725   4.6264  -3.8911   0.00    0.0
2019/02/11 08:57:55.000   4280196.1199  -4034400.3712  -2458253.1632   5  11   4.8304   6.2745   4.1281  -5.0719   4.6256  -3.8904   0.00    0.0
2019/02/11 08:57:56.000   4280222.1350  -4034428.9090  -2458271.1224   5  12   4.8039   6.1302   3.7985  -5.0047   4.3858  -3.7840   0.00    0.0
2019/02/11 08:58:04.000   4280228.6109  -4034427.7050  -2458267.8720   5  11   4.8277   6.2666   4.1220  -5.0661   4.6180  -3.8846   0.00    0.0
2019/02/11 08:58:25.000   4280205.6428  -4034403.0811  -2458255.8779   5  11   4.8215   6.2480   4.1074  -5.0525   4.6001  -3.8707   0.00    0.0
2019/02/11 08:58:27.000   4280240.5733  -4034437.1644  -2458279.5526   5  11   4.8208   6.2462   4.1060  -5.0512   4.5983  -3.8693   0.00    0.0
2019/02/11 08:58:36.000   4280213.1742  -4034425.9556  -2458279.3878   5  11   4.8180   6.2380   4.0997  -5.0452   4.5905  -3.8632   0.00    0.0
2019/02/11 08:58:41.000   4280206.4402  -4034408.3775  -2458265.6759   5  12   4.7971   6.1081   3.7883  -4.9883   4.3696  -3.7716   0.00    0.0
2019/02/11 08:58:46.000   4280220.8100  -4034428.0926  -2458284.5142   5  12   4.7962   6.1054   3.7870  -4.9863   4.3677  -3.7701   0.00    0.0
2019/02/11 08:58:57.000   4280223.3278  -4034418.7783  -2458264.9516   5  11   4.8113   6.2188   4.0848  -5.0309   4.5720  -3.8487   0.00    0.0
2019/02/11 08:59:01.000   4280226.4248  -4034425.5127  -2458265.1715   5  11   4.8100   6.2151   4.0819  -5.0282   4.5684  -3.8460   0.00    0.0
2019/02/11 08:59:02.000   4280218.0311  -4034407.8209  -2458252.6444   5  11   4.8096   6.2141   4.0812  -5.0275   4.5675  -3.8453   0.00    0.0
2019/02/11 08:59:09.000   4280229.5531  -4034431.3282  -2458268.3814   5  11   4.8073   6.2076   4.0762  -5.0226   4.5612  -3.8403   0.00    0.0
2019/02/11 08:59:11.000   4280217.4921  -4034411.7079  -2458259.2954   5  11   4.8066   6.2057   4.0747  -5.0212   4.5594  -3.8389   0.00    0.0
2019/02/11 08:59:17.000   4280221.0145  -4034423.9124  -2458261.7357   5  11   4.8046   6.2001   4.0704  -5.0170   4.5540  -3.8347   0.00    0.0
2019/02/11 08:59:18.000   4280221.8642  -4034421.2638  -2458265.2175   5  11   4.8043   6.1991   4.0696  -5.0163   4.5531  -3.8340   0.00    0.0
2019/02/11 08:59:19.000   4280227.7305  -4034436.5857  -2458277.4568   5  11   4.8039   6.1982   4.0689  -5.0156   4.5522  -3.8332   0.00    0.0
2019/02/11 08:59:22.000   4280216.9042  -4034413.5478  -2458260.2880   5  11   4.8029   6.1953   4.0667  -5.0135   4.5494  -3.8311   0.00    0.0
2019/02/11 08:59:23.000   4280212.0203  -4034410.3933  -2458258.1586   5  11   4.8025   6.1944   4.0660  -5.0128   4.5485  -3.8304   0.00    0.0
2019/02/11 08:59:28.000   4280218.7936  -4034410.7392  -2458254.2947   5  11   4.8008   6.1896   4.0624  -5.0092   4.5440  -3.8268   0.00    0.0
2019/02/11 08:59:32.000   4280215.7761  -4034403.2331  -2458249.5048   5  11   4.7994   6.1858   4.0594  -5.0064   4.5403  -3.8239   0.00    0.0
2019/02/11 08:59:34.000   4280220.1093  -4034419.1259  -2458264.8677   5  11   4.7987   6.1839   4.0580  -5.0049   4.5384  -3.8225   0.00    0.0
2019/02/11 08:59:35.000   4280216.4426  -4034404.9608  -2458250.9308   5  11   4.7984   6.1829   4.0572  -5.0042   4.5375  -3.8217   0.00    0.0
2019/02/11 08:59:39.000   4280223.7104  -4034413.7972  -2458259.8725   5  11   4.7970   6.1791   4.0543  -5.0013   4.5338  -3.8188   0.00    0.0
2019/02/11 08:59:44.000   4280207.6162  -4034421.0212  -2458264.7312   5  11   4.7952   6.1743   4.0506  -4.9977   4.5292  -3.8152   0.00    0.0
2019/02/11 08:59:47.000   4280216.7177  -4034420.4345  -2458274.7490   5  11   4.7941   6.1713   4.0484  -4.9955   4.5264  -3.8130   0.00    0.0
2019/02/11 08:59:48.000   4280224.0229  -4034432.9773  -2458276.5688   5  11   4.7938   6.1704   4.0476  -4.9948   4.5255  -3.8123   0.00    0.0
2019/02/11 08:59:52.000   4280220.2769  -4034407.6115  -2458261.4733   5  11   4.7923   6.1665   4.0447  -4.9918   4.5218  -3.8093   0.00    0.0
2019/02/11 08:59:55.000   4280224.3306  -4034426.0439  -2458273.8502   5  11   4.7912   6.1636   4.0425  -4.9896   4.5190  -3.8071   0.00    0.0
2019/02/11 08:59:57.000   4280211.3510  -4034402.2528  -2458260.5677   5  11   4.7905   6.1616   4.0410  -4.9882   4.5171  -3.8056   0.00    0.0
2019/02/11 08:59:58.000   4280214.4833  -4034408.5769  -2458259.3872   5  11   4.7901   6.1606   4.0402  -4.9874   4.5162  -3.8049   0.00    0.0
2019/02/11 09:00:00.000   4280219.3196  -4034404.4591  -2458266.4782   5  11   4.7894   6.1587   4.0387  -4.9859   4.5143  -3.8034   0.00    0.0
2019/02/11 09:00:01.000   4280217.8724  -4034403.2967  -2458271.9339   5  11   4.7890   6.1577   4.0380  -4.9852   4.5133  -3.8027   0.00    0.0
2019/02/11 09:00:09.000   4280237.6421  -4034424.9429  -2458282.0014   5  11   4.7861   6.1498   4.0320  -4.9793   4.5058  -3.7967   0.00    0.0
2019/02/11 09:00:12.000   4280236.1475  -4034423.6216  -2458274.3180   5  11   4.7850   6.1469   4.0298  -4.9770   4.5030  -3.7945   0.00    0.0
2019/02/11 09:00:13.000   4280223.4009  -4034396.9221  -2458260.8315   5  11   4.7846   6.1459   4.0290  -4.9763   4.5020  -3.7937   0.00    0.0
2019/02/11 09:00:19.000   4280207.5968  -4034393.9862  -2458252.9379   5  11   4.7824   6.1399   4.0245  -4.9718   4.4963  -3.7892   0.00    0.0
2019/02/11 09:00:20.000   4280202.8142  -4034381.4231  -2458243.3847   5  11   4.7820   6.1390   4.0238  -4.9710   4.4954  -3.7885   0.00    0.0
2019/02/11 09:00:21.000   4280214.9405  -4034398.3534  -2458261.5481   5  11   4.7816   6.1380   4.0230  -4.9703   4.4944  -3.7877   0.00    0.0
2019/02/11 09:00:23.000   4280204.9278  -4034393.8546  -2458260.7576   5  11   4.7809   6.1360   4.0215  -4.9687   4.4925  -3.7862   0.00    0.0
2019/02/11 09:00:25.000   4280214.1554  -4034402.5701  -2458250.5020   5  11   4.7801   6.1340   4.0200  -4.9672   4.4906  -3.7847   0.00    0.0
2019/02/11 09:00:26.000   4280206.4447  -4034387.4789  -2458251.1409   5  11   4.7797   6.1330   4.0192  -4.9665   4.4897  -3.7839   0.00    0.0
2019/02/11 09:00:27.000   4280211.2791  -4034394.5583  -2458260.9841   5  11   4.7794   6.1320   4.0185  -4.9657   4.4887  -3.7832   0.00    0.0
2019/02/11 09:00:28.000   4280200.2239  -4034393.5282  -2458247.4940   5  11   4.7790   6.1310   4.0177  -4.9650   4.4877  -3.7824   0.00    0.0
2019/02/11 09:00:30.000   4280194.7806  -4034384.2627  -2458239.9228   5  11   4.7782   6.1290   4.0162  -4.9634   4.4858  -3.7809   0.00    0.0
2019/02/11 09:00:37.000   4280204.4538  -4034412.1982  -2458263.9923   5  11   4.7755   6.1219   4.0109  -4.9581   4.4791  -3.7756   0.00    0.0
2019/02/11 09:00:41.000   4280235.2063  -4034426.9362  -2458271.2775   5  11   4.7740   6.1179   4.0078  -4.9550   4.4752  -3.7725   0.00    0.0
2019/02/11 09:00:42.000   4280238.1626  -4034442.3700  -2458278.0802   5  11   4.7736   6.1169   4.0071  -4.9542   4.4743  -3.7717   0.00    0.0
2019/02/11 09:00:43.000   4280212.1200  -4034406.9736  -2458270.5623   5  11   4.7732   6.1159   4.0063  -4.9535   4.4733  -3.7710   0.00    0.0
2019/02/11 09:00:44.000   4280217.8503  -4034425.3740  -2458275.8513   5  11   4.7728   6.1149   4.0055  -4.9527   4.4723  -3.7702   0.00    0.0
2019/02/11 09:00:45.000   4280230.8290  -4034444.8022  -2458284.0042   5  11   4.7724   6.1139   4.0048  -4.9519   4.4713  -3.7694   0.00    0.0
2019/02/11 09:00:46.000   4280226.9977  -4034422.3362  -2458269.1867   5  11   4.7721   6.1128   4.0040  -4.9511   4.4704  -3.7687   0.00    0.0
2019/02/11 09:00:50.000   4280235.4534  -4034429.2514  -2458267.0678   5  11   4.7705   6.1088   4.0010  -4.9481   4.4665  -3.7656   0.00    0.0
2019/02/11 09:00:51.000   4280230.3596  -4034420.8994  -2458260.4801   5  11   4.7701   6.1078   4.0002  -4.9473   4.4655  -3.7648   0.00    0.0
2019/02/11 09:00:53.000   4280226.3699  -4034419.7085  -2458264.4111   5  11   4.7693   6.1057   3.9987  -4.9457   4.4636  -3.7632   0.00    0.0
2019/02/11 09:00:54.000   4280204.6445  -4034396.9454  -2458247.8826   5  11   4.7689   6.1047   3.9979  -4.9450   4.4626  -3.7625   0.00    0.0
2019/02/11 09:00:55.000   4280206.3190  -4034399.0438  -2458251.9234   5  11   4.7685   6.1037   3.9971  -4.9442   4.4617  -3.7617   0.00    0.0
2019/02/11 09:00:56.000   4280230.1614  -4034438.3801  -2458284.6805   5  12   4.7611   5.9927   3.6448  -4.9131   4.2434  -3.7041   0.00    0.0
2019/02/11 09:00:58.000   4280212.5147  -4034410.9298  -2458263.4312   5  11   4.7674   6.1007   3.9948  -4.9418   4.4587  -3.7594   0.00    0.0
2019/02/11 09:00:59.000   4280215.1429  -4034415.7783  -2458258.7180   5  11   4.7670   6.0996   3.9941  -4.9410   4.4577  -3.7586   0.00    0.0
2019/02/11 09:01:06.000   4280209.6929  -4034418.3982  -2458268.5169   5  11   4.7642   6.0925   3.9887  -4.9356   4.4509  -3.7531   0.00    0.0
2019/02/11 09:01:08.000   4280224.8226  -4034419.8333  -2458266.3108   5  11   4.7634   6.0904   3.9871  -4.9340   4.4489  -3.7516   0.00    0.0
2019/02/11 09:01:10.000   4280204.0004  -4034395.1685  -2458256.5031   5  11   4.7626   6.0884   3.9856  -4.9324   4.4470  -3.7500   0.00    0.0
2019/02/11 09:01:12.000   4280218.4759  -4034408.2420  -2458262.7780   5  11   4.7618   6.0863   3.9840  -4.9308   4.4450  -3.7484   0.00    0.0
2019/02/11 09:01:13.000   4280225.1108  -4034422.6099  -2458270.6546   5  11   4.7614   6.0853   3.9833  -4.9300   4.4440  -3.7476   0.00    0.0
2019/02/11 09:01:14.000   4280208.7826  -4034402.2388  -2458267.1400   5  11   4.7610   6.0842   3.9825  -4.9293   4.4430  -3.7469   0.00    0.0
2019/02/11 09:01:16.000   4280241.0252  -4034423.3666  -2458275.0974   5  11   4.7602   6.0822   3.9810  -4.9277   4.4411  -3.7453   0.00    0.0
2019/02/11 09:01:17.000   4280230.0709  -4034419.9058  -2458274.3480   5  11   4.7598   6.0811   3.9802  -4.9269   4.4401  -3.7445   0.00    0.0
2019/02/11 09:01:22.000   4280227.1600  -4034414.5221  -2458267.4275   5  11   4.7578   6.0760   3.9763  -4.9229   4.4351  -3.7406   0.00    0.0
2019/02/11 09:01:24.000   4280236.9756  -4034422.3836  -2458262.6332   5  11   4.7569   6.0739   3.9748  -4.9213   4.4331  -3.7390   0.00    0.0
2019/02/11 09:01:25.000   4280239.5764  -4034427.4162  -2458269.2780   5  11   4.7565   6.0729   3.9740  -4.9205   4.4322  -3.7382   0.00    0.0
2019/02/11 09:01:28.000   4280203.6673  -4034403.2864  -2458260.6563   5  11   4.7553   6.0698   3.9716  -4.9181   4.4292  -3.7358   0.00    0.0
2019/02/11 09:01:31.000   4280215.6982  -4034409.4999  -2458261.8210   5  11   4.7541   6.0666   3.9693  -4.9157   4.4262  -3.7334   0.00    0.0
2019/02/11 09:01:50.000   4280222.1276  -4034425.2874  -2458272.6391   5  11   4.7462   6.0467   3.9545  -4.9004   4.4072  -3.7182   0.00    0.0
2019/02/11 09:01:52.000   4280233.0670  -4034425.3586  -2458271.1187   5  11   4.7454   6.0446   3.9529  -4.8987   4.4052  -3.7166   0.00    0.0
2019/02/11 09:01:53.000   4280233.2313  -4034414.2156  -2458270.1147   5  11   4.7450   6.0436   3.9521  -4.8979   4.4042  -3.7158   0.00    0.0
2019/02/11 09:01:55.000   4280218.4330  -4034419.5026  -2458269.9974   5  11   4.7442   6.0415   3.9505  -4.8963   4.4022  -3.7142   0.00    0.0
2019/02/11 09:02:05.000   4280220.5046  -4034395.3252  -2458256.1551   5  12   4.7381   5.9475   3.6278  -4.8745   4.2128  -3.6783   0.00    0.0
2019/02/11 09:02:10.000   4280223.3853  -4034411.6332  -2458267.5919   5  12   4.7362   5.9440   3.6264  -4.8714   4.2103  -3.6762   0.00    0.0
2019/02/11 09:02:19.000   4280211.0757  -4034411.2393  -2458261.1953   5  12   4.7328   5.9375   3.6239  -4.8659   4.2058  -3.6724   0.00    0.0
2019/02/11 09:02:25.000   4280230.6603  -4034429.9999  -2458272.5314   5  12   4.7304   5.9332   3.6222  -4.8621   4.2027  -3.6698   0.00    0.0
2019/02/11 09:02:31.000   4280217.8327  -4034425.5690  -2458279.1455   5  12   4.7281   5.9288   3.6204  -4.8582   4.1996  -3.6671   0.00    0.0
2019/02/11 09:02:41.000   4280231.9748  -4034433.5688  -2458266.1623   5  11   4.7245   5.9924   3.9142  -4.8582   4.3553  -3.6765   0.00    0.0
2019/02/11 09:02:47.000   4280238.3686  -4034423.6154  -2458264.7325   5  12   4.7215   5.9168   3.6155  -4.8478   4.1912  -3.6599   0.00    0.0
2019/02/11 09:02:54.000   4280222.3093  -4034430.3125  -2458275.5579   5  12   4.7186   5.9115   3.6134  -4.8431   4.1874  -3.6567   0.00    0.0
2019/02/11 09:02:57.000   4280210.3708  -4034396.2321  -2458263.1424   5  12   4.7173   5.9092   3.6124  -4.8411   4.1858  -3.6553   0.00    0.0
2019/02/11 09:03:06.000   4280199.8993  -4034370.2177  -2458250.0257   5  12   4.7135   5.9022   3.6095  -4.8350   4.1808  -3.6510   0.00    0.0
2019/02/11 09:03:09.000   4280194.0454  -4034365.2545  -2458247.1867   5  12   4.7122   5.8998   3.6086  -4.8329   4.1791  -3.6496   0.00    0.0
2019/02/11 09:03:38.000   4280223.4445  -4034435.5876  -2458272.6117   5  12   4.6991   5.8765   3.5987  -4.8123   4.1623  -3.6352   0.00    0.0
2019/02/11 09:03:40.000   4280207.2705  -4034411.2674  -2458262.3996   5  12   4.6982   5.8748   3.5980  -4.8109   4.1611  -3.6341   0.00    0.0
2019/02/11 09:03:46.000   4280232.2396  -4034430.4327  -2458274.8469   5  12   4.6953   5.8699   3.5959  -4.8065   4.1575  -3.6310   0.00    0.0
2019/02/11 09:03:52.000   4280215.8688  -4034413.8245  -2458273.7205   5  12   4.6925   5.8649   3.5938  -4.8021   4.1539  -3.6279   0.00    0.0
2019/02/11 09:03:53.000   4280246.0443  -4034451.0027  -2458287.7850   5  12   4.6920   5.8640   3.5934  -4.8013   4.1533  -3.6274   0.00    0.0
2019/02/11 09:03:56.000   4280229.6243  -4034416.0818  -2458268.7457   5  12   4.6906   5.8615   3.5923  -4.7991   4.1514  -3.6258   0.00    0.0
2019/02/11 09:03:59.000   4280211.8877  -4034408.2863  -2458254.9836   5  12   4.6891   5.8590   3.5913  -4.7968   4.1496  -3.6242   0.00    0.0
2019/02/11 09:04:04.000   4280224.7956  -4034403.9842  -2458263.8504   5  12   4.6867   5.8547   3.5894  -4.7931   4.1465  -3.6216   0.00    0.0
2019/02/11 09:04:08.000   4280236.8361  -4034411.8557  -2458259.8740   5  11   4.6856   5.8972   3.8443  -4.7834   4.2645  -3.6029   0.00    0.0
2019/02/11 09:04:09.000   4280239.1829  -4034418.1548  -2458266.5767   5  11   4.6851   5.8961   3.8435  -4.7826   4.2634  -3.6021   0.00    0.0
2019/02/11 09:04:10.000   4280226.7666  -4034420.9913  -2458270.1439   5  11   4.6846   5.8949   3.8427  -4.7817   4.2624  -3.6012   0.00    0.0
2019/02/11 09:04:19.000   4280209.2478  -4034389.3380  -2458252.4339   5  12   4.6793   5.8419   3.5839  -4.7816   4.1371  -3.6134   0.00    0.0
2019/02/11 09:04:22.000   4280211.0222  -4034406.8112  -2458259.0205   5  12   4.6778   5.8392   3.5827  -4.7793   4.1352  -3.6118   0.00    0.0
2019/02/11 09:04:23.000   4280205.0881  -4034401.9964  -2458263.6579   5  12   4.6773   5.8384   3.5823  -4.7785   4.1345  -3.6112   0.00    0.0
2019/02/11 09:04:29.000   4280188.9382  -4034377.2343  -2458244.2772   5  12   4.6743   5.8331   3.5800  -4.7738   4.1307  -3.6079   0.00    0.0
2019/02/11 09:04:36.000   4280204.1628  -4034398.9743  -2458254.5926   5  12   4.6707   5.8270   3.5773  -4.7683   4.1261  -3.6039   0.00    0.0
2019/02/11 09:04:39.000   4280218.2669  -4034407.2439  -2458261.3285   5  12   4.6691   5.8243   3.5762  -4.7659   4.1241  -3.6022   0.00    0.0
2019/02/11 09:04:50.000   4280223.7304  -4034402.4786  -2458265.5743   5  12   4.6634   5.8145   3.5718  -4.7571   4.1169  -3.5959   0.00    0.0
2019/02/11 09:05:00.000   4280222.9785  -4034409.0177  -2458276.8120   5  12   4.6581   5.8054   3.5678  -4.7490   4.1102  -3.5901   0.00    0.0
2019/02/11 09:05:10.000   4280224.1736  -4034417.5876  -2458265.6011   5  12   4.6527   5.7962   3.5637  -4.7408   4.1034  -3.5842   0.00    0.0
2019/02/11 09:05:16.000   4280230.3601  -4034427.2151  -2458268.4161   5  12   4.6495   5.7907   3.5613  -4.7358   4.0992  -3.5806   0.00    0.0
2019/02/11 09:05:44.000   4280230.1787  -4034429.0235  -2458266.5388   5  12   4.6339   5.7644   3.5494  -4.7121   4.0796  -3.5635   0.00    0.0
2019/02/11 09:05:46.000   4280211.0573  -4034398.7065  -2458259.2637   5  12   4.6328   5.7625   3.5486  -4.7104   4.0782  -3.5623   0.00    0.0
2019/02/11 09:05:53.000   4280225.6532  -4034428.1859  -2458266.9057   5  12   4.6288   5.7558   3.5455  -4.7044   4.0731  -3.5579   0.00    0.0
2019/02/11 09:06:06.000   4280217.4245  -4034408.9155  -2458260.7628   5  12   4.6213   5.7433   3.5398  -4.6930   4.0637  -3.5496   0.00    0.0
2019/02/11 09:06:12.000   4280221.6324  -4034418.4970  -2458272.8683   5  12   4.6178   5.7374   3.5372  -4.6877   4.0593  -3.5458   0.00    0.0
2019/02/11 09:06:18.000   4280248.3663  -4034443.2113  -2458276.0646   5  12   4.6142   5.7316   3.5345  -4.6824   4.0548  -3.5419   0.00    0.0
2019/02/11 09:06:20.000   4280212.6632  -4034400.0940  -2458266.5447   5  12   4.6131   5.7296   3.5336  -4.6806   4.0533  -3.5406   0.00    0.0
2019/02/11 09:06:21.000   4280229.1632  -4034424.9739  -2458264.4686   5  12   4.6125   5.7286   3.5331  -4.6797   4.0526  -3.5400   0.00    0.0
2019/02/11 09:06:42.000   4280217.2427  -4034423.6477  -2458272.5064   5  11   4.7062   5.7668   3.9371  -4.7477   4.2120  -3.7657   0.00    0.0
2019/02/11 09:06:43.000   4280208.2039  -4034411.2468  -2458259.0799   5  11   4.7058   5.7660   3.9372  -4.7471   4.2116  -3.7655   0.00    0.0
2019/02/11 09:06:44.000   4280212.9781  -4034411.2853  -2458261.1977   5  11   4.7055   5.7652   3.9372  -4.7464   4.2113  -3.7652   0.00    0.0
2019/02/11 09:06:50.000   4280203.4433  -4034390.2516  -2458258.7194   5  11   4.7032   5.7604   3.9372  -4.7424   4.2092  -3.7636   0.00    0.0
2019/02/11 09:06:52.000   4280219.4397  -4034411.7667  -2458259.1536   5  11   4.7024   5.7588   3.9372  -4.7411   4.2085  -3.7631   0.00    0.0
2019/02/11 09:06:55.000   4280213.8072  -4034398.0071  -2458253.8738   5  12   4.5920   5.6948   3.5175  -4.6489   4.0269  -3.5174   0.00    0.0
2019/02/11 09:06:57.000   4280192.4052  -4034378.4374  -2458254.4194   5  11   4.7006   5.7548   3.9373  -4.7378   4.2067  -3.7618   0.00    0.0
2019/02/11 09:06:58.000   4280208.7220  -4034408.8787  -2458264.5467   5  11   4.7002   5.7540   3.9373  -4.7371   4.2063  -3.7615   0.00    0.0
2019/02/11 09:07:01.000   4280204.4373  -4034383.6169  -2458243.2332   5  11   4.6990   5.7516   3.9373  -4.7351   4.2053  -3.7607   0.00    0.0
2019/02/11 09:07:04.000   4280219.9943  -4034414.6308  -2458273.1303   5  11   4.6979   5.7492   3.9373  -4.7331   4.2042  -3.7599   0.00    0.0
2019/02/11 09:07:08.000   4280210.6973  -4034403.4735  -2458259.0258   5  11   4.6963   5.7460   3.9373  -4.7304   4.2027  -3.7588   0.00    0.0
2019/02/11 09:07:16.000   4280213.7976  -4034414.9264  -2458268.1114   5  11   4.6932   5.7395   3.9372  -4.7249   4.1998  -3.7566   0.00    0.0
2019/02/11 09:07:17.000   4280216.5359  -4034413.0706  -2458268.2930   5  11   4.6928   5.7387   3.9372  -4.7242   4.1994  -3.7563   0.00    0.0
2019/02/11 09:07:22.000   4280235.0051  -4034422.2011  -2458279.0445   5  12   4.5753   5.6672   3.5047  -4.6237   4.0058  -3.4990   0.00    0.0
2019/02/11 09:07:28.000   4280235.4599  -4034420.1244  -2458266.4655   5  12   4.5715   5.6611   3.5018  -4.6181   4.0011  -3.4948   0.00    0.0
2019/02/11 09:07:29.000   4280226.5463  -4034420.8071  -2458268.3495   5  12   4.5709   5.6600   3.5013  -4.6171   4.0003  -3.4941   0.00    0.0
2019/02/11 09:07:31.000   4280236.9284  -4034429.3363  -2458271.5754   5  12   4.5697   5.6580   3.5004  -4.6152   3.9987  -3.4927   0.00    0.0
2019/02/11 09:08:00.000   4280225.7723  -4034407.6953  -2458266.2427   5  11   4.6754   5.7033   3.9363  -4.6942   4.1828  -3.7435   0.00    0.0
2019/02/11 09:08:06.000   4280225.7707  -4034408.9318  -2458256.6156   5  11   4.6729   5.6982   3.9362  -4.6899   4.1804  -3.7416   0.00    0.0
2019/02/11 09:08:10.000   4280222.1061  -4034408.6613  -2458262.2691   5  11   4.6712   5.6949   3.9360  -4.6871   4.1787  -3.7403   0.00    0.0
2019/02/11 09:08:11.000   4280218.1963  -4034408.8448  -2458265.7315   5  11   4.6708   5.6940   3.9360  -4.6863   4.1783  -3.7400   0.00    0.0
2019/02/11 09:08:13.000   4280225.3734  -4034416.0420  -2458269.4835   5  11   4.6699   5.6924   3.9359  -4.6849   4.1775  -3.7394   0.00    0.0
2019/02/11 09:08:14.000   4280227.0016  -4034423.5635  -2458270.0789   5  11   4.6695   5.6915   3.9358  -4.6842   4.1771  -3.7390   0.00    0.0
2019/02/11 09:08:15.000   4280214.7958  -4034395.2286  -2458252.6092   5  12   4.5414   5.6118   3.4787  -4.5729   3.9632  -3.4615   0.00    0.0
2019/02/11 09:08:27.000   4280229.5181  -4034422.1118  -2458267.6870   5  11   4.6639   5.6805   3.9353  -4.6748   4.1717  -3.7348   0.00    0.0
2019/02/11 09:08:42.000   4280218.6398  -4034414.4114  -2458266.0761   5  12   4.5237   5.5830   3.4650  -4.5463   3.9408  -3.4418   0.00    0.0
2019/02/11 09:08:43.000   4280210.5295  -4034418.7549  -2458259.5930   5  12   4.5230   5.5819   3.4645  -4.5453   3.9400  -3.4410   0.00    0.0
2019/02/11 09:09:29.000   4280200.1569  -4034380.8427  -2458251.1675   5  12   4.4921   5.5319   3.4406  -4.4990   3.9010  -3.4065   0.00    0.0
2019/02/11 09:09:31.000   4280210.9412  -4034395.3783  -2458270.4164   5  12   4.4907   5.5297   3.4395  -4.4969   3.8993  -3.4050   0.00    0.0
2019/02/11 09:09:32.000   4280215.4043  -4034400.0642  -2458265.0380   5  12   4.4900   5.5286   3.4390  -4.4959   3.8984  -3.4043   0.00    0.0
2019/02/11 09:09:33.000   4280208.5134  -4034397.2660  -2458258.1496   5  12   4.4894   5.5275   3.4385  -4.4949   3.8975  -3.4035   0.00    0.0
2019/02/11 09:09:35.000   4280204.0129  -4034394.2442  -2458263.7613   5  12   4.4880   5.5253   3.4374  -4.4928   3.8958  -3.4020   0.00    0.0
2019/02/11 09:09:51.000   4280220.7381  -4034417.5241  -2458268.3597   5  11   4.5224   5.5083   3.5671  -4.4703   3.8929  -3.2957   0.00    0.0
2019/02/11 09:09:55.000   4280227.4798  -4034415.1358  -2458268.7534   5  11   4.5205   5.5038   3.5639  -4.4666   3.8885  -3.2921   0.00    0.0
2019/02/11 09:09:56.000   4280217.0376  -4034404.8498  -2458257.0307   5  11   4.5201   5.5026   3.5632  -4.4656   3.8874  -3.2911   0.00    0.0
2019/02/11 09:09:57.000   4280225.9420  -4034421.5739  -2458266.7712   5  12   4.4729   5.5010   3.4257  -4.4702   3.8768  -3.3851   0.00    0.0
2019/02/11 09:09:59.000   4280213.3894  -4034411.0050  -2458262.8577   5  11   4.5186   5.4993   3.5608  -4.4629   3.8842  -3.2884   0.00    0.0
2019/02/11 09:10:11.000   4280225.4723  -4034415.2978  -2458259.7189   5  12   4.4632   5.4854   3.4182  -4.4557   3.8645  -3.3742   0.00    0.0
2019/02/11 09:10:13.000   4280226.6026  -4034428.0083  -2458279.0438   5  12   4.4618   5.4832   3.4171  -4.4537   3.8628  -3.3727   0.00    0.0
2019/02/11 09:10:14.000   4280210.7422  -4034397.1841  -2458261.0285   5  12   4.4612   5.4821   3.4166  -4.4526   3.8619  -3.3719   0.00    0.0
2019/02/11 09:10:24.000   4280220.6247  -4034401.9749  -2458257.7817   5  12   4.4542   5.4709   3.4112  -4.4422   3.8531  -3.3641   0.00    0.0
2019/02/11 09:10:25.000   4280210.7520  -4034407.8499  -2458258.4549   5  12   4.4535   5.4698   3.4107  -4.4412   3.8522  -3.3633   0.00    0.0
2019/02/11 09:10:26.000   4280208.8380  -4034393.7224  -2458250.7108   5  12   4.4528   5.4687   3.4101  -4.4401   3.8514  -3.3625   0.00    0.0
2019/02/11 09:10:27.000   4280227.4803  -4034416.2416  -2458260.2329   5  12   4.4521   5.4676   3.4096  -4.4391   3.8505  -3.3617   0.00    0.0
2019/02/11 09:10:28.000   4280230.1098  -4034414.4517  -2458270.9208   5  12   4.4514   5.4664   3.4090  -4.4380   3.8496  -3.3610   0.00    0.0
2019/02/11 09:10:33.000   4280212.1433  -4034412.8652  -2458265.8609   5  11   4.5026   5.4609   3.5341  -4.4314   3.8473  -3.2574   0.00    0.0
2019/02/11 09:10:35.000   4280226.7702  -4034416.6729  -2458270.3272   5  11   4.5017   5.4586   3.5325  -4.4295   3.8452  -3.2556   0.00    0.0
2019/02/11 09:10:39.000   4280222.1650  -4034420.3533  -2458267.3442   5  12   4.4438   5.4541   3.4031  -4.4265   3.8398  -3.3523   0.00    0.0
2019/02/11 09:10:40.000   4280223.5042  -4034412.0818  -2458268.6033   5  12   4.4431   5.4530   3.4025  -4.4255   3.8390  -3.3515   0.00    0.0
2019/02/11 09:11:11.000   4280221.4018  -4034408.7388  -2458260.4072   5  12   4.4213   5.4181   3.3856  -4.3927   3.8113  -3.3269   0.00    0.0
2019/02/11 09:11:16.000   4280211.0497  -4034408.3167  -2458257.9937   5  11   4.4826   5.4126   3.5007  -4.3917   3.8010  -3.2183   0.00    0.0
2019/02/11 09:11:21.000   4280201.4097  -4034395.2255  -2458256.1374   5  12   4.4142   5.4067   3.3800  -4.3821   3.8023  -3.3189   0.00    0.0
2019/02/11 09:11:24.000   4280223.9142  -4034407.4727  -2458262.6003   5  12   4.4121   5.4033   3.3784  -4.3789   3.7996  -3.3165   0.00    0.0
2019/02/11 09:11:28.000   4280215.4407  -4034390.6749  -2458255.2314   5  12   4.4093   5.3988   3.3762  -4.3747   3.7960  -3.3133   0.00    0.0
2019/02/11 09:11:40.000   4280211.7312  -4034413.7464  -2458260.2673   5  12   4.4007   5.3852   3.3695  -4.3618   3.7852  -3.3036   0.00    0.0
2019/02/11 09:11:44.000   4280246.2746  -4034425.9839  -2458271.1957   5  12   4.3979   5.3806   3.3673  -4.3576   3.7815  -3.3004   0.00    0.0
2019/02/11 09:11:45.000   4280237.2758  -4034424.8645  -2458266.4758   5  12   4.3972   5.3795   3.3667  -4.3565   3.7806  -3.2996   0.00    0.0
2019/02/11 09:11:50.000   4280216.7570  -4034425.2279  -2458276.8462   5  11   4.4669   5.3747   3.4745  -4.3604   3.7645  -3.1875   0.00    0.0
2019/02/11 09:11:52.000   4280195.4235  -4034406.9263  -2458258.8858   5  12   4.3922   5.3715   3.3629  -4.3490   3.7743  -3.2939   0.00    0.0
2019/02/11 09:11:53.000   4280201.6543  -4034395.0233  -2458260.2268   5  12   4.3915   5.3704   3.3623  -4.3479   3.7734  -3.2931   0.00    0.0
2019/02/11 09:11:54.000   4280212.4252  -4034416.2982  -2458263.9334   5  11   4.4651   5.3703   3.4715  -4.3568   3.7602  -3.1838   0.00    0.0
2019/02/11 09:11:56.000   4280216.4644  -4034420.0467  -2458268.0582   5  11   4.4642   5.3681   3.4700  -4.3549   3.7581  -3.1820   0.00    0.0
2019/02/11 09:11:57.000   4280205.4821  -4034411.3233  -2458257.3697   5  11   4.4637   5.3670   3.4692  -4.3540   3.7570  -3.1811   0.00    0.0
2019/02/11 09:11:58.000   4280218.3070  -4034408.7307  -2458264.8035   5  11   4.4632   5.3659   3.4684  -4.3531   3.7559  -3.1802   0.00    0.0
2019/02/11 09:12:00.000   4280214.6407  -4034415.9959  -2458261.2486   5  12   4.3865   5.3624   3.3584  -4.3404   3.7670  -3.2874   0.00    0.0
2019/02/11 09:12:29.000   4280235.0304  -4034410.0537  -2458266.4184   5  12   4.3658   5.3293   3.3422  -4.3091   3.7405  -3.2637   0.00    0.0
2019/02/11 09:12:54.000   4280222.7562  -4034434.1701  -2458270.4181   5  12   4.3479   5.3006   3.3281  -4.2820   3.7175  -3.2432   0.00    0.0
2019/02/11 09:12:59.000   4280227.9296  -4034431.6984  -2458267.1320   5  12   4.3443   5.2949   3.3253  -4.2766   3.7129  -3.2390   0.00    0.0
2019/02/11 09:13:04.000   4280245.6843  -4034443.0932  -2458278.1612   5  11   4.4335   5.2932   3.4187  -4.2929   3.6858  -3.1206   0.00    0.0
2019/02/11 09:13:05.000   4280233.2687  -4034419.2974  -2458263.6617   5  11   4.4331   5.2921   3.4179  -4.2920   3.6848  -3.1197   0.00    0.0
2019/02/11 09:13:08.000   4280244.1516  -4034441.9916  -2458281.6465   5  11   4.4318   5.2888   3.4157  -4.2893   3.6816  -3.1170   0.00    0.0
2019/02/11 09:13:12.000   4280232.2600  -4034418.0482  -2458263.8180   5  12   4.3350   5.2800   3.3180  -4.2624   3.7009  -3.2283   0.00    0.0
2019/02/11 09:13:13.000   4280212.8266  -4034411.5500  -2458259.4219   5  12   4.3343   5.2788   3.3174  -4.2614   3.7000  -3.2275   0.00    0.0
2019/02/11 09:13:32.000   4280207.9159  -4034400.4543  -2458254.2205   5  12   4.3207   5.2570   3.3067  -4.2406   3.6824  -3.2117   0.00    0.0
2019/02/11 09:13:34.000   4280219.1987  -4034413.6844  -2458260.9541   5  12   4.3192   5.2547   3.3055  -4.2384   3.6806  -3.2100   0.00    0.0
2019/02/11 09:13:35.000   4280215.2944  -4034412.2628  -2458257.5081   5  12   4.3185   5.2536   3.3050  -4.2374   3.6797  -3.2092   0.00    0.0
2019/02/11 09:13:38.000   4280208.0088  -4034400.7081  -2458255.4261   5  12   4.3164   5.2501   3.3033  -4.2341   3.6769  -3.2067   0.00    0.0
2019/02/11 09:14:03.000   4280223.8929  -4034427.2692  -2458268.1830   5  12   4.2984   5.2214   3.2891  -4.2067   3.6537  -3.1859   0.00    0.0
2019/02/11 09:14:06.000   4280224.6707  -4034420.0658  -2458265.5612   5  12   4.2963   5.2180   3.2874  -4.2034   3.6509  -3.1834   0.00    0.0
2019/02/11 09:14:12.000   4280218.9524  -4034411.8565  -2458259.2314   5  12   4.2920   5.2111   3.2840  -4.1969   3.6453  -3.1783   0.00    0.0
2019/02/11 09:14:20.000   4280217.5522  -4034410.4666  -2458257.8974   5  12   4.2862   5.2019   3.2795  -4.1881   3.6378  -3.1716   0.00    0.0
2019/02/11 09:14:21.000   4280233.1980  -4034436.6475  -2458269.6454   5  12   4.2855   5.2008   3.2789  -4.1870   3.6369  -3.1708   0.00    0.0
2019/02/11 09:14:31.000   4280217.8139  -4034424.6628  -2458266.8754   5  11   4.3958   5.1992   3.3549  -4.2147   3.5949  -3.0428   0.00    0.0
2019/02/11 09:14:41.000   4280207.3536  -4034402.3445  -2458253.9242   5  12   4.2712   5.1778   3.2676  -4.1651   3.6183  -3.1540   0.00    0.0
2019/02/11 09:14:51.000   4280231.1342  -4034438.2018  -2458279.6765   5  12   4.2641   5.1664   3.2619  -4.1541   3.6090  -3.1456   0.00    0.0
2019/02/11 09:15:21.000   4280214.4655  -4034401.8537  -2458257.9566   5  12   4.2427   5.1320   3.2449  -4.1211   3.5810  -3.1204   0.00    0.0
2019/02/11 09:15:22.000   4280207.0434  -4034398.7721  -2458251.1664   5  12   4.2420   5.1309   3.2444  -4.1200   3.5800  -3.1195   0.00    0.0
2019/02/11 09:15:25.000   4280212.2029  -4034421.5728  -2458265.4553   5  12   4.2398   5.1275   3.2427  -4.1167   3.5772  -3.1170   0.00    0.0
2019/02/11 09:15:28.000   4280225.7201  -4034418.3177  -2458269.0830   5  12   4.2377   5.1240   3.2410  -4.1134   3.5744  -3.1145   0.00    0.0
2019/02/11 09:15:30.000   4280219.0861  -4034420.7034  -2458276.1430   5  12   4.2363   5.1217   3.2398  -4.1112   3.5726  -3.1128   0.00    0.0
2019/02/11 09:15:38.000   4280221.3045  -4034412.7621  -2458259.2896   5  12   4.2306   5.1126   3.2353  -4.1024   3.5651  -3.1060   0.00    0.0
2019/02/11 09:15:39.000   4280223.1524  -4034413.7055  -2458266.8645   5  12   4.2299   5.1115   3.2347  -4.1013   3.5642  -3.1052   0.00    0.0
2019/02/11 09:15:41.000   4280216.5067  -4034411.8259  -2458267.9491   5  12   4.2285   5.1092   3.2336  -4.0991   3.5623  -3.1035   0.00    0.0
2019/02/11 09:15:46.000   4280217.3627  -4034394.2620  -2458259.9729   5  12   4.2249   5.1035   3.2308  -4.0937   3.5576  -3.0993   0.00    0.0
2019/02/11 09:15:54.000   4280205.2646  -4034393.2428  -2458259.5240   5  12   4.2193   5.0944   3.2263  -4.0849   3.5502  -3.0925   0.00    0.0
2019/02/11 09:16:05.000   4280224.0465  -4034424.7198  -2458271.3426   5  12   4.2115   5.0819   3.2201  -4.0728   3.5399  -3.0833   0.00    0.0
2019/02/11 09:16:13.000   4280223.7406  -4034406.5092  -2458256.2128   5  12   4.2058   5.0728   3.2156  -4.0640   3.5324  -3.0765   0.00    0.0
2019/02/11 09:16:26.000   4280229.9069  -4034430.3298  -2458273.5905   5  12   4.1967   5.0580   3.2082  -4.0497   3.5203  -3.0655   0.00    0.0
2019/02/11 09:16:29.000   4280200.6132  -4034394.9264  -2458246.8657   5  12   4.1946   5.0546   3.2066  -4.0465   3.5175  -3.0630   0.00    0.0
2019/02/11 09:16:32.000   4280214.3087  -4034409.8551  -2458262.2311   5  12   4.1925   5.0512   3.2049  -4.0432   3.5147  -3.0605   0.00    0.0
2019/02/11 09:16:33.000   4280207.4416  -4034417.5824  -2458265.4721   5  12   4.1918   5.0501   3.2043  -4.0421   3.5138  -3.0596   0.00    0.0
2019/02/11 09:16:46.000   4280222.2817  -4034416.2267  -2458258.7373   5  12   4.1827   5.0354   3.1970  -4.0278   3.5017  -3.0486   0.00    0.0
2019/02/11 09:16:47.000   4280216.6945  -4034415.0262  -2458264.9469   5  12   4.1820   5.0343   3.1965  -4.0267   3.5008  -3.0478   0.00    0.0
2019/02/11 09:17:08.000   4280229.3149  -4034417.4914  -2458269.4262   5  12   4.1673   5.0106   3.1847  -4.0038   3.4812  -3.0301   0.00    0.0
2019/02/11 09:17:12.000   4280239.6581  -4034433.9683  -2458277.2880   5  12   4.1645   5.0061   3.1825  -3.9994   3.4775  -3.0267   0.00    0.0
2019/02/11 09:17:14.000   4280236.0837  -4034423.0675  -2458260.5892   5  12   4.1632   5.0039   3.1814  -3.9972   3.4757  -3.0250   0.00    0.0
2019/02/11 09:17:27.000   4280223.8350  -4034417.2150  -2458270.6141   5  12   4.1542   4.9893   3.1741  -3.9830   3.4636  -3.0140   0.00    0.0
2019/02/11 09:17:28.000   4280211.2964  -4034405.5369  -2458266.0121   5  12   4.1535   4.9882   3.1736  -3.9819   3.4627  -3.0132   0.00    0.0
2019/02/11 09:17:38.000   4280229.4332  -4034414.8640  -2458262.8523   5  12   4.1466   4.9770   3.1680  -3.9710   3.4534  -3.0048   0.00    0.0
2019/02/11 09:17:40.000   4280225.8867  -4034419.3700  -2458263.0816   5  12   4.1452   4.9747   3.1669  -3.9688   3.4515  -3.0031   0.00    0.0
2019/02/11 09:17:41.000   4280228.3220  -4034412.4628  -2458258.9077   5  12   4.1445   4.9736   3.1663  -3.9678   3.4506  -3.0022   0.00    0.0
2019/02/11 09:17:44.000   4280199.7614  -4034399.9650  -2458265.2212   5  12   4.1424   4.9703   3.1647  -3.9645   3.4478  -2.9997   0.00    0.0
2019/02/11 09:17:47.000   4280213.9653  -4034409.9051  -2458269.3562   5  12   4.1404   4.9669   3.1630  -3.9612   3.4451  -2.9972   0.00    0.0
2019/02/11 09:18:03.000   4280215.7510  -4034402.9658  -2458251.9537   5  12   4.1294   4.9491   3.1542  -3.9438   3.4303  -2.9837   0.00    0.0
2019/02/11 09:18:05.000   4280211.0239  -4034410.9679  -2458269.8212   5  12   4.1280   4.9469   3.1531  -3.9417   3.4284  -2.9820   0.00    0.0
2019/02/11 09:18:14.000   4280234.1935  -4034420.5921  -2458262.7159   5  12   4.1219   4.9369   3.1481  -3.9319   3.4201  -2.9745   0.00    0.0
2019/02/11 09:18:15.000   4280237.2912  -4034425.3215  -2458259.0907   5  12   4.1212   4.9358   3.1475  -3.9308   3.4192  -2.9736   0.00    0.0
2019/02/11 09:18:17.000   4280235.9767  -4034438.5291  -2458271.5419   5  12   4.1198   4.9335   3.1464  -3.9286   3.4173  -2.9719   0.00    0.0
2019/02/11 09:18:22.000   4280227.0035  -4034426.5423  -2458276.8098   5  12   4.1164   4.9280   3.1437  -3.9232   3.4127  -2.9677   0.00    0.0
2019/02/11 09:18:29.000   4280219.3418  -4034419.8780  -2458278.7014   5  12   4.1117   4.9203   3.1399  -3.9156   3.4063  -2.9619   0.00    0.0
2019/02/11 09:18:32.000   4280234.3623  -4034431.9962  -2458268.8169   5  12   4.1097   4.9170   3.1382  -3.9124   3.4035  -2.9593   0.00    0.0
2019/02/11 09:18:34.000   4280229.9707  -4034422.3712  -2458279.1647   5  11   4.3444   5.1117   3.8331  -4.1563   3.8297  -3.4437   0.00    0.0
2019/02/11 09:18:41.000   4280219.1340  -4034420.5811  -2458273.5229   5  11   4.3404   5.1049   3.8313  -4.1498   3.8251  -3.4396   0.00    0.0
2019/02/11 09:18:42.000   4280231.2302  -4034437.8145  -2458291.7686   5  11   4.3398   5.1039   3.8311  -4.1489   3.8244  -3.4391   0.00    0.0
2019/02/11 09:18:49.000   4280207.9608  -4034397.6431  -2458255.3831   5  11   4.3359   5.0972   3.8293  -4.1424   3.8198  -3.4350   0.00    0.0
2019/02/11 09:18:53.000   4280206.0280  -4034400.4938  -2458257.0103   5  11   4.1128   4.9006   3.1369  -3.8772   3.3938  -2.9255   0.00    0.0
2019/02/11 09:19:01.000   4280225.9464  -4034389.7860  -2458258.6648   5  12   4.0901   4.8851   3.1224  -3.8811   3.3769  -2.9350   0.00    0.0
2019/02/11 09:19:08.000   4280206.1028  -4034392.0191  -2458255.5106   5  12   4.0855   4.8774   3.1186  -3.8735   3.3705  -2.9292   0.00    0.0
2019/02/11 09:19:12.000   4280210.6854  -4034384.6263  -2458249.7737   5  12   4.0828   4.8730   3.1164  -3.8692   3.3668  -2.9258   0.00    0.0
2019/02/11 09:19:18.000   4280244.7509  -4034419.0506  -2458263.9786   5  11   4.3193   5.0692   3.8217  -4.1156   3.8006  -3.4178   0.00    0.0
2019/02/11 09:19:19.000   4280227.8010  -4034411.1158  -2458260.7013   5  11   4.3187   5.0682   3.8215  -4.1147   3.8000  -3.4172   0.00    0.0
2019/02/11 09:19:20.000   4280218.1462  -4034407.8690  -2458253.3386   5  11   4.3182   5.0673   3.8212  -4.1138   3.7993  -3.4166   0.00    0.0
2019/02/11 09:19:24.000   4280218.0406  -4034419.4828  -2458265.3821   5  11   4.3159   5.0634   3.8202  -4.1100   3.7966  -3.4143   0.00    0.0
2019/02/11 09:19:32.000   4280228.6726  -4034431.0683  -2458282.7039   5  11   4.3113   5.0557   3.8181  -4.1026   3.7913  -3.4095   0.00    0.0
2019/02/11 09:19:40.000   4280233.7723  -4034427.3253  -2458279.3133   5  11   4.3068   5.0480   3.8159  -4.0952   3.7860  -3.4047   0.00    0.0
2019/02/11 09:19:41.000   4280223.2910  -4034422.7005  -2458265.0485   5  11   4.3062   5.0471   3.8157  -4.0943   3.7853  -3.4041   0.00    0.0
2019/02/11 09:19:44.000   4280235.4992  -4034425.9044  -2458271.3576   5  11   4.3045   5.0442   3.8149  -4.0915   3.7833  -3.4023   0.00    0.0
2019/02/11 09:19:46.000   4280233.6406  -4034429.1227  -2458274.6568   5  11   4.3033   5.0423   3.8143  -4.0896   3.7820  -3.4011   0.00    0.0
2019/02/11 09:19:47.000   4280220.8313  -4034413.9636  -2458265.8506   5  11   4.3028   5.0413   3.8141  -4.0887   3.7813  -3.4006   0.00    0.0
2019/02/11 09:19:55.000   4280223.0474  -4034412.7864  -2458252.5733   5  11   4.2982   5.0336   3.8119  -4.0813   3.7760  -3.3958   0.00    0.0
2019/02/11 09:19:56.000   4280201.2030  -4034404.4363  -2458233.2842   5  11   4.2977   5.0327   3.8117  -4.0804   3.7753  -3.3952   0.00    0.0
2019/02/11 09:20:10.000   4280203.1490  -4034386.9685  -2458254.2280   5  12   4.0446   4.8102   3.0852  -3.8072   3.3141  -2.8775   0.00    0.0
2019/02/11 09:20:16.000   4280200.4302  -4034393.8463  -2458255.9365   5  12   4.0407   4.8038   3.0820  -3.8009   3.3087  -2.8725   0.00    0.0
2019/02/11 09:20:26.000   4280228.2001  -4034426.8961  -2458268.7587   5  12   4.0342   4.7931   3.0767  -3.7902   3.2997  -2.8643   0.00    0.0
2019/02/11 09:20:30.000   4280217.7428  -4034416.1879  -2458249.2437   5  12   4.0317   4.7888   3.0746  -3.7860   3.2961  -2.8610   0.00    0.0
2019/02/11 09:20:38.000   4280233.3171  -4034431.0946  -2458271.6552   5  12   4.0265   4.7803   3.0704  -3.7775   3.2889  -2.8543   0.00    0.0
2019/02/11 09:20:39.000   4280237.4015  -4034434.6282  -2458265.6620   5  12   4.0259   4.7792   3.0699  -3.7765   3.2880  -2.8535   0.00    0.0
2019/02/11 09:20:50.000   4280212.3673  -4034406.5289  -2458261.4978   5  11   4.2670   4.9810   3.7970  -4.0303   3.7391  -3.3626   0.00    0.0
2019/02/11 09:20:51.000   4280216.9100  -4034420.9145  -2458267.5444   5  11   4.2665   4.9801   3.7967  -4.0294   3.7385  -3.3619   0.00    0.0
2019/02/11 09:20:52.000   4280210.1357  -4034413.4642  -2458256.0232   5  11   4.2659   4.9791   3.7965  -4.0284   3.7378  -3.3613   0.00    0.0
2019/02/11 09:20:54.000   4280225.3328  -4034422.2538  -2458275.4104   5  11   4.2648   4.9772   3.7959  -4.0266   3.7364  -3.3601   0.00    0.0
2019/02/11 09:20:55.000   4280229.8158  -4034411.7894  -2458267.5048   5  12   4.0156   4.7622   3.0615  -3.7596   3.2736  -2.8403   0.00    0.0
2019/02/11 09:21:10.000   4280216.3669  -4034423.1610  -2458272.6992   5  12   4.0061   4.7464   3.0536  -3.7439   3.2602  -2.8280   0.00    0.0
2019/02/11 09:21:38.000   4280218.4872  -4034433.6455  -2458265.6687   5  12   3.9886   4.7171   3.0391  -3.7146   3.2354  -2.8050   0.00    0.0
2019/02/11 09:21:45.000   4280226.4378  -4034425.6834  -2458269.1775   5  11   4.5735   4.7236   3.0776  -3.8149   3.2574  -2.9960   0.00    0.0
2019/02/11 09:21:49.000   4280221.9061  -4034440.4613  -2458276.9851   5  11   4.5711   4.7193   3.0756  -3.8104   3.2537  -2.9929   0.00    0.0
2019/02/11 09:21:54.000   4280221.0704  -4034433.1002  -2458267.3203   5  11   4.5681   4.7140   3.0731  -3.8049   3.2492  -2.9890   0.00    0.0
2019/02/11 09:21:55.000   4280201.3130  -4034420.9734  -2458267.8231   5  11   4.5675   4.7130   3.0725  -3.8037   3.2483  -2.9882   0.00    0.0
2019/02/11 09:22:26.000   4280220.2009  -4034396.1748  -2458263.1612   5  12   3.9591   4.6675   3.0146  -3.6649   3.1931  -2.7660   0.00    0.0
2019/02/11 09:22:27.000   4280221.5718  -4034404.0382  -2458267.1613   5  12   3.9585   4.6665   3.0141  -3.6638   3.1923  -2.7652   0.00    0.0
2019/02/11 09:22:39.000   4280227.6347  -4034425.5733  -2458262.1569   5  12   3.9512   4.6542   3.0080  -3.6515   3.1818  -2.7555   0.00    0.0
2019/02/11 09:22:42.000   4280223.2051  -4034424.7260  -2458258.1166   5  12   3.9494   4.6512   3.0065  -3.6484   3.1792  -2.7531   0.00    0.0
2019/02/11 09:22:46.000   4280217.4411  -4034435.7515  -2458267.8172   5  12   3.9470   4.6471   3.0045  -3.6443   3.1757  -2.7499   0.00    0.0
2019/02/11 09:22:52.000   4280218.4254  -4034429.5936  -2458269.8307   5  12   3.9434   4.6410   3.0015  -3.6382   3.1705  -2.7450   0.00    0.0
2019/02/11 09:22:55.000   4280232.1317  -4034423.9010  -2458262.5156   5  12   3.9416   4.6380   3.0000  -3.6351   3.1679  -2.7426   0.00    0.0
2019/02/11 09:23:04.000   4280237.0256  -4034431.3054  -2458275.8607   5  11   3.9588   4.6356   3.0089  -3.6114   3.1712  -2.7134   0.00    0.0
2019/02/11 09:23:10.000   4280223.4805  -4034424.3670  -2458275.6403   5  12   3.9327   4.6229   2.9926  -3.6199   3.1549  -2.7306   0.00    0.0
2019/02/11 09:23:11.000   4280214.1390  -4034411.7353  -2458266.4164   5  12   3.9321   4.6218   2.9921  -3.6188   3.1540  -2.7298   0.00    0.0
2019/02/11 09:23:52.000   4280213.4972  -4034433.2330  -2458266.1244   5  12   3.9082   4.5810   2.9720  -3.5774   3.1189  -2.6971   0.00    0.0
2019/02/11 09:23:56.000   4280211.5025  -4034422.7060  -2458261.3514   5  12   3.9059   4.5770   2.9700  -3.5734   3.1155  -2.6939   0.00    0.0
2019/02/11 09:23:57.000   4280205.3463  -4034428.4022  -2458269.2113   5  12   3.9053   4.5760   2.9695  -3.5724   3.1146  -2.6931   0.00    0.0
2019/02/11 09:24:03.000   4280229.7037  -4034436.7605  -2458266.9318   5  12   3.9019   4.5701   2.9666  -3.5664   3.1095  -2.6884   0.00    0.0
2019/02/11 09:24:04.000   4280228.5139  -4034456.2485  -2458270.6907   5  12   3.9013   4.5691   2.9661  -3.5654   3.1087  -2.6876   0.00    0.0
2019/02/11 09:24:05.000   4280221.8419  -4034440.3622  -2458268.7575   5  12   3.9008   4.5681   2.9656  -3.5644   3.1078  -2.6868   0.00    0.0
2019/02/11 09:24:09.000   4280242.9887  -4034437.2116  -2458269.1890   5  12   3.8985   4.5642   2.9637  -3.5604   3.1044  -2.6836   0.00    0.0
2019/02/11 09:24:13.000   4280223.9297  -4034423.9244  -2458267.4318   5  11   4.1977   4.6397   2.9906  -3.7394   3.0434  -2.5569   0.00    0.0
2019/02/11 09:24:15.000   4280233.8134  -4034426.3889  -2458267.8111   5  11   4.1972   4.6380   2.9896  -3.7380   3.0417  -2.5554   0.00    0.0
2019/02/11 09:24:20.000   4280228.8629  -4034426.1225  -2458272.9261   5  11   4.1960   4.6338   2.9869  -3.7343   3.0375  -2.5515   0.00    0.0
2019/02/11 09:24:21.000   4280213.4597  -4034415.6964  -2458268.1872   5  11   4.1957   4.6329   2.9864  -3.7336   3.0366  -2.5508   0.00    0.0
2019/02/11 09:24:23.000   4280229.3969  -4034418.7977  -2458262.5931   5  11   4.1952   4.6313   2.9853  -3.7321   3.0349  -2.5492   0.00    0.0
2019/02/11 09:24:27.000   4280213.5816  -4034404.4237  -2458261.7779   5  11   4.1942   4.6279   2.9832  -3.7292   3.0315  -2.5461   0.00    0.0
2019/02/11 09:24:31.000   4280197.0717  -4034400.5359  -2458261.0842   5  11   4.1933   4.6245   2.9811  -3.7263   3.0281  -2.5431   0.00    0.0
2019/02/11 09:24:32.000   4280210.0933  -4034412.8293  -2458261.7307   5  11   4.1930   4.6237   2.9806  -3.7255   3.0273  -2.5423   0.00    0.0
2019/02/11 09:24:53.000   4280217.4550  -4034406.1343  -2458260.8289   5  12   3.8738   4.5214   2.9427  -3.5167   3.0674  -2.6490   0.00    0.0
2019/02/11 09:25:00.000   4280205.2100  -4034415.9381  -2458256.8887   5   9   5.9121   4.6985   2.9976  -4.1894   3.0488  -2.6661   0.00    0.0
2019/02/11 09:25:02.000   4280214.2363  -4034438.7237  -2458267.7672   5   9   5.9131   4.6969   2.9966  -4.1884   3.0472  -2.6648   0.00    0.0
2019/02/11 09:25:09.000   4280229.8068  -4034427.3751  -2458273.8703   5  11   4.1843   4.5928   2.9615  -3.6988   2.9962  -2.5140   0.00    0.0
2019/02/11 09:25:11.000   4280238.8946  -4034450.8489  -2458273.3953   5  11   4.1838   4.5912   2.9605  -3.6974   2.9946  -2.5124   0.00    0.0
2019/02/11 09:25:15.000   4280229.6317  -4034426.0112  -2458276.3429   5  12   3.8617   4.5003   2.9324  -3.4951   3.0491  -2.6319   0.00    0.0
2019/02/11 09:25:16.000   4280226.5142  -4034440.4267  -2458275.8909   5  12   3.8611   4.4994   2.9319  -3.4941   3.0483  -2.6311   0.00    0.0
2019/02/11 09:25:36.000   4280221.5813  -4034420.1637  -2458263.7341   5  11   4.1782   4.5707   2.9479  -3.6796   2.9739  -2.4935   0.00    0.0
2019/02/11 09:25:37.000   4280232.0705  -4034432.2272  -2458271.3061   5  11   4.1780   4.5698   2.9474  -3.6789   2.9730  -2.4927   0.00    0.0
2019/02/11 09:26:18.000   4280217.9848  -4034421.4696  -2458263.0336   5  12   3.8281   4.4411   2.9035  -3.4341   2.9974  -2.5834   0.00    0.0
2019/02/11 09:26:39.000   4280224.9187  -4034419.4048  -2458263.2058   5  12   3.8172   4.4218   2.8941  -3.4140   2.9804  -2.5674   0.00    0.0
2019/02/11 09:26:41.000   4280221.5282  -4034429.4725  -2458268.4578   5  12   3.8162   4.4199   2.8932  -3.4121   2.9788  -2.5659   0.00    0.0
2019/02/11 09:26:44.000   4280225.0501  -4034407.8078  -2458260.2694   5  12   3.8147   4.4172   2.8919  -3.4093   2.9764  -2.5636   0.00    0.0
2019/02/11 09:27:02.000   4280213.0871  -4034407.3755  -2458270.5365   5  12   3.8056   4.4008   2.8839  -3.3922   2.9620  -2.5500   0.00    0.0
2019/02/11 09:27:07.000   4280224.3700  -4034400.6152  -2458253.8080   5  12   3.8030   4.3962   2.8817  -3.3875   2.9580  -2.5462   0.00    0.0
2019/02/11 09:27:15.000   4280226.0779  -4034413.1216  -2458261.1993   5  12   3.7990   4.3890   2.8782  -3.3800   2.9516  -2.5402   0.00    0.0
2019/02/11 09:27:18.000   4280227.4235  -4034404.7822  -2458267.7905   5  11   4.1573   4.4894   2.8984  -3.6088   2.8915  -2.4176   0.00    0.0
2019/02/11 09:27:27.000   4280225.7710  -4034416.3141  -2458275.7301   5  12   3.7931   4.3782   2.8730  -3.3687   2.9421  -2.5312   0.00    0.0
2019/02/11 09:27:34.000   4280205.7661  -4034418.7465  -2458260.8828   5  12   3.7896   4.3720   2.8699  -3.3622   2.9366  -2.5260   0.00    0.0
2019/02/11 09:27:41.000   4280223.3062  -4034414.6313  -2458262.9605   5  12   3.7862   4.3657   2.8669  -3.3557   2.9311  -2.5207   0.00    0.0
2019/02/11 09:27:47.000   4280219.6969  -4034411.6384  -2458259.3535   5  12   3.7833   4.3604   2.8643  -3.3501   2.9264  -2.5163   0.00    0.0
2019/02/11 09:27:49.000   4280232.0688  -4034416.1851  -2458270.1783   5  12   3.7823   4.3586   2.8635  -3.3482   2.9248  -2.5148   0.00    0.0
2019/02/11 09:28:03.000   4280215.9109  -4034397.8415  -2458259.8306   5  12   3.7756   4.3462   2.8575  -3.3353   2.9138  -2.5044   0.00    0.0
2019/02/11 09:28:04.000   4280209.5394  -4034390.3847  -2458255.0528   5  12   3.7751   4.3454   2.8571  -3.3343   2.9131  -2.5036   0.00    0.0
2019/02/11 09:28:29.000   4280220.1504  -4034421.1217  -2458269.9864   5  12   3.7632   4.3235   2.8465  -3.3113   2.8937  -2.4852   0.00    0.0
2019/02/11 09:28:38.000   4280226.9589  -4034433.1396  -2458269.3422   5  12   3.7590   4.3157   2.8428  -3.3031   2.8867  -2.4786   0.00    0.0
2019/02/11 09:28:44.000   4280224.9589  -4034422.6949  -2458271.5958   5  12   3.7562   4.3105   2.8403  -3.2976   2.8821  -2.4742   0.00    0.0
2019/02/11 09:29:01.000   4280225.7440  -4034416.4147  -2458267.4357   5  12   3.7484   4.2959   2.8333  -3.2822   2.8691  -2.4618   0.00    0.0
2019/02/11 09:29:03.000   4280233.1709  -4034418.8610  -2458277.9885   5  12   3.7475   4.2942   2.8324  -3.2804   2.8676  -2.4603   0.00    0.0
2019/02/11 09:29:04.000   4280217.5876  -4034412.4246  -2458267.5785   5  12   3.7470   4.2934   2.8320  -3.2795   2.8668  -2.4596   0.00    0.0
2019/02/11 09:29:05.000   4280212.2358  -4034406.8064  -2458260.1186   5  12   3.7466   4.2925   2.8316  -3.2786   2.8661  -2.4589   0.00    0.0
2019/02/11 09:29:13.000   4280212.9810  -4034405.0834  -2458266.1359   5  11   4.3254   4.2895   2.8694  -3.3309   2.8752  -2.6581   0.00    0.0
2019/02/11 09:29:37.000   4280232.8647  -4034447.3721  -2458276.0852   5  12   3.7322   4.2654   2.8186  -3.2499   2.8418  -2.4357   0.00    0.0
2019/02/11 09:29:52.000   4280219.6022  -4034439.7783  -2458285.5407   5  11   3.9845   4.4976   3.6413  -3.5416   3.3759  -3.0246   0.00    0.0
2019/02/11 09:29:53.000   4280223.4250  -4034421.0950  -2458262.6329   5  12   3.7251   4.2521   2.8122  -3.2356   2.8299  -2.4242   0.00    0.0
2019/02/11 09:29:54.000   4280230.3148  -4034431.9924  -2458270.9828   5  12   3.7247   4.2512   2.8118  -3.2347   2.8291  -2.4235   0.00    0.0
2019/02/11 09:29:56.000   4280220.6735  -4034434.8475  -2458277.7625   5  12   3.7238   4.2496   2.8111  -3.2330   2.8276  -2.4221   0.00    0.0
2019/02/11 09:29:58.000   4280222.5852  -4034435.2480  -2458275.7178   5  12   3.7230   4.2479   2.8103  -3.2312   2.8261  -2.4207   0.00    0.0
2019/02/11 09:30:00.000   4280220.3154  -4034424.2731  -2458266.6759   5  12   3.7221   4.2462   2.8095  -3.2294   2.8246  -2.4192   0.00    0.0
2019/02/11 09:30:01.000   4280212.9632  -4034425.9517  -2458264.1380   5  12   3.7217   4.2454   2.8091  -3.2285   2.8239  -2.4185   0.00    0.0
2019/02/11 09:30:03.000   4280220.4141  -4034423.7034  -2458267.3532   5  12   3.7208   4.2437   2.8083  -3.2268   2.8224  -2.4171   0.00    0.0
2019/02/11 09:30:04.000   4280218.5708  -4034425.7040  -2458266.4666   5  12   3.7204   4.2429   2.8079  -3.2259   2.8217  -2.4164   0.00    0.0
2019/02/11 09:30:09.000   4280216.5481  -4034421.6020  -2458277.2215   5  11   3.9768   4.4838   3.6365  -3.5270   3.3648  -3.0140   0.00    0.0
2019/02/11 09:30:12.000   4280210.1777  -4034411.9797  -2458263.8958   5  11   3.9754   4.4813   3.6356  -3.5244   3.3629  -3.0122   0.00    0.0
2019/02/11 09:30:14.000   4280221.4426  -4034415.8390  -2458270.4293   5  11   3.9745   4.4797   3.6350  -3.5227   3.3616  -3.0109   0.00    0.0
2019/02/11 09:30:16.000   4280215.2740  -4034417.5950  -2458269.0113   5  11   3.9736   4.4781   3.6345  -3.5210   3.3603  -3.0097   0.00    0.0
2019/02/11 09:30:18.000   4280218.4021  -4034421.7154  -2458273.3192   5  11   3.9727   4.4765   3.6339  -3.5193   3.3590  -3.0084   0.00    0.0
2019/02/11 09:30:19.000   4280220.1632  -4034413.2884  -2458267.0145   5  11   3.9722   4.4757   3.6336  -3.5185   3.3584  -3.0078   0.00    0.0
2019/02/11 09:30:23.000   4280210.5325  -4034404.2367  -2458262.1026   5  12   3.9701   4.4345   3.5778  -3.5189   3.4098  -3.0004   0.00    0.0
2019/02/11 09:30:26.000   4280208.4505  -4034395.8237  -2458258.7776   5  12   3.9688   4.4319   3.5771  -3.5163   3.4079  -2.9987   0.00    0.0
2019/02/11 09:30:28.000   4280215.7516  -4034413.1234  -2458267.8174   5  12   3.9679   4.4302   3.5766  -3.5146   3.4066  -2.9975   0.00    0.0
2019/02/11 09:30:37.000   4280209.5996  -4034401.1154  -2458250.5491   5  12   3.9639   4.4224   3.5746  -3.5068   3.4010  -2.9921   0.00    0.0
2019/02/11 09:30:40.000   4280203.7989  -4034402.0166  -2458253.4361   5  12   3.9625   4.4199   3.5739  -3.5042   3.3991  -2.9903   0.00    0.0
2019/02/11 09:30:41.000   4280215.0025  -4034409.6328  -2458263.6598   5  12   3.9621   4.4190   3.5736  -3.5033   3.3985  -2.9897   0.00    0.0
2019/02/11 09:30:47.000   4280220.8454  -4034417.1897  -2458261.6133   5  12   3.9594   4.4139   3.5723  -3.4981   3.3947  -2.9862   0.00    0.0
2019/02/11 09:30:52.000   4280228.7929  -4034418.5236  -2458259.1357   5  12   3.9572   4.4096   3.5711  -3.4938   3.3916  -2.9832   0.00    0.0
2019/02/11 09:30:59.000   4280225.6703  -4034423.6725  -2458267.3805   5  12   3.9541   4.4037   3.5695  -3.4878   3.3872  -2.9790   0.00    0.0
2019/02/11 09:31:00.000   4280228.9987  -4034418.9465  -2458266.7764   5  12   3.9537   4.4028   3.5693  -3.4869   3.3865  -2.9784   0.00    0.0
2019/02/11 09:31:08.000   4280229.3957  -4034442.2756  -2458271.5160   5  12   3.9502   4.3960   3.5674  -3.4800   3.3815  -2.9737   0.00    0.0
2019/02/11 09:31:12.000   4280223.0763  -4034433.7691  -2458269.8990   5  12   3.9484   4.3926   3.5665  -3.4766   3.3790  -2.9713   0.00    0.0
2019/02/11 09:31:13.000   4280237.7005  -4034443.5000  -2458272.1839   5  12   3.9480   4.3918   3.5662  -3.4757   3.3784  -2.9707   0.00    0.0
2019/02/11 09:31:39.000   4280208.5056  -4034416.8453  -2458259.7185   5  12   4.0768   5.2659   2.8953  -3.9481   3.2668  -2.6646   0.00    0.0
2019/02/11 09:31:42.000   4280229.8013  -4034416.6273  -2458266.5488   5  12   4.0746   5.2613   2.8938  -3.9440   3.2636  -2.6618   0.00    0.0
2019/02/11 09:31:51.000   4280210.7973  -4034407.3276  -2458256.0677   5  12   4.0681   5.2478   2.8892  -3.9319   3.2539  -2.6533   0.00    0.0
2019/02/11 09:31:52.000   4280226.1907  -4034414.3290  -2458256.7341   5  12   4.0674   5.2463   2.8887  -3.9306   3.2528  -2.6524   0.00    0.0
2019/02/11 09:32:11.000   4280228.0548  -4034424.0387  -2458276.4821   5  12   4.2417   4.0547   2.7867  -3.1484   2.7796  -2.5345   0.00    0.0
2019/02/11 09:32:15.000   4280215.3820  -4034423.9229  -2458264.4805   5  11   4.4300   4.3408   3.5665  -3.4480   3.3439  -3.0446   0.00    0.0
2019/02/11 09:32:18.000   4280223.7508  -4034427.0261  -2458259.4765   5  11   4.4287   4.3383   3.5658  -3.4452   3.3420  -3.0430   0.00    0.0
2019/02/11 09:32:20.000   4280221.7938  -4034421.2289  -2458273.0570   5  11   4.4279   4.3366   3.5654  -3.4433   3.3407  -3.0418   0.00    0.0
2019/02/11 09:32:25.000   4280236.4939  -4034436.9302  -2458267.8937   5  11   4.4257   4.3325   3.5643  -3.4387   3.3376  -3.0390   0.00    0.0
2019/02/11 09:32:31.000   4280216.4189  -4034432.1811  -2458277.3332   5  12   3.9148   4.3268   3.5484  -3.4094   3.3300  -2.9244   0.00    0.0
2019/02/11 09:32:32.000   4280224.5427  -4034423.6931  -2458259.4733   5  12   3.9144   4.3260   3.5481  -3.4086   3.3294  -2.9238   0.00    0.0
2019/02/11 09:33:18.000   4280221.9726  -4034406.1771  -2458260.3014   5  13   3.6382   3.9960   2.7273  -3.0314   2.7184  -2.2919   0.00    0.0
2019/02/11 09:33:26.000   4280208.4562  -4034419.5690  -2458270.2230   5  13   3.6353   3.9896   2.7246  -3.0246   2.7128  -2.2865   0.00    0.0
2019/02/11 09:33:28.000   4280205.5685  -4034417.8155  -2458261.8411   5  13   3.6346   3.9880   2.7239  -3.0230   2.7114  -2.2852   0.00    0.0
2019/02/11 09:33:32.000   4280229.8561  -4034429.0605  -2458272.3659   5  13   3.6332   3.9848   2.7226  -3.0196   2.7087  -2.2825   0.00    0.0
2019/02/11 09:33:36.000   4280216.1552  -4034421.8911  -2458271.8094   5  13   3.6317   3.9816   2.7213  -3.0163   2.7059  -2.2798   0.00    0.0
2019/02/11 09:33:40.000   4280230.1476  -4034429.3983  -2458278.6677   5  13   3.6303   3.9784   2.7200  -3.0129   2.7032  -2.2771   0.00    0.0
2019/02/11 09:33:42.000   4280240.0478  -4034442.0250  -2458282.4620   5  13   3.6296   3.9768   2.7193  -3.0112   2.7018  -2.2758   0.00    0.0
2019/02/11 09:33:43.000   4280233.2742  -4034434.2040  -2458268.3527   5  13   3.6293   3.9760   2.7190  -3.0104   2.7011  -2.2751   0.00    0.0
2019/02/11 09:33:50.000   4280215.6826  -4034424.3600  -2458267.2470   5  13   3.6268   3.9705   2.7167  -3.0046   2.6963  -2.2705   0.00    0.0
2019/02/11 09:33:54.000   4280232.1487  -4034420.4199  -2458269.5562   5  13   3.6255   3.9673   2.7154  -3.0012   2.6936  -2.2678   0.00    0.0
2019/02/11 09:34:00.000   4280221.8891  -4034417.5399  -2458265.6678   5  13   3.6234   3.9626   2.7134  -2.9963   2.6895  -2.2638   0.00    0.0
2019/02/11 09:34:10.000   4280236.2231  -4034437.4212  -2458273.5211   5  12   3.9747   5.0482   2.8225  -3.7520   3.1098  -2.5277   0.00    0.0
2019/02/11 09:34:11.000   4280226.3343  -4034414.3748  -2458267.9655   5  12   3.9740   5.0468   2.8221  -3.7508   3.1088  -2.5268   0.00    0.0
2019/02/11 09:34:16.000   4280226.6048  -4034426.5146  -2458270.9546   5  12   3.9709   5.0400   2.8198  -3.7446   3.1039  -2.5224   0.00    0.0
