% program   : RTKPOST ver.2.4.2
% inp file  : D:\Google Drive\UERJ\_Projeto Final\Python\tcc-guilherme\20190212_Sta91500doppleravg_Smoothed.19o
% inp file  : D:\Google Drive\UERJ\_Projeto Final\20190212_Marco91500 IBGE\brdm0430.19p
% obs start : 2019/02/12 08:38:50.0 GPST (week2040 203930.0s)
% obs end   : 2019/02/12 10:17:44.0 GPST (week2040 209864.0s)
% pos mode  : single
% elev mask : 15.0 deg
% ionos opt : broadcast
% tropo opt : saastamoinen
% ephemeris : broadcast
% navi sys  : gps glonass galileo
%
% (x/y/z-ecef=WGS84,Q=1:fix,2:float,3:sbas,4:dgps,5:single,6:ppp,ns=# of satellites)
%  GPST                      x-ecef(m)      y-ecef(m)      z-ecef(m)   Q  ns   sdx(m)   sdy(m)   sdz(m)  sdxy(m)  sdyz(m)  sdzx(m) age(s)  ratio
2019/02/12 09:13:31.000   4280229.8286  -4034423.5684  -2458269.6408   5  11   4.6875   4.9506   3.1272  -4.0203   3.4836  -3.1158   0.00    0.0
2019/02/12 09:13:32.000   4280230.0813  -4034424.1498  -2458269.8434   5  11   4.6870   4.9495   3.1267  -4.0192   3.4828  -3.1151   0.00    0.0
2019/02/12 09:13:33.000   4280230.5144  -4034424.6032  -2458269.9569   5  11   4.6865   4.9483   3.1263  -4.0181   3.4819  -3.1143   0.00    0.0
2019/02/12 09:13:34.000   4280230.7458  -4034424.8771  -2458270.0417   5  11   4.6860   4.9472   3.1258  -4.0171   3.4811  -3.1136   0.00    0.0
2019/02/12 09:14:15.000   4280239.2443  -4034420.6061  -2458269.6173   5  12   4.0761   4.8872   3.0766  -3.8668   3.4233  -2.9204   0.00    0.0
2019/02/12 09:18:12.000   4280226.4648  -4034414.1223  -2458263.6498   5  10   4.8927   6.3703   3.2334  -4.6580   3.9754  -3.2654   0.00    0.0
2019/02/12 09:18:13.000   4280226.3066  -4034413.7779  -2458263.3847   5  10   4.8918   6.3683   3.2327  -4.6563   3.9740  -3.2643   0.00    0.0
2019/02/12 09:18:14.000   4280225.9716  -4034413.3983  -2458263.2121   5  10   4.8910   6.3663   3.2320  -4.6545   3.9727  -3.2632   0.00    0.0
2019/02/12 09:18:15.000   4280225.9071  -4034413.3596  -2458263.2413   5  10   4.8901   6.3643   3.2313  -4.6528   3.9713  -3.2622   0.00    0.0
2019/02/12 09:18:16.000   4280225.8302  -4034413.0202  -2458263.0995   5  10   4.8892   6.3622   3.2306  -4.6511   3.9700  -3.2611   0.00    0.0
2019/02/12 09:18:17.000   4280225.7159  -4034412.5262  -2458262.9411   5  10   4.8884   6.3602   3.2300  -4.6493   3.9686  -3.2600   0.00    0.0
2019/02/12 09:18:18.000   4280225.5655  -4034412.2180  -2458262.7415   5  10   4.8875   6.3582   3.2293  -4.6476   3.9672  -3.2590   0.00    0.0
2019/02/12 09:18:19.000   4280225.8003  -4034412.3392  -2458262.8015   5  10   4.8866   6.3562   3.2286  -4.6458   3.9659  -3.2579   0.00    0.0
2019/02/12 09:18:20.000   4280226.1525  -4034412.5926  -2458262.9671   5  10   4.8857   6.3542   3.2279  -4.6441   3.9645  -3.2568   0.00    0.0
2019/02/12 09:18:21.000   4280226.3009  -4034412.9083  -2458263.0629   5  10   4.8849   6.3521   3.2272  -4.6424   3.9632  -3.2558   0.00    0.0
2019/02/12 09:18:22.000   4280226.2758  -4034412.9443  -2458263.1358   5  10   4.8840   6.3501   3.2265  -4.6406   3.9618  -3.2547   0.00    0.0
2019/02/12 09:18:24.000   4280223.6688  -4034405.8829  -2458261.5998   5  11   4.5391   4.6266   2.9949  -3.7004   3.2367  -2.9030   0.00    0.0
2019/02/12 09:18:25.000   4280226.1207  -4034411.4741  -2458263.2855   5  11   4.5386   4.6256   2.9945  -3.6993   3.2359  -2.9023   0.00    0.0
2019/02/12 09:18:45.000   4280237.0914  -4034434.8537  -2458269.4071   5  11   4.5286   4.6042   2.9857  -3.6773   3.2192  -2.8875   0.00    0.0
2019/02/12 09:18:46.000   4280237.0222  -4034434.9168  -2458269.3975   5  11   4.5281   4.6032   2.9852  -3.6762   3.2184  -2.8867   0.00    0.0
2019/02/12 09:18:47.000   4280236.8656  -4034435.0964  -2458269.5040   5  11   4.5276   4.6021   2.9848  -3.6751   3.2176  -2.8860   0.00    0.0
2019/02/12 09:18:48.000   4280236.8399  -4034435.4127  -2458269.6786   5  11   4.5271   4.6011   2.9844  -3.6741   3.2168  -2.8852   0.00    0.0
2019/02/12 09:18:49.000   4280237.2112  -4034435.9943  -2458270.1813   5  11   4.5266   4.6000   2.9839  -3.6730   3.2159  -2.8845   0.00    0.0
2019/02/12 09:18:50.000   4280237.5151  -4034436.5518  -2458270.6698   5  11   4.5261   4.5989   2.9835  -3.6719   3.2151  -2.8838   0.00    0.0
2019/02/12 09:19:55.000   4280231.1249  -4034429.6443  -2458268.0356   5  11   4.4939   4.5308   2.9553  -3.6007   3.1615  -2.8356   0.00    0.0
2019/02/12 09:19:56.000   4280231.3259  -4034430.2442  -2458268.3551   5  11   4.4934   4.5297   2.9549  -3.5996   3.1607  -2.8349   0.00    0.0
2019/02/12 09:19:57.000   4280231.1474  -4034430.4352  -2458268.4766   5  11   4.4929   4.5287   2.9545  -3.5985   3.1599  -2.8341   0.00    0.0
2019/02/12 09:19:58.000   4280231.1856  -4034430.6020  -2458268.6955   5  11   4.4924   4.5277   2.9540  -3.5974   3.1591  -2.8334   0.00    0.0
2019/02/12 09:19:59.000   4280231.4251  -4034430.6630  -2458268.8406   5  11   4.4919   4.5266   2.9536  -3.5963   3.1583  -2.8327   0.00    0.0
2019/02/12 09:20:00.000   4280231.6541  -4034430.5724  -2458268.9269   5  11   4.4914   4.5256   2.9532  -3.5952   3.1574  -2.8319   0.00    0.0
2019/02/12 09:20:01.000   4280231.6498  -4034430.5983  -2458269.0394   5  11   4.4909   4.5246   2.9527  -3.5941   3.1566  -2.8312   0.00    0.0
2019/02/12 09:20:02.000   4280231.6000  -4034430.6708  -2458269.0848   5  11   4.4904   4.5235   2.9523  -3.5930   3.1558  -2.8304   0.00    0.0
2019/02/12 09:20:03.000   4280231.6116  -4034431.0637  -2458269.3918   5  11   4.4899   4.5225   2.9519  -3.5919   3.1550  -2.8297   0.00    0.0
2019/02/12 09:20:04.000   4280231.5227  -4034431.1631  -2458269.5609   5  11   4.4895   4.5215   2.9515  -3.5908   3.1542  -2.8290   0.00    0.0
2019/02/12 09:20:05.000   4280231.5032  -4034431.3535  -2458269.5438   5  11   4.4890   4.5204   2.9510  -3.5898   3.1533  -2.8282   0.00    0.0
2019/02/12 09:20:06.000   4280231.6270  -4034431.7977  -2458269.5770   5  11   4.4885   4.5194   2.9506  -3.5887   3.1525  -2.8275   0.00    0.0
2019/02/12 09:20:07.000   4280231.5299  -4034432.1716  -2458269.6977   5  11   4.4880   4.5184   2.9502  -3.5876   3.1517  -2.8267   0.00    0.0
2019/02/12 09:20:08.000   4280231.3859  -4034432.4307  -2458269.9016   5  11   4.4875   4.5173   2.9497  -3.5865   3.1509  -2.8260   0.00    0.0
2019/02/12 09:20:11.000   4280231.4644  -4034432.8285  -2458270.2486   5  11   4.4860   4.5142   2.9485  -3.5832   3.1484  -2.8238   0.00    0.0
2019/02/12 09:20:12.000   4280231.5165  -4034432.6899  -2458270.0942   5  11   4.4855   4.5132   2.9480  -3.5821   3.1476  -2.8230   0.00    0.0
2019/02/12 09:20:13.000   4280231.2933  -4034432.3309  -2458269.7254   5  11   4.4851   4.5122   2.9476  -3.5810   3.1468  -2.8223   0.00    0.0
2019/02/12 09:20:14.000   4280231.3238  -4034432.4429  -2458269.7036   5  11   4.4846   4.5112   2.9472  -3.5799   3.1460  -2.8216   0.00    0.0
2019/02/12 09:20:15.000   4280231.3753  -4034432.6469  -2458269.7647   5  11   4.4841   4.5101   2.9468  -3.5788   3.1452  -2.8208   0.00    0.0
2019/02/12 09:20:24.000   4280229.8393  -4034431.8520  -2458269.3672   5  11   4.4797   4.5009   2.9429  -3.5690   3.1379  -2.8142   0.00    0.0
2019/02/12 09:20:25.000   4280229.7669  -4034431.9703  -2458269.3870   5  11   4.4792   4.4998   2.9425  -3.5679   3.1370  -2.8134   0.00    0.0
2019/02/12 09:20:26.000   4280229.5121  -4034431.8777  -2458269.2181   5  11   4.4787   4.4988   2.9421  -3.5668   3.1362  -2.8127   0.00    0.0
2019/02/12 09:20:43.000   4280224.4681  -4034420.5748  -2458264.6747   5  10   4.7651   6.0746   3.1335  -4.3994   3.7751  -3.1066   0.00    0.0
2019/02/12 09:20:44.000   4280224.6484  -4034420.5124  -2458265.1368   5  10   4.7643   6.0727   3.1328  -4.3977   3.7738  -3.1056   0.00    0.0
2019/02/12 09:20:45.000   4280224.8950  -4034420.5672  -2458265.6737   5  10   4.7635   6.0708   3.1322  -4.3961   3.7725  -3.1046   0.00    0.0
2019/02/12 09:20:46.000   4280224.9761  -4034420.6983  -2458266.0108   5  10   4.7626   6.0689   3.1316  -4.3944   3.7712  -3.1035   0.00    0.0
2019/02/12 09:20:47.000   4280224.8322  -4034420.7475  -2458266.0859   5  10   4.7618   6.0670   3.1309  -4.3927   3.7699  -3.1025   0.00    0.0
2019/02/12 09:20:48.000   4280224.5700  -4034420.4689  -2458265.8843   5  10   4.7610   6.0651   3.1303  -4.3910   3.7686  -3.1015   0.00    0.0
2019/02/12 09:20:49.000   4280224.4110  -4034420.6043  -2458265.7227   5  10   4.7602   6.0632   3.1296  -4.3893   3.7673  -3.1004   0.00    0.0
2019/02/12 09:20:50.000   4280226.3265  -4034425.6284  -2458266.9049   5  11   4.4671   4.4743   2.9319  -3.5407   3.1168  -2.7949   0.00    0.0
2019/02/12 09:21:13.000   4280227.4644  -4034427.6655  -2458266.5351   5  11   4.4561   4.4511   2.9223  -3.5157   3.0982  -2.7779   0.00    0.0
2019/02/12 09:21:14.000   4280227.6349  -4034427.9839  -2458266.7009   5  11   4.4556   4.4501   2.9219  -3.5147   3.0974  -2.7772   0.00    0.0
2019/02/12 09:21:15.000   4280227.7988  -4034428.1905  -2458266.9227   5  11   4.4551   4.4491   2.9215  -3.5136   3.0966  -2.7764   0.00    0.0
2019/02/12 09:21:16.000   4280228.0514  -4034428.3065  -2458267.0775   5  11   4.4547   4.4480   2.9211  -3.5125   3.0958  -2.7757   0.00    0.0
2019/02/12 09:21:17.000   4280228.2326  -4034428.4503  -2458267.2471   5  11   4.4542   4.4470   2.9206  -3.5114   3.0950  -2.7750   0.00    0.0
2019/02/12 09:21:18.000   4280228.2326  -4034428.8250  -2458267.4076   5  11   4.4537   4.4460   2.9202  -3.5103   3.0942  -2.7742   0.00    0.0
2019/02/12 09:21:19.000   4280228.7888  -4034429.5588  -2458267.7071   5  11   4.4532   4.4450   2.9198  -3.5092   3.0934  -2.7735   0.00    0.0
2019/02/12 09:21:20.000   4280229.2161  -4034430.1103  -2458267.9028   5  11   4.4527   4.4440   2.9194  -3.5082   3.0926  -2.7727   0.00    0.0
2019/02/12 09:21:21.000   4280229.0951  -4034430.5124  -2458267.9951   5  11   4.4523   4.4430   2.9190  -3.5071   3.0918  -2.7720   0.00    0.0
2019/02/12 09:21:22.000   4280228.8581  -4034430.6121  -2458267.8803   5  11   4.4518   4.4420   2.9186  -3.5060   3.0910  -2.7713   0.00    0.0
2019/02/12 09:21:23.000   4280228.9402  -4034430.6195  -2458267.8233   5  11   4.4513   4.4410   2.9181  -3.5049   3.0902  -2.7705   0.00    0.0
2019/02/12 09:21:42.000   4280230.9864  -4034432.4940  -2458269.2860   5  11   4.4423   4.4220   2.9103  -3.4843   3.0750  -2.7565   0.00    0.0
2019/02/12 09:21:43.000   4280230.5242  -4034432.5115  -2458269.1057   5  11   4.4418   4.4210   2.9099  -3.4833   3.0742  -2.7558   0.00    0.0
2019/02/12 09:21:44.000   4280230.4548  -4034432.7869  -2458269.0529   5  11   4.4414   4.4200   2.9095  -3.4822   3.0734  -2.7550   0.00    0.0
2019/02/12 09:21:45.000   4280230.5732  -4034433.1568  -2458269.1441   5  11   4.4409   4.4191   2.9091  -3.4811   3.0726  -2.7543   0.00    0.0
2019/02/12 09:21:46.000   4280230.6871  -4034433.3472  -2458269.1254   5  11   4.4404   4.4181   2.9086  -3.4800   3.0718  -2.7536   0.00    0.0
2019/02/12 09:21:47.000   4280230.6957  -4034433.3010  -2458269.0707   5  11   4.4400   4.4171   2.9082  -3.4789   3.0710  -2.7528   0.00    0.0
2019/02/12 09:21:48.000   4280230.4442  -4034432.8624  -2458268.8957   5  11   4.4395   4.4161   2.9078  -3.4779   3.0702  -2.7521   0.00    0.0
2019/02/12 09:21:49.000   4280229.9894  -4034432.2728  -2458268.7654   5  11   4.4390   4.4151   2.9074  -3.4768   3.0694  -2.7514   0.00    0.0
2019/02/12 09:21:50.000   4280229.4436  -4034431.7071  -2458268.5467   5  11   4.4385   4.4141   2.9070  -3.4757   3.0686  -2.7506   0.00    0.0
2019/02/12 09:21:51.000   4280229.0240  -4034431.1906  -2458268.3483   5  11   4.4381   4.4131   2.9066  -3.4746   3.0678  -2.7499   0.00    0.0
2019/02/12 09:21:52.000   4280228.9037  -4034430.6978  -2458268.2560   5  11   4.4376   4.4121   2.9062  -3.4735   3.0670  -2.7491   0.00    0.0
2019/02/12 09:22:21.000   4280230.3849  -4034428.5167  -2458268.1719   5  11   4.4241   4.3835   2.8944  -3.4423   3.0440  -2.7278   0.00    0.0
2019/02/12 09:22:22.000   4280230.5828  -4034428.5181  -2458267.9289   5  11   4.4236   4.3826   2.8940  -3.4412   3.0432  -2.7271   0.00    0.0
2019/02/12 09:22:23.000   4280230.8405  -4034428.7004  -2458267.7584   5  11   4.4231   4.3816   2.8936  -3.4402   3.0424  -2.7263   0.00    0.0
2019/02/12 09:22:24.000   4280230.9727  -4034428.8538  -2458267.7615   5  11   4.4227   4.3806   2.8931  -3.4391   3.0416  -2.7256   0.00    0.0
2019/02/12 09:22:25.000   4280230.9986  -4034428.8398  -2458267.5938   5  11   4.4222   4.3796   2.8927  -3.4380   3.0408  -2.7249   0.00    0.0
2019/02/12 09:22:26.000   4280230.9472  -4034428.8371  -2458267.4165   5  11   4.4218   4.3787   2.8923  -3.4369   3.0401  -2.7241   0.00    0.0
2019/02/12 09:22:27.000   4280230.7747  -4034428.4736  -2458267.0945   5  11   4.4213   4.3777   2.8919  -3.4359   3.0393  -2.7234   0.00    0.0
2019/02/12 09:22:28.000   4280230.5216  -4034428.2407  -2458266.9226   5  11   4.4208   4.3767   2.8915  -3.4348   3.0385  -2.7227   0.00    0.0
2019/02/12 09:22:29.000   4280230.2799  -4034428.0946  -2458266.7820   5  11   4.4204   4.3757   2.8911  -3.4337   3.0377  -2.7219   0.00    0.0
2019/02/12 09:22:30.000   4280230.0496  -4034428.0131  -2458266.7618   5  11   4.4199   4.3748   2.8907  -3.4326   3.0369  -2.7212   0.00    0.0
2019/02/12 09:22:31.000   4280229.8872  -4034428.1813  -2458267.0594   5  11   4.4194   4.3738   2.8903  -3.4316   3.0361  -2.7205   0.00    0.0
2019/02/12 09:22:32.000   4280229.8095  -4034428.3927  -2458267.3102   5  11   4.4190   4.3728   2.8899  -3.4305   3.0353  -2.7197   0.00    0.0
2019/02/12 09:22:33.000   4280229.8067  -4034428.6108  -2458267.3445   5  11   4.4185   4.3718   2.8895  -3.4294   3.0345  -2.7190   0.00    0.0
2019/02/12 09:22:34.000   4280229.7505  -4034428.6873  -2458267.1353   5  11   4.4181   4.3709   2.8891  -3.4283   3.0338  -2.7183   0.00    0.0
2019/02/12 09:22:35.000   4280229.7755  -4034428.4350  -2458266.7789   5  11   4.4176   4.3699   2.8887  -3.4273   3.0330  -2.7175   0.00    0.0
2019/02/12 09:22:36.000   4280230.0027  -4034428.2645  -2458266.6010   5  11   4.4171   4.3689   2.8883  -3.4262   3.0322  -2.7168   0.00    0.0
2019/02/12 09:22:37.000   4280230.2804  -4034428.2481  -2458266.7044   5  11   4.4167   4.3679   2.8879  -3.4251   3.0314  -2.7161   0.00    0.0
2019/02/12 09:22:38.000   4280230.4395  -4034428.3403  -2458266.9510   5  11   4.4162   4.3670   2.8875  -3.4241   3.0306  -2.7153   0.00    0.0
2019/02/12 09:22:39.000   4280230.2668  -4034428.2793  -2458266.9520   5  11   4.4158   4.3660   2.8871  -3.4230   3.0298  -2.7146   0.00    0.0
2019/02/12 09:23:22.000   4280231.0199  -4034423.3570  -2458267.2470   5  11   4.3962   4.3246   2.8700  -3.3770   2.9963  -2.6831   0.00    0.0
2019/02/12 09:23:23.000   4280231.0012  -4034423.4734  -2458267.3160   5  11   4.3958   4.3237   2.8696  -3.3760   2.9955  -2.6824   0.00    0.0
2019/02/12 09:23:24.000   4280231.1325  -4034423.4249  -2458267.1868   5  11   4.3953   4.3227   2.8692  -3.3749   2.9947  -2.6816   0.00    0.0
2019/02/12 09:23:25.000   4280231.1730  -4034423.2209  -2458267.1770   5  11   4.3949   4.3218   2.8688  -3.3738   2.9939  -2.6809   0.00    0.0
2019/02/12 09:23:26.000   4280231.4075  -4034422.9213  -2458267.1070   5  11   4.3944   4.3208   2.8684  -3.3728   2.9932  -2.6802   0.00    0.0
2019/02/12 09:23:27.000   4280231.8432  -4034422.9580  -2458267.1453   5  11   4.3940   4.3199   2.8680  -3.3717   2.9924  -2.6794   0.00    0.0
2019/02/12 09:23:28.000   4280231.9284  -4034422.9406  -2458267.1728   5  11   4.3935   4.3189   2.8677  -3.3706   2.9916  -2.6787   0.00    0.0
2019/02/12 09:23:29.000   4280231.6346  -4034422.7268  -2458267.0693   5  11   4.3931   4.3180   2.8673  -3.3696   2.9908  -2.6780   0.00    0.0
2019/02/12 09:23:30.000   4280231.1358  -4034422.5251  -2458266.8671   5  11   4.3926   4.3170   2.8669  -3.3685   2.9901  -2.6772   0.00    0.0
2019/02/12 09:23:31.000   4280230.5306  -4034422.4694  -2458266.6964   5  11   4.3922   4.3161   2.8665  -3.3674   2.9893  -2.6765   0.00    0.0
2019/02/12 09:23:32.000   4280229.9554  -4034422.2640  -2458266.4389   5  11   4.3917   4.3151   2.8661  -3.3664   2.9885  -2.6758   0.00    0.0
2019/02/12 09:23:33.000   4280229.4653  -4034421.9422  -2458266.1330   5  11   4.3913   4.3142   2.8657  -3.3653   2.9877  -2.6751   0.00    0.0
2019/02/12 09:23:34.000   4280229.0843  -4034421.7172  -2458265.9975   5  11   4.3908   4.3132   2.8653  -3.3643   2.9870  -2.6743   0.00    0.0
2019/02/12 09:23:35.000   4280228.9035  -4034421.8644  -2458266.0671   5  11   4.3904   4.3123   2.8649  -3.3632   2.9862  -2.6736   0.00    0.0
2019/02/12 09:23:36.000   4280228.8781  -4034421.9929  -2458266.1807   5  11   4.3899   4.3113   2.8645  -3.3621   2.9854  -2.6729   0.00    0.0
2019/02/12 09:23:37.000   4280228.8250  -4034421.7719  -2458266.0074   5  11   4.3895   4.3104   2.8641  -3.3611   2.9846  -2.6721   0.00    0.0
2019/02/12 09:23:38.000   4280228.7719  -4034421.4904  -2458265.7753   5  11   4.3890   4.3094   2.8637  -3.3600   2.9839  -2.6714   0.00    0.0
2019/02/12 09:23:39.000   4280228.8123  -4034421.4446  -2458265.6616   5  11   4.3886   4.3085   2.8634  -3.3589   2.9831  -2.6707   0.00    0.0
2019/02/12 09:23:40.000   4280228.8558  -4034421.3329  -2458265.5565   5  11   4.3882   4.3076   2.8630  -3.3579   2.9823  -2.6700   0.00    0.0
2019/02/12 09:23:41.000   4280228.8831  -4034421.2798  -2458265.5142   5  11   4.3877   4.3066   2.8626  -3.3568   2.9816  -2.6692   0.00    0.0
2019/02/12 09:23:42.000   4280228.9602  -4034421.1983  -2458265.5535   5  11   4.3873   4.3057   2.8622  -3.3558   2.9808  -2.6685   0.00    0.0
2019/02/12 09:23:43.000   4280229.0987  -4034421.1618  -2458265.5667   5  11   4.3868   4.3047   2.8618  -3.3547   2.9800  -2.6678   0.00    0.0
2019/02/12 09:23:52.000   4280227.7446  -4034420.0649  -2458265.0995   5  11   4.3828   4.2962   2.8583  -3.3451   2.9731  -2.6612   0.00    0.0
2019/02/12 09:23:57.000   4280227.6895  -4034420.2270  -2458264.9038   5  11   4.3806   4.2916   2.8564  -3.3399   2.9692  -2.6576   0.00    0.0
2019/02/12 09:23:58.000   4280227.3949  -4034420.1220  -2458264.7181   5  11   4.3802   4.2906   2.8560  -3.3388   2.9685  -2.6568   0.00    0.0
2019/02/12 09:23:59.000   4280226.9696  -4034419.7707  -2458264.4096   5  11   4.3797   4.2897   2.8556  -3.3377   2.9677  -2.6561   0.00    0.0
2019/02/12 09:24:00.000   4280226.7873  -4034419.4529  -2458264.1117   5  11   4.3793   4.2887   2.8552  -3.3367   2.9669  -2.6554   0.00    0.0
2019/02/12 09:24:01.000   4280226.5257  -4034419.1624  -2458263.9356   5  11   4.3789   4.2878   2.8548  -3.3356   2.9662  -2.6547   0.00    0.0
2019/02/12 09:24:02.000   4280226.3415  -4034418.6391  -2458263.7288   5  11   4.3784   4.2869   2.8544  -3.3346   2.9654  -2.6539   0.00    0.0
2019/02/12 09:24:03.000   4280226.1841  -4034418.2422  -2458263.6492   5  11   4.3780   4.2859   2.8540  -3.3335   2.9647  -2.6532   0.00    0.0
2019/02/12 09:24:04.000   4280226.0473  -4034417.7641  -2458263.5918   5  11   4.3775   4.2850   2.8537  -3.3324   2.9639  -2.6525   0.00    0.0
2019/02/12 09:24:05.000   4280225.7634  -4034417.2494  -2458263.6246   5  11   4.3771   4.2841   2.8533  -3.3314   2.9631  -2.6518   0.00    0.0
2019/02/12 09:24:32.000   4280224.8058  -4034416.3442  -2458265.0170   5  11   4.3653   4.2590   2.8430  -3.3029   2.9425  -2.6322   0.00    0.0
2019/02/12 09:24:39.000   4280225.1625  -4034415.4479  -2458264.6950   5  11   4.3623   4.2526   2.8403  -3.2955   2.9372  -2.6271   0.00    0.0
2019/02/12 09:24:40.000   4280225.3676  -4034415.6231  -2458264.9137   5  11   4.3619   4.2517   2.8399  -3.2945   2.9365  -2.6264   0.00    0.0
2019/02/12 09:24:41.000   4280225.7532  -4034415.8167  -2458265.0933   5  11   4.3615   4.2508   2.8396  -3.2934   2.9357  -2.6256   0.00    0.0
2019/02/12 09:24:42.000   4280226.1812  -4034415.9473  -2458265.2135   5  11   4.3610   4.2498   2.8392  -3.2924   2.9350  -2.6249   0.00    0.0
2019/02/12 09:24:43.000   4280226.3644  -4034415.8882  -2458265.2474   5  11   4.3606   4.2489   2.8388  -3.2913   2.9342  -2.6242   0.00    0.0
2019/02/12 09:24:44.000   4280226.4025  -4034415.9009  -2458265.2364   5  11   4.3602   4.2480   2.8384  -3.2903   2.9335  -2.6235   0.00    0.0
2019/02/12 09:24:45.000   4280226.6140  -4034416.1029  -2458265.5300   5  11   4.3597   4.2471   2.8380  -3.2892   2.9327  -2.6227   0.00    0.0
2019/02/12 09:24:46.000   4280226.4707  -4034416.1971  -2458265.7328   5  11   4.3593   4.2462   2.8377  -3.2882   2.9320  -2.6220   0.00    0.0
2019/02/12 09:24:47.000   4280226.0289  -4034416.1414  -2458265.7463   5  11   4.3589   4.2453   2.8373  -3.2871   2.9312  -2.6213   0.00    0.0
2019/02/12 09:24:48.000   4280225.6861  -4034416.3291  -2458265.8530   5  11   4.3585   4.2443   2.8369  -3.2861   2.9304  -2.6206   0.00    0.0
2019/02/12 09:25:11.000   4280226.0957  -4034415.2781  -2458266.2968   5  11   4.3487   4.2234   2.8283  -3.2620   2.9132  -2.6040   0.00    0.0
2019/02/12 09:25:40.000   4280224.4855  -4034415.5474  -2458267.4351   5  11   4.3366   4.1974   2.8176  -3.2318   2.8916  -2.5831   0.00    0.0
2019/02/12 09:25:41.000   4280224.6109  -4034415.7689  -2458267.4948   5  11   4.3361   4.1965   2.8173  -3.2308   2.8908  -2.5824   0.00    0.0
2019/02/12 09:25:42.000   4280224.7882  -4034415.7978  -2458267.5692   5  11   4.3357   4.1956   2.8169  -3.2297   2.8901  -2.5817   0.00    0.0
2019/02/12 09:25:43.000   4280224.8476  -4034415.6681  -2458267.5427   5  11   4.3353   4.1947   2.8165  -3.2287   2.8893  -2.5810   0.00    0.0
2019/02/12 09:25:44.000   4280224.6905  -4034415.8038  -2458267.6267   5  11   4.3349   4.1938   2.8162  -3.2276   2.8886  -2.5802   0.00    0.0
2019/02/12 09:25:45.000   4280224.5502  -4034416.3254  -2458267.7455   5  11   4.3345   4.1930   2.8158  -3.2266   2.8879  -2.5795   0.00    0.0
2019/02/12 09:25:46.000   4280224.6330  -4034416.9664  -2458267.8887   5  11   4.3341   4.1921   2.8155  -3.2256   2.8871  -2.5788   0.00    0.0
2019/02/12 09:25:47.000   4280224.7241  -4034417.5944  -2458268.1979   5  11   4.3337   4.1912   2.8151  -3.2245   2.8864  -2.5781   0.00    0.0
2019/02/12 09:25:48.000   4280225.0580  -4034418.0906  -2458268.5239   5  11   4.3333   4.1903   2.8147  -3.2235   2.8856  -2.5774   0.00    0.0
2019/02/12 09:25:49.000   4280225.4061  -4034418.5330  -2458268.8209   5  11   4.3328   4.1894   2.8144  -3.2224   2.8849  -2.5767   0.00    0.0
2019/02/12 09:25:50.000   4280225.5141  -4034418.6966  -2458268.8833   5  11   4.3324   4.1885   2.8140  -3.2214   2.8842  -2.5759   0.00    0.0
2019/02/12 09:25:51.000   4280226.0511  -4034419.0081  -2458269.0777   5  11   4.3320   4.1876   2.8136  -3.2204   2.8834  -2.5752   0.00    0.0
2019/02/12 09:25:52.000   4280226.3738  -4034419.1159  -2458269.2440   5  11   4.3316   4.1867   2.8133  -3.2193   2.8827  -2.5745   0.00    0.0
2019/02/12 09:25:53.000   4280226.5946  -4034419.3029  -2458269.3764   5  11   4.3312   4.1859   2.8129  -3.2183   2.8819  -2.5738   0.00    0.0
2019/02/12 09:25:54.000   4280226.6261  -4034419.4257  -2458269.3087   5  11   4.3308   4.1850   2.8125  -3.2173   2.8812  -2.5731   0.00    0.0
2019/02/12 09:25:55.000   4280226.4350  -4034419.6666  -2458269.1956   5  11   4.3304   4.1841   2.8122  -3.2162   2.8805  -2.5724   0.00    0.0
2019/02/12 09:25:56.000   4280226.3181  -4034420.0155  -2458269.1396   5  11   4.3300   4.1832   2.8118  -3.2152   2.8797  -2.5716   0.00    0.0
2019/02/12 09:25:57.000   4280226.4985  -4034420.3578  -2458269.2056   5  11   4.3296   4.1823   2.8115  -3.2142   2.8790  -2.5709   0.00    0.0
2019/02/12 09:25:58.000   4280226.9345  -4034420.7788  -2458269.2935   5  11   4.3291   4.1814   2.8111  -3.2131   2.8783  -2.5702   0.00    0.0
2019/02/12 09:25:59.000   4280227.3053  -4034421.1742  -2458269.4028   5  11   4.3287   4.1806   2.8107  -3.2121   2.8775  -2.5695   0.00    0.0
2019/02/12 09:26:00.000   4280227.5732  -4034421.3355  -2458269.2996   5  11   4.3283   4.1797   2.8104  -3.2111   2.8768  -2.5688   0.00    0.0
2019/02/12 09:26:01.000   4280227.5699  -4034421.1606  -2458268.9106   5  11   4.3279   4.1788   2.8100  -3.2100   2.8761  -2.5681   0.00    0.0
2019/02/12 09:26:02.000   4280227.2185  -4034420.7983  -2458268.3910   5  11   4.3275   4.1779   2.8097  -3.2090   2.8753  -2.5674   0.00    0.0
2019/02/12 09:26:03.000   4280226.7381  -4034420.5672  -2458268.0126   5  11   4.3271   4.1770   2.8093  -3.2079   2.8746  -2.5666   0.00    0.0
2019/02/12 09:26:04.000   4280226.5010  -4034420.5257  -2458267.9345   5  11   4.3267   4.1762   2.8089  -3.2069   2.8738  -2.5659   0.00    0.0
2019/02/12 09:26:05.000   4280226.7880  -4034420.9550  -2458268.2309   5  11   4.3263   4.1753   2.8086  -3.2059   2.8731  -2.5652   0.00    0.0
2019/02/12 09:26:06.000   4280227.5097  -4034421.9318  -2458268.8944   5  11   4.3259   4.1744   2.8082  -3.2048   2.8724  -2.5645   0.00    0.0
2019/02/12 09:26:07.000   4280228.2780  -4034422.7628  -2458269.4879   5  10   4.4909   4.4631   3.5567  -3.4891   3.4204  -3.0347   0.00    0.0
2019/02/12 09:26:08.000   4280228.6385  -4034422.9980  -2458269.4946   5  10   4.4905   4.4623   3.5566  -3.4882   3.4198  -3.0341   0.00    0.0
2019/02/12 09:26:09.000   4280228.9217  -4034423.1310  -2458269.6733   5  11   4.3247   4.1718   2.8071  -3.2017   2.8702  -2.5623   0.00    0.0
2019/02/12 09:26:10.000   4280229.0849  -4034423.0786  -2458269.6263   5  11   4.3243   4.1709   2.8068  -3.2007   2.8694  -2.5616   0.00    0.0
2019/02/12 09:26:11.000   4280229.0468  -4034423.0645  -2458269.5671   5  11   4.3239   4.1700   2.8064  -3.1997   2.8687  -2.5609   0.00    0.0
2019/02/12 09:26:26.000   4280228.3914  -4034422.4404  -2458269.3045   5  11   4.3178   4.1569   2.8011  -3.1842   2.8577  -2.5502   0.00    0.0
2019/02/12 09:26:27.000   4280228.2685  -4034422.6442  -2458269.4369   5  11   4.3174   4.1560   2.8007  -3.1832   2.8570  -2.5495   0.00    0.0
2019/02/12 09:26:28.000   4280228.1026  -4034422.7950  -2458269.5743   5  11   4.3170   4.1552   2.8004  -3.1822   2.8563  -2.5488   0.00    0.0
2019/02/12 09:26:31.000   4280228.1323  -4034422.0879  -2458269.6592   5  11   4.3158   4.1526   2.7993  -3.1791   2.8541  -2.5467   0.00    0.0
2019/02/12 09:26:32.000   4280227.9846  -4034421.5503  -2458269.6683   5  11   4.3154   4.1517   2.7989  -3.1780   2.8534  -2.5459   0.00    0.0
2019/02/12 09:26:33.000   4280227.6953  -4034420.9938  -2458269.5506   5  11   4.3150   4.1508   2.7986  -3.1770   2.8527  -2.5452   0.00    0.0
2019/02/12 09:26:34.000   4280227.4678  -4034420.6823  -2458269.4917   5  11   4.3146   4.1500   2.7982  -3.1760   2.8519  -2.5445   0.00    0.0
2019/02/12 09:26:35.000   4280227.2783  -4034420.5833  -2458269.4571   5  11   4.3142   4.1491   2.7979  -3.1750   2.8512  -2.5438   0.00    0.0
2019/02/12 09:26:36.000   4280227.1896  -4034420.3774  -2458269.3814   5  11   4.3138   4.1482   2.7975  -3.1739   2.8505  -2.5431   0.00    0.0
2019/02/12 09:26:37.000   4280227.2286  -4034420.0587  -2458269.3677   5  11   4.3134   4.1474   2.7972  -3.1729   2.8497  -2.5424   0.00    0.0
2019/02/12 09:26:38.000   4280227.2450  -4034419.5783  -2458269.4361   5  10   4.5069   5.4636   2.9299  -3.8358   3.3501  -2.7572   0.00    0.0
2019/02/12 09:26:39.000   4280227.7130  -4034419.8606  -2458269.7631   5  11   4.3126   4.1456   2.7965  -3.1709   2.8483  -2.5410   0.00    0.0
2019/02/12 09:26:40.000   4280227.9516  -4034419.8138  -2458269.8425   5  11   4.3122   4.1448   2.7961  -3.1698   2.8476  -2.5403   0.00    0.0
2019/02/12 09:26:41.000   4280228.1262  -4034419.6956  -2458269.9183   5  11   4.3118   4.1439   2.7958  -3.1688   2.8468  -2.5395   0.00    0.0
2019/02/12 09:26:42.000   4280228.3892  -4034419.6155  -2458269.9599   5  11   4.3114   4.1431   2.7954  -3.1678   2.8461  -2.5388   0.00    0.0
2019/02/12 09:26:43.000   4280228.5273  -4034419.4662  -2458269.8026   5  11   4.3110   4.1422   2.7951  -3.1668   2.8454  -2.5381   0.00    0.0
2019/02/12 09:26:44.000   4280228.1728  -4034419.0549  -2458269.5589   5  11   4.3106   4.1413   2.7947  -3.1657   2.8447  -2.5374   0.00    0.0
2019/02/12 09:26:45.000   4280227.7435  -4034418.5328  -2458269.2988   5  11   4.3102   4.1405   2.7944  -3.1647   2.8439  -2.5367   0.00    0.0
2019/02/12 09:26:46.000   4280227.4612  -4034418.2321  -2458269.2011   5  11   4.3098   4.1396   2.7940  -3.1637   2.8432  -2.5360   0.00    0.0
2019/02/12 09:26:47.000   4280227.3586  -4034418.2951  -2458269.3382   5  11   4.3095   4.1388   2.7937  -3.1627   2.8425  -2.5353   0.00    0.0
2019/02/12 09:26:48.000   4280227.7269  -4034418.9467  -2458269.7982   5  10   4.5304   4.2745   2.8868  -3.3905   2.9761  -2.7282   0.00    0.0
2019/02/12 09:26:49.000   4280223.7556  -4034416.0803  -2458267.7962   5  11   4.3087   4.1370   2.7930  -3.1606   2.8411  -2.5339   0.00    0.0
2019/02/12 09:26:50.000   4280227.7704  -4034419.2698  -2458269.8129   5  11   4.3083   4.1362   2.7926  -3.1596   2.8403  -2.5331   0.00    0.0
2019/02/12 09:26:51.000   4280225.7343  -4034417.7629  -2458268.6475   5  11   4.3079   4.1353   2.7923  -3.1586   2.8396  -2.5324   0.00    0.0
2019/02/12 09:26:52.000   4280222.5824  -4034415.6566  -2458267.0528   5  11   4.3075   4.1345   2.7919  -3.1575   2.8389  -2.5317   0.00    0.0
2019/02/12 09:26:53.000   4280228.9867  -4034420.9047  -2458270.4024   5  11   4.3071   4.1336   2.7916  -3.1565   2.8382  -2.5310   0.00    0.0
2019/02/12 09:26:54.000   4280229.4397  -4034421.6669  -2458270.6849   5  11   4.3067   4.1327   2.7912  -3.1555   2.8374  -2.5303   0.00    0.0
2019/02/12 09:26:55.000   4280225.3468  -4034418.8025  -2458268.5355   5  11   4.3063   4.1319   2.7909  -3.1545   2.8367  -2.5296   0.00    0.0
2019/02/12 09:26:56.000   4280223.8069  -4034417.8149  -2458267.7189   5  11   4.3059   4.1310   2.7905  -3.1534   2.8360  -2.5289   0.00    0.0
2019/02/12 09:26:57.000   4280224.4007  -4034418.3547  -2458268.0610   5  11   4.3055   4.1302   2.7902  -3.1524   2.8353  -2.5282   0.00    0.0
2019/02/12 09:27:13.000   4280224.3698  -4034420.3367  -2458268.0919   5  11   4.2993   4.1165   2.7846  -3.1361   2.8238  -2.5169   0.00    0.0
2019/02/12 09:27:14.000   4280224.3227  -4034420.4391  -2458268.2335   5  11   4.2989   4.1157   2.7843  -3.1351   2.8231  -2.5161   0.00    0.0
2019/02/12 09:27:15.000   4280224.2653  -4034420.5195  -2458268.3061   5  11   4.2985   4.1149   2.7839  -3.1340   2.8224  -2.5154   0.00    0.0
2019/02/12 09:27:16.000   4280224.3816  -4034420.8885  -2458268.4276   5  11   4.2981   4.1140   2.7836  -3.1330   2.8216  -2.5147   0.00    0.0
2019/02/12 09:27:17.000   4280224.6142  -4034421.2385  -2458268.4873   5  11   4.2977   4.1132   2.7832  -3.1320   2.8209  -2.5140   0.00    0.0
2019/02/12 09:27:18.000   4280224.9704  -4034421.6632  -2458268.4791   5  11   4.2973   4.1123   2.7829  -3.1310   2.8202  -2.5133   0.00    0.0
2019/02/12 09:27:19.000   4280225.1839  -4034421.9859  -2458268.4737   5  11   4.2970   4.1115   2.7825  -3.1300   2.8195  -2.5126   0.00    0.0
2019/02/12 09:27:20.000   4280225.3734  -4034422.0477  -2458268.4691   5  11   4.2966   4.1106   2.7822  -3.1289   2.8188  -2.5119   0.00    0.0
2019/02/12 09:27:21.000   4280225.4987  -4034422.0679  -2458268.5341   5  11   4.2962   4.1098   2.7819  -3.1279   2.8181  -2.5112   0.00    0.0
2019/02/12 09:27:22.000   4280225.6124  -4034422.2388  -2458268.5845   5  11   4.2958   4.1089   2.7815  -3.1269   2.8174  -2.5105   0.00    0.0
2019/02/12 09:27:23.000   4280225.7768  -4034422.6537  -2458268.7890   5  11   4.2954   4.1081   2.7812  -3.1259   2.8166  -2.5098   0.00    0.0
2019/02/12 09:27:24.000   4280225.9760  -4034423.1140  -2458269.0616   5  11   4.2950   4.1072   2.7808  -3.1249   2.8159  -2.5091   0.00    0.0
2019/02/12 09:27:25.000   4280225.9180  -4034423.3053  -2458269.1054   5  11   4.2947   4.1064   2.7805  -3.1239   2.8152  -2.5084   0.00    0.0
2019/02/12 09:27:26.000   4280225.9516  -4034423.3697  -2458269.0452   5  11   4.2943   4.1056   2.7801  -3.1228   2.8145  -2.5077   0.00    0.0
2019/02/12 09:27:27.000   4280225.6197  -4034423.1326  -2458268.8006   5  11   4.2939   4.1047   2.7798  -3.1218   2.8138  -2.5070   0.00    0.0
2019/02/12 09:27:28.000   4280225.3935  -4034422.9686  -2458268.5845   5  11   4.2935   4.1039   2.7795  -3.1208   2.8131  -2.5063   0.00    0.0
2019/02/12 09:27:29.000   4280225.2712  -4034422.7925  -2458268.3944   5  11   4.2931   4.1030   2.7791  -3.1198   2.8124  -2.5056   0.00    0.0
2019/02/12 09:27:30.000   4280225.2038  -4034422.7056  -2458268.3205   5  11   4.2927   4.1022   2.7788  -3.1188   2.8117  -2.5049   0.00    0.0
2019/02/12 09:27:31.000   4280225.3892  -4034422.8077  -2458268.4155   5  11   4.2924   4.1014   2.7784  -3.1178   2.8109  -2.5041   0.00    0.0
2019/02/12 09:27:32.000   4280225.6604  -4034422.9833  -2458268.4797   5  11   4.2920   4.1005   2.7781  -3.1168   2.8102  -2.5034   0.00    0.0
2019/02/12 09:27:33.000   4280225.8366  -4034423.1285  -2458268.5673   5  11   4.2916   4.0997   2.7778  -3.1157   2.8095  -2.5027   0.00    0.0
2019/02/12 09:27:34.000   4280226.2288  -4034423.5804  -2458268.8489   5  11   4.2912   4.0988   2.7774  -3.1147   2.8088  -2.5020   0.00    0.0
2019/02/12 09:27:35.000   4280226.6269  -4034424.1352  -2458269.2637   5  11   4.2908   4.0980   2.7771  -3.1137   2.8081  -2.5013   0.00    0.0
2019/02/12 09:27:36.000   4280226.9149  -4034424.4986  -2458269.4671   5  11   4.2905   4.0972   2.7767  -3.1127   2.8074  -2.5006   0.00    0.0
2019/02/12 09:27:37.000   4280226.8409  -4034424.8843  -2458269.6771   5  11   4.2901   4.0963   2.7764  -3.1117   2.8067  -2.4999   0.00    0.0
2019/02/12 09:27:38.000   4280226.6777  -4034425.4259  -2458269.8068   5  11   4.2897   4.0955   2.7761  -3.1107   2.8060  -2.4992   0.00    0.0
2019/02/12 09:27:39.000   4280226.6189  -4034425.9816  -2458269.9337   5  11   4.2893   4.0947   2.7757  -3.1097   2.8053  -2.4985   0.00    0.0
2019/02/12 09:27:40.000   4280226.6072  -4034426.3817  -2458270.0689   5  11   4.2889   4.0938   2.7754  -3.1086   2.8046  -2.4978   0.00    0.0
2019/02/12 09:27:41.000   4280230.4585  -4034432.6424  -2458272.1053   5  10   4.5038   4.6025   2.8687  -3.5430   3.0647  -2.6900   0.00    0.0
2019/02/12 09:27:42.000   4280226.3229  -4034426.5112  -2458269.8138   5  11   4.2882   4.0921   2.7747  -3.1066   2.8031  -2.4964   0.00    0.0
2019/02/12 09:27:45.000   4280222.9602  -4034415.5140  -2458267.2086   5  10   4.4656   5.3621   2.8968  -3.7374   3.2777  -2.6956   0.00    0.0
2019/02/12 09:27:46.000   4280223.1835  -4034415.7318  -2458267.4633   5  10   4.4650   5.3606   2.8964  -3.7359   3.2767  -2.6947   0.00    0.0
2019/02/12 09:27:47.000   4280223.2532  -4034415.9542  -2458267.6246   5  10   4.4644   5.3591   2.8959  -3.7345   3.2756  -2.6938   0.00    0.0
2019/02/12 09:27:48.000   4280223.3572  -4034416.3017  -2458267.7077   5  10   4.4638   5.3576   2.8954  -3.7330   3.2746  -2.6929   0.00    0.0
2019/02/12 09:27:49.000   4280223.2247  -4034416.6034  -2458267.6470   5  10   4.4632   5.3561   2.8949  -3.7316   3.2735  -2.6920   0.00    0.0
2019/02/12 09:27:50.000   4280223.1103  -4034416.8616  -2458267.5340   5  10   4.4626   5.3546   2.8944  -3.7301   3.2725  -2.6911   0.00    0.0
2019/02/12 09:27:51.000   4280223.0161  -4034416.7161  -2458267.4413   5  10   4.4620   5.3532   2.8940  -3.7287   3.2714  -2.6902   0.00    0.0
2019/02/12 09:27:52.000   4280223.0045  -4034416.2645  -2458267.3514   5  10   4.4614   5.3517   2.8935  -3.7272   3.2703  -2.6892   0.00    0.0
2019/02/12 09:27:53.000   4280222.9748  -4034415.6683  -2458267.2253   5  10   4.4608   5.3502   2.8930  -3.7258   3.2693  -2.6883   0.00    0.0
2019/02/12 09:27:54.000   4280222.6667  -4034415.0855  -2458267.0660   5  10   4.4603   5.3487   2.8925  -3.7243   3.2682  -2.6874   0.00    0.0
2019/02/12 09:27:55.000   4280222.4480  -4034414.7852  -2458266.9025   5  10   4.4597   5.3473   2.8920  -3.7229   3.2672  -2.6865   0.00    0.0
2019/02/12 09:27:56.000   4280222.2965  -4034414.6117  -2458266.7086   5  10   4.4591   5.3458   2.8916  -3.7214   3.2661  -2.6856   0.00    0.0
2019/02/12 09:27:57.000   4280222.3386  -4034414.6132  -2458266.6616   5  10   4.4585   5.3443   2.8911  -3.7200   3.2651  -2.6847   0.00    0.0
2019/02/12 09:27:58.000   4280222.7286  -4034414.7939  -2458266.7000   5  10   4.4579   5.3428   2.8906  -3.7185   3.2640  -2.6838   0.00    0.0
2019/02/12 09:27:59.000   4280223.1464  -4034415.0625  -2458266.8648   5  10   4.4573   5.3414   2.8901  -3.7171   3.2630  -2.6829   0.00    0.0
2019/02/12 09:28:00.000   4280223.3444  -4034415.4314  -2458267.0241   5  10   4.4567   5.3399   2.8897  -3.7157   3.2619  -2.6820   0.00    0.0
2019/02/12 09:28:01.000   4280223.0658  -4034415.3423  -2458266.8427   5  10   4.4561   5.3384   2.8892  -3.7142   3.2608  -2.6811   0.00    0.0
2019/02/12 09:28:02.000   4280222.7673  -4034415.2073  -2458266.6613   5  10   4.4555   5.3370   2.8887  -3.7128   3.2598  -2.6802   0.00    0.0
2019/02/12 09:28:03.000   4280222.6737  -4034415.2232  -2458266.5199   5  10   4.4549   5.3355   2.8882  -3.7113   3.2587  -2.6793   0.00    0.0
2019/02/12 09:28:04.000   4280222.8165  -4034415.4318  -2458266.5155   5  10   4.4543   5.3340   2.8878  -3.7099   3.2577  -2.6784   0.00    0.0
2019/02/12 09:28:05.000   4280223.3348  -4034415.6360  -2458266.6967   5  10   4.4538   5.3326   2.8873  -3.7085   3.2566  -2.6775   0.00    0.0
2019/02/12 09:28:06.000   4280223.8004  -4034416.0266  -2458267.0729   5  10   4.4532   5.3311   2.8868  -3.7070   3.2556  -2.6766   0.00    0.0
2019/02/12 09:28:07.000   4280224.3118  -4034416.3900  -2458267.5163   5  10   4.4526   5.3296   2.8863  -3.7056   3.2545  -2.6757   0.00    0.0
2019/02/12 09:28:08.000   4280224.6929  -4034416.6864  -2458267.9357   5  10   4.4520   5.3282   2.8859  -3.7041   3.2535  -2.6748   0.00    0.0
2019/02/12 09:28:09.000   4280224.7638  -4034416.8385  -2458268.0467   5  10   4.4514   5.3267   2.8854  -3.7027   3.2524  -2.6739   0.00    0.0
2019/02/12 09:28:13.000   4280223.3508  -4034415.7715  -2458266.0677   5  10   4.4491   5.3209   2.8835  -3.6970   3.2483  -2.6703   0.00    0.0
2019/02/12 09:29:01.000   4280222.4064  -4034418.8682  -2458267.5708   5  10   4.4217   5.2520   2.8613  -3.6287   3.1987  -2.6275   0.00    0.0
2019/02/12 09:29:02.000   4280222.1557  -4034418.6059  -2458267.5335   5  10   4.4211   5.2506   2.8609  -3.6273   3.1977  -2.6266   0.00    0.0
2019/02/12 09:29:03.000   4280222.0177  -4034418.4642  -2458267.5092   5  10   4.4206   5.2492   2.8604  -3.6259   3.1967  -2.6257   0.00    0.0
2019/02/12 09:29:04.000   4280221.8456  -4034418.6018  -2458267.6495   5  10   4.4200   5.2478   2.8600  -3.6245   3.1957  -2.6249   0.00    0.0
2019/02/12 09:29:05.000   4280221.6442  -4034418.8138  -2458267.8017   5  10   4.4195   5.2464   2.8595  -3.6231   3.1947  -2.6240   0.00    0.0
2019/02/12 09:29:08.000   4280222.0685  -4034419.1313  -2458267.4951   5  10   4.4178   5.2422   2.8582  -3.6189   3.1916  -2.6213   0.00    0.0
2019/02/12 09:29:09.000   4280222.4919  -4034419.4068  -2458267.4284   5  10   4.4172   5.2408   2.8577  -3.6175   3.1906  -2.6205   0.00    0.0
2019/02/12 09:29:10.000   4280223.0669  -4034419.6998  -2458267.5330   5  10   4.4167   5.2393   2.8573  -3.6161   3.1896  -2.6196   0.00    0.0
2019/02/12 09:29:11.000   4280223.5925  -4034420.0207  -2458267.6840   5  10   4.4161   5.2379   2.8568  -3.6147   3.1886  -2.6187   0.00    0.0
2019/02/12 09:29:12.000   4280223.9908  -4034420.1347  -2458267.6364   5  10   4.4156   5.2365   2.8564  -3.6133   3.1876  -2.6178   0.00    0.0
2019/02/12 09:29:13.000   4280224.3296  -4034420.1131  -2458267.4255   5  10   4.4150   5.2351   2.8559  -3.6119   3.1866  -2.6169   0.00    0.0
2019/02/12 09:29:14.000   4280224.4111  -4034420.1433  -2458267.3041   5  10   4.4145   5.2337   2.8555  -3.6105   3.1855  -2.6160   0.00    0.0
2019/02/12 09:29:15.000   4280224.6647  -4034420.3415  -2458267.4393   5  10   4.4139   5.2323   2.8550  -3.6091   3.1845  -2.6152   0.00    0.0
2019/02/12 09:29:16.000   4280224.8333  -4034420.5406  -2458267.6063   5  10   4.4134   5.2309   2.8546  -3.6077   3.1835  -2.6143   0.00    0.0
2019/02/12 09:29:17.000   4280225.1261  -4034420.6780  -2458267.8261   5  10   4.4128   5.2295   2.8542  -3.6063   3.1825  -2.6134   0.00    0.0
2019/02/12 09:29:27.000   4280229.2954  -4034430.2671  -2458269.6547   5  11   4.2501   4.0071   2.7404  -3.0015   2.7303  -2.4232   0.00    0.0
2019/02/12 09:29:28.000   4280229.8569  -4034432.1571  -2458270.2251   5  11   4.2497   4.0063   2.7401  -3.0005   2.7296  -2.4225   0.00    0.0
2019/02/12 09:29:29.000   4280229.2631  -4034431.0352  -2458269.9092   5  11   4.2494   4.0055   2.7398  -2.9995   2.7289  -2.4218   0.00    0.0
2019/02/12 09:29:30.000   4280228.5807  -4034429.5569  -2458269.4293   5  11   4.2490   4.0047   2.7394  -2.9986   2.7283  -2.4211   0.00    0.0
2019/02/12 09:29:31.000   4280227.1510  -4034426.3824  -2458268.3741   5  11   4.2487   4.0039   2.7391  -2.9976   2.7276  -2.4205   0.00    0.0
2019/02/12 09:29:32.000   4280226.0885  -4034424.6180  -2458267.6765   5  11   4.2484   4.0031   2.7388  -2.9966   2.7269  -2.4198   0.00    0.0
2019/02/12 09:29:33.000   4280225.5911  -4034424.5318  -2458267.5291   5  11   4.2480   4.0024   2.7385  -2.9956   2.7262  -2.4191   0.00    0.0
2019/02/12 09:29:34.000   4280226.1894  -4034426.8143  -2458268.1541   5  11   4.2477   4.0016   2.7382  -2.9946   2.7256  -2.4184   0.00    0.0
2019/02/12 09:29:35.000   4280227.0447  -4034429.0968  -2458268.8180   5  11   4.2473   4.0008   2.7379  -2.9936   2.7249  -2.4177   0.00    0.0
2019/02/12 09:29:36.000   4280227.3559  -4034429.7851  -2458268.9768   5  11   4.2470   4.0000   2.7376  -2.9926   2.7242  -2.4170   0.00    0.0
2019/02/12 09:29:37.000   4280227.5524  -4034429.7487  -2458268.8748   5  11   4.2466   3.9992   2.7372  -2.9916   2.7235  -2.4163   0.00    0.0
2019/02/12 09:29:38.000   4280227.5754  -4034429.5220  -2458268.7433   5  11   4.2463   3.9985   2.7369  -2.9907   2.7229  -2.4156   0.00    0.0
2019/02/12 09:29:39.000   4280227.6272  -4034429.6133  -2458268.8608   5  11   4.2459   3.9977   2.7366  -2.9897   2.7222  -2.4149   0.00    0.0
2019/02/12 09:29:40.000   4280227.8542  -4034429.8535  -2458269.0763   5  11   4.2456   3.9969   2.7363  -2.9887   2.7215  -2.4142   0.00    0.0
2019/02/12 09:29:41.000   4280227.9695  -4034430.2357  -2458269.2462   5  11   4.2453   3.9961   2.7360  -2.9877   2.7208  -2.4136   0.00    0.0
2019/02/12 09:29:42.000   4280227.5024  -4034430.4527  -2458269.3363   5  11   4.2449   3.9953   2.7357  -2.9867   2.7201  -2.4129   0.00    0.0
2019/02/12 09:29:43.000   4280227.1457  -4034430.5844  -2458269.3899   5  11   4.2446   3.9946   2.7354  -2.9857   2.7195  -2.4122   0.00    0.0
2019/02/12 09:29:44.000   4280227.2246  -4034430.6468  -2458269.5772   5  11   4.2442   3.9938   2.7351  -2.9847   2.7188  -2.4115   0.00    0.0
2019/02/12 09:29:45.000   4280227.4335  -4034430.6722  -2458269.7805   5  11   4.2439   3.9930   2.7348  -2.9838   2.7181  -2.4108   0.00    0.0
2019/02/12 09:29:46.000   4280227.5703  -4034430.7833  -2458269.9074   5  11   4.2436   3.9922   2.7344  -2.9828   2.7175  -2.4101   0.00    0.0
2019/02/12 09:29:47.000   4280227.8236  -4034430.9842  -2458270.0670   5  11   4.2432   3.9914   2.7341  -2.9818   2.7168  -2.4094   0.00    0.0
2019/02/12 09:29:48.000   4280228.0691  -4034431.2380  -2458270.1987   5  11   4.2429   3.9907   2.7338  -2.9808   2.7161  -2.4087   0.00    0.0
2019/02/12 09:29:49.000   4280228.0996  -4034431.1960  -2458270.0337   5  11   4.2425   3.9899   2.7335  -2.9798   2.7154  -2.4081   0.00    0.0
2019/02/12 09:29:50.000   4280228.0852  -4034431.0831  -2458269.8293   5  11   4.2422   3.9891   2.7332  -2.9788   2.7148  -2.4074   0.00    0.0
2019/02/12 09:29:51.000   4280228.2915  -4034431.1577  -2458269.8097   5  11   4.2419   3.9883   2.7329  -2.9779   2.7141  -2.4067   0.00    0.0
2019/02/12 09:29:52.000   4280228.8068  -4034431.3304  -2458269.9408   5  11   4.2415   3.9876   2.7326  -2.9769   2.7134  -2.4060   0.00    0.0
2019/02/12 09:29:53.000   4280229.3333  -4034431.3469  -2458269.9763   5  11   4.2412   3.9868   2.7323  -2.9759   2.7127  -2.4053   0.00    0.0
2019/02/12 09:29:54.000   4280229.4893  -4034430.9897  -2458269.7784   5  11   4.2408   3.9860   2.7320  -2.9749   2.7121  -2.4046   0.00    0.0
2019/02/12 09:29:55.000   4280229.5420  -4034430.8362  -2458269.7577   5  11   4.2405   3.9852   2.7317  -2.9739   2.7114  -2.4039   0.00    0.0
2019/02/12 09:29:56.000   4280229.6919  -4034431.0148  -2458269.8973   5  11   4.2402   3.9845   2.7313  -2.9729   2.7107  -2.4032   0.00    0.0
2019/02/12 09:29:57.000   4280229.6888  -4034431.4441  -2458270.1450   5  11   4.2398   3.9837   2.7310  -2.9720   2.7101  -2.4026   0.00    0.0
2019/02/12 09:29:58.000   4280229.7507  -4034431.9319  -2458270.3638   5  11   4.2395   3.9829   2.7307  -2.9710   2.7094  -2.4019   0.00    0.0
2019/02/12 09:29:59.000   4280229.8458  -4034432.5194  -2458270.6166   5  11   4.2392   3.9822   2.7304  -2.9700   2.7087  -2.4012   0.00    0.0
2019/02/12 09:30:00.000   4280229.9934  -4034432.7578  -2458270.8124   5  11   4.2388   3.9814   2.7301  -2.9690   2.7080  -2.4005   0.00    0.0
2019/02/12 09:30:01.000   4280229.7899  -4034432.6034  -2458270.8009   5  11   4.2385   3.9806   2.7298  -2.9680   2.7074  -2.3998   0.00    0.0
2019/02/12 09:30:02.000   4280229.2783  -4034432.2407  -2458270.6791   5  11   4.2381   3.9798   2.7295  -2.9670   2.7067  -2.3991   0.00    0.0
2019/02/12 09:30:03.000   4280228.6126  -4034431.6634  -2458270.4352   5  11   4.2378   3.9791   2.7292  -2.9661   2.7060  -2.3984   0.00    0.0
2019/02/12 09:30:04.000   4280224.8466  -4034421.5315  -2458268.0524   5  10   4.3876   5.1649   2.8336  -3.5412   3.1357  -2.5725   0.00    0.0
2019/02/12 09:30:05.000   4280224.6898  -4034421.4130  -2458268.0567   5  10   4.3871   5.1635   2.8331  -3.5398   3.1347  -2.5716   0.00    0.0
2019/02/12 09:30:06.000   4280224.6739  -4034421.2889  -2458268.0473   5  10   4.3866   5.1622   2.8327  -3.5384   3.1337  -2.5707   0.00    0.0
2019/02/12 09:30:07.000   4280224.8097  -4034421.2122  -2458267.8572   5  10   4.3860   5.1608   2.8323  -3.5371   3.1327  -2.5699   0.00    0.0
2019/02/12 09:30:08.000   4280225.2407  -4034421.4631  -2458267.8293   5  10   4.3855   5.1595   2.8318  -3.5357   3.1317  -2.5690   0.00    0.0
2019/02/12 09:30:09.000   4280225.4273  -4034421.5194  -2458267.7920   5  10   4.3850   5.1581   2.8314  -3.5343   3.1307  -2.5681   0.00    0.0
2019/02/12 09:30:10.000   4280225.1024  -4034421.4564  -2458267.8564   5  10   4.3845   5.1568   2.8310  -3.5330   3.1298  -2.5673   0.00    0.0
2019/02/12 09:30:11.000   4280224.3457  -4034421.2514  -2458268.0068   5  10   4.3840   5.1554   2.8306  -3.5316   3.1288  -2.5664   0.00    0.0
2019/02/12 09:30:12.000   4280223.3918  -4034420.7185  -2458268.0660   5  10   4.3834   5.1541   2.8301  -3.5302   3.1278  -2.5656   0.00    0.0
2019/02/12 09:30:13.000   4280222.5218  -4034420.1624  -2458268.0874   5  10   4.3829   5.1527   2.8297  -3.5288   3.1268  -2.5647   0.00    0.0
2019/02/12 09:30:14.000   4280222.2529  -4034420.0270  -2458268.1082   5  10   4.3824   5.1514   2.8293  -3.5275   3.1258  -2.5638   0.00    0.0
2019/02/12 09:30:15.000   4280222.1799  -4034420.0495  -2458267.9763   5  10   4.3819   5.1500   2.8289  -3.5261   3.1249  -2.5630   0.00    0.0
2019/02/12 09:30:16.000   4280222.1799  -4034419.8863  -2458267.7942   5  10   4.3814   5.1487   2.8284  -3.5247   3.1239  -2.5621   0.00    0.0
2019/02/12 09:30:17.000   4280222.2418  -4034419.9379  -2458267.6955   5  10   4.3808   5.1474   2.8280  -3.5234   3.1229  -2.5613   0.00    0.0
2019/02/12 09:30:18.000   4280222.4222  -4034419.9293  -2458267.5131   5  10   4.3803   5.1460   2.8276  -3.5220   3.1219  -2.5604   0.00    0.0
2019/02/12 09:30:19.000   4280222.9488  -4034420.2226  -2458267.3048   5  10   4.3798   5.1447   2.8272  -3.5207   3.1210  -2.5595   0.00    0.0
2019/02/12 09:30:20.000   4280223.4516  -4034420.3035  -2458267.2141   5  10   4.3793   5.1433   2.8267  -3.5193   3.1200  -2.5587   0.00    0.0
2019/02/12 09:30:21.000   4280223.9249  -4034420.5198  -2458267.3133   5  10   4.3788   5.1420   2.8263  -3.5179   3.1190  -2.5578   0.00    0.0
2019/02/12 09:30:22.000   4280224.0806  -4034420.6241  -2458267.5101   5  10   4.3783   5.1407   2.8259  -3.5166   3.1180  -2.5570   0.00    0.0
2019/02/12 09:30:23.000   4280223.6737  -4034420.5300  -2458267.5803   5  10   4.3778   5.1393   2.8255  -3.5152   3.1171  -2.5561   0.00    0.0
2019/02/12 09:30:24.000   4280223.1689  -4034420.5034  -2458267.4479   5  10   4.3772   5.1380   2.8250  -3.5138   3.1161  -2.5552   0.00    0.0
2019/02/12 09:30:25.000   4280223.2285  -4034420.6308  -2458267.2667   5  10   4.3767   5.1366   2.8246  -3.5125   3.1151  -2.5544   0.00    0.0
2019/02/12 09:30:26.000   4280223.6763  -4034420.9133  -2458267.2788   5  10   4.3762   5.1353   2.8242  -3.5111   3.1141  -2.5535   0.00    0.0
2019/02/12 09:30:27.000   4280224.3631  -4034421.2034  -2458267.4565   5  10   4.3757   5.1340   2.8238  -3.5098   3.1132  -2.5527   0.00    0.0
2019/02/12 09:30:28.000   4280225.0815  -4034421.6360  -2458267.7614   5  10   4.3752   5.1326   2.8234  -3.5084   3.1122  -2.5518   0.00    0.0
2019/02/12 09:30:29.000   4280225.5414  -4034421.9150  -2458268.1025   5  10   4.3747   5.1313   2.8229  -3.5070   3.1112  -2.5510   0.00    0.0
2019/02/12 09:30:30.000   4280225.4478  -4034421.9491  -2458268.2710   5  10   4.3742   5.1300   2.8225  -3.5057   3.1103  -2.5501   0.00    0.0
2019/02/12 09:30:31.000   4280225.3679  -4034422.0981  -2458268.4494   5  10   4.3737   5.1286   2.8221  -3.5043   3.1093  -2.5492   0.00    0.0
2019/02/12 09:30:32.000   4280225.1309  -4034422.2214  -2458268.5110   5  10   4.3731   5.1273   2.8217  -3.5030   3.1083  -2.5484   0.00    0.0
2019/02/12 09:30:33.000   4280224.8440  -4034422.3769  -2458268.5763   5  10   4.3726   5.1260   2.8213  -3.5016   3.1073  -2.5475   0.00    0.0
2019/02/12 09:30:34.000   4280224.6385  -4034422.3993  -2458268.4898   5  10   4.3721   5.1247   2.8208  -3.5002   3.1064  -2.5467   0.00    0.0
2019/02/12 09:30:35.000   4280224.4845  -4034422.1734  -2458268.3517   5  10   4.3716   5.1233   2.8204  -3.4989   3.1054  -2.5458   0.00    0.0
2019/02/12 09:30:36.000   4280224.1422  -4034421.9634  -2458268.2795   5  10   4.3711   5.1220   2.8200  -3.4975   3.1044  -2.5450   0.00    0.0
2019/02/12 09:30:37.000   4280223.9052  -4034421.8938  -2458268.2087   5  10   4.3706   5.1207   2.8196  -3.4962   3.1035  -2.5441   0.00    0.0
2019/02/12 09:30:38.000   4280223.8714  -4034421.9227  -2458268.2446   5  10   4.3701   5.1194   2.8192  -3.4948   3.1025  -2.5433   0.00    0.0
2019/02/12 09:30:39.000   4280223.9065  -4034421.8787  -2458268.2886   5  10   4.3696   5.1180   2.8188  -3.4935   3.1015  -2.5424   0.00    0.0
2019/02/12 09:30:40.000   4280224.1893  -4034421.8768  -2458268.3373   5  10   4.3691   5.1167   2.8183  -3.4921   3.1006  -2.5416   0.00    0.0
2019/02/12 09:30:41.000   4280224.4168  -4034421.7155  -2458268.3131   5  10   4.3686   5.1154   2.8179  -3.4908   3.0996  -2.5407   0.00    0.0
2019/02/12 09:30:42.000   4280224.7871  -4034421.5848  -2458268.3259   5  10   4.3681   5.1141   2.8175  -3.4894   3.0986  -2.5399   0.00    0.0
2019/02/12 09:30:43.000   4280225.0671  -4034421.4650  -2458268.2421   5  10   4.3676   5.1128   2.8171  -3.4881   3.0977  -2.5390   0.00    0.0
2019/02/12 09:30:44.000   4280225.2174  -4034421.4638  -2458268.1945   5  10   4.3671   5.1114   2.8167  -3.4867   3.0967  -2.5381   0.00    0.0
2019/02/12 09:30:45.000   4280225.3771  -4034421.8426  -2458268.2506   5  10   4.3666   5.1101   2.8163  -3.4854   3.0958  -2.5373   0.00    0.0
2019/02/12 09:30:46.000   4280225.4974  -4034422.2974  -2458268.3811   5  10   4.3661   5.1088   2.8158  -3.4840   3.0948  -2.5364   0.00    0.0
2019/02/12 09:30:47.000   4280225.6486  -4034422.5679  -2458268.4898   5  10   4.3656   5.1075   2.8154  -3.4827   3.0938  -2.5356   0.00    0.0
2019/02/12 09:30:48.000   4280225.9901  -4034422.7000  -2458268.5430   5  10   4.3651   5.1062   2.8150  -3.4813   3.0929  -2.5347   0.00    0.0
2019/02/12 09:30:49.000   4280226.4029  -4034422.9833  -2458268.6019   5  10   4.3646   5.1049   2.8146  -3.4800   3.0919  -2.5339   0.00    0.0
2019/02/12 09:30:50.000   4280226.4516  -4034423.1917  -2458268.5639   5  10   4.3641   5.1035   2.8142  -3.4786   3.0910  -2.5330   0.00    0.0
2019/02/12 09:30:51.000   4280226.2448  -4034423.2509  -2458268.4735   5  10   4.3636   5.1022   2.8138  -3.4773   3.0900  -2.5322   0.00    0.0
2019/02/12 09:30:52.000   4280226.3719  -4034423.2411  -2458268.4297   5  10   4.3631   5.1009   2.8134  -3.4759   3.0890  -2.5313   0.00    0.0
2019/02/12 09:30:53.000   4280226.5616  -4034423.3274  -2458268.5171   5  10   4.3626   5.0996   2.8130  -3.4746   3.0881  -2.5305   0.00    0.0
2019/02/12 09:30:54.000   4280226.5746  -4034423.5111  -2458268.6789   5  10   4.3621   5.0983   2.8125  -3.4732   3.0871  -2.5296   0.00    0.0
2019/02/12 09:30:55.000   4280226.3059  -4034423.3932  -2458268.7816   5  10   4.3616   5.0970   2.8121  -3.4719   3.0862  -2.5288   0.00    0.0
2019/02/12 09:30:56.000   4280226.1444  -4034423.0716  -2458268.7940   5  10   4.3611   5.0957   2.8117  -3.4705   3.0852  -2.5280   0.00    0.0
2019/02/12 09:30:57.000   4280226.1990  -4034422.4810  -2458268.6244   5  10   4.3606   5.0944   2.8113  -3.4692   3.0843  -2.5271   0.00    0.0
2019/02/12 09:30:58.000   4280226.3304  -4034422.1976  -2458268.5633   5  10   4.3601   5.0931   2.8109  -3.4679   3.0833  -2.5263   0.00    0.0
2019/02/12 09:30:59.000   4280226.4476  -4034422.1333  -2458268.6158   5  10   4.3596   5.0918   2.8105  -3.4665   3.0823  -2.5254   0.00    0.0
2019/02/12 09:31:00.000   4280226.6786  -4034422.1297  -2458268.7009   5  10   4.3591   5.0905   2.8101  -3.4652   3.0814  -2.5246   0.00    0.0
2019/02/12 09:31:01.000   4280226.9880  -4034422.2379  -2458268.8452   5  10   4.3586   5.0892   2.8097  -3.4638   3.0804  -2.5237   0.00    0.0
2019/02/12 09:31:06.000   4280226.5366  -4034422.0239  -2458268.7965   5  10   4.3561   5.0826   2.8076  -3.4571   3.0757  -2.5195   0.00    0.0
2019/02/12 09:31:07.000   4280226.6099  -4034421.7567  -2458268.6853   5  10   4.3556   5.0814   2.8072  -3.4558   3.0747  -2.5186   0.00    0.0
2019/02/12 09:31:14.000   4280228.2683  -4034423.4398  -2458269.3927   5  10   4.3522   5.0723   2.8044  -3.4464   3.0681  -2.5127   0.00    0.0
2019/02/12 09:31:15.000   4280228.3516  -4034423.5376  -2458269.4242   5  10   4.3517   5.0710   2.8040  -3.4451   3.0671  -2.5119   0.00    0.0
2019/02/12 09:31:16.000   4280228.2642  -4034423.5200  -2458269.2243   5  10   4.3513   5.0697   2.8036  -3.4438   3.0662  -2.5111   0.00    0.0
2019/02/12 09:31:17.000   4280228.0503  -4034423.2881  -2458268.8709   5  10   4.3508   5.0684   2.8032  -3.4424   3.0652  -2.5102   0.00    0.0
2019/02/12 09:31:18.000   4280227.7343  -4034422.8230  -2458268.5305   5  10   4.3503   5.0671   2.8028  -3.4411   3.0643  -2.5094   0.00    0.0
2019/02/12 09:31:19.000   4280227.3413  -4034422.2548  -2458268.2193   5  10   4.3498   5.0658   2.8024  -3.4398   3.0634  -2.5085   0.00    0.0
2019/02/12 09:31:20.000   4280227.1863  -4034421.7563  -2458267.9180   5  10   4.3493   5.0646   2.8020  -3.4384   3.0624  -2.5077   0.00    0.0
2019/02/12 09:31:21.000   4280227.4517  -4034421.4956  -2458267.8857   5  10   4.3488   5.0633   2.8016  -3.4371   3.0615  -2.5068   0.00    0.0
2019/02/12 09:31:22.000   4280228.1316  -4034421.9347  -2458268.1309   5  10   4.3483   5.0620   2.8012  -3.4358   3.0605  -2.5060   0.00    0.0
2019/02/12 09:31:23.000   4280228.6274  -4034422.4144  -2458268.3902   5  10   4.3479   5.0607   2.8008  -3.4344   3.0596  -2.5052   0.00    0.0
2019/02/12 09:31:24.000   4280228.7303  -4034422.9527  -2458268.7444   5  10   4.3474   5.0594   2.8004  -3.4331   3.0586  -2.5043   0.00    0.0
2019/02/12 09:31:25.000   4280228.4860  -4034423.3215  -2458269.1744   5  10   4.3469   5.0581   2.8000  -3.4318   3.0577  -2.5035   0.00    0.0
2019/02/12 09:31:26.000   4280227.8923  -4034423.3107  -2458269.2948   5  10   4.3464   5.0568   2.7996  -3.4305   3.0568  -2.5026   0.00    0.0
2019/02/12 09:31:27.000   4280227.2119  -4034423.1037  -2458269.1282   5  10   4.3459   5.0556   2.7992  -3.4291   3.0558  -2.5018   0.00    0.0
2019/02/12 09:31:28.000   4280226.8900  -4034423.0381  -2458269.0485   5  10   4.3455   5.0543   2.7988  -3.4278   3.0549  -2.5010   0.00    0.0
2019/02/12 09:31:29.000   4280226.7095  -4034423.1148  -2458268.9012   5  10   4.3450   5.0530   2.7984  -3.4265   3.0539  -2.5001   0.00    0.0
2019/02/12 09:31:30.000   4280226.1003  -4034422.9140  -2458268.5105   5  10   4.3445   5.0517   2.7980  -3.4252   3.0530  -2.4993   0.00    0.0
2019/02/12 09:31:31.000   4280225.4632  -4034422.6896  -2458268.1804   5  10   4.3440   5.0505   2.7976  -3.4238   3.0521  -2.4985   0.00    0.0
2019/02/12 09:31:32.000   4280225.0021  -4034422.4920  -2458268.0547   5  10   4.3435   5.0492   2.7972  -3.4225   3.0511  -2.4976   0.00    0.0
2019/02/12 09:31:35.000   4280225.1967  -4034422.9064  -2458268.4561   5  10   4.3421   5.0454   2.7960  -3.4185   3.0483  -2.4951   0.00    0.0
2019/02/12 09:31:36.000   4280225.5069  -4034423.3935  -2458268.6702   5  10   4.3416   5.0441   2.7956  -3.4172   3.0474  -2.4943   0.00    0.0
2019/02/12 09:31:37.000   4280225.9997  -4034423.7732  -2458268.8558   5  10   4.3412   5.0428   2.7952  -3.4159   3.0465  -2.4934   0.00    0.0
2019/02/12 09:31:38.000   4280226.2497  -4034424.1137  -2458268.8463   5  10   4.3407   5.0415   2.7948  -3.4146   3.0455  -2.4926   0.00    0.0
2019/02/12 09:31:39.000   4280226.2721  -4034424.1990  -2458268.6947   5  10   4.3402   5.0403   2.7944  -3.4132   3.0446  -2.4918   0.00    0.0
2019/02/12 09:31:40.000   4280226.1797  -4034424.3989  -2458268.5719   5  10   4.3397   5.0390   2.7940  -3.4119   3.0437  -2.4909   0.00    0.0
2019/02/12 09:31:41.000   4280225.7531  -4034424.5944  -2458268.4850   5  10   4.3393   5.0377   2.7936  -3.4106   3.0427  -2.4901   0.00    0.0
2019/02/12 09:31:42.000   4280225.2534  -4034424.7895  -2458268.5584   5  10   4.3388   5.0365   2.7932  -3.4093   3.0418  -2.4893   0.00    0.0
2019/02/12 09:31:43.000   4280224.9042  -4034425.1350  -2458268.7159   5  10   4.3383   5.0352   2.7928  -3.4080   3.0409  -2.4884   0.00    0.0
2019/02/12 09:31:44.000   4280224.8023  -4034425.3954  -2458268.8262   5  10   4.3378   5.0339   2.7924  -3.4066   3.0399  -2.4876   0.00    0.0
2019/02/12 09:31:45.000   4280224.8349  -4034425.4209  -2458268.8357   5  10   4.3374   5.0327   2.7920  -3.4053   3.0390  -2.4868   0.00    0.0
2019/02/12 09:31:46.000   4280225.1988  -4034425.3689  -2458268.9792   5  10   4.3369   5.0314   2.7916  -3.4040   3.0381  -2.4859   0.00    0.0
2019/02/12 09:31:47.000   4280225.4694  -4034425.2312  -2458269.0700   5  10   4.3364   5.0301   2.7912  -3.4027   3.0371  -2.4851   0.00    0.0
2019/02/12 09:31:52.000   4280224.8403  -4034425.1229  -2458269.4697   5  10   4.3341   5.0238   2.7893  -3.3961   3.0325  -2.4809   0.00    0.0
2019/02/12 09:31:53.000   4280225.2694  -4034425.5348  -2458269.9189   5  10   4.3336   5.0226   2.7889  -3.3948   3.0316  -2.4801   0.00    0.0
2019/02/12 09:31:54.000   4280225.9831  -4034426.1510  -2458270.6314   5  10   4.3332   5.0213   2.7885  -3.3935   3.0306  -2.4793   0.00    0.0
2019/02/12 09:31:55.000   4280226.7262  -4034426.6600  -2458271.0701   5  10   4.3327   5.0201   2.7881  -3.3922   3.0297  -2.4784   0.00    0.0
2019/02/12 09:31:56.000   4280227.3983  -4034427.3329  -2458271.5050   5  10   4.3322   5.0188   2.7877  -3.3909   3.0288  -2.4776   0.00    0.0
2019/02/12 09:31:57.000   4280227.8748  -4034427.8015  -2458271.7766   5  10   4.3318   5.0176   2.7873  -3.3895   3.0279  -2.4768   0.00    0.0
2019/02/12 09:31:58.000   4280228.0666  -4034427.9540  -2458271.8921   5  10   4.3313   5.0163   2.7869  -3.3882   3.0269  -2.4760   0.00    0.0
