% program   : RTKPOST ver.2.4.2
% inp file  : D:\Google Drive\UERJ\_Projeto Final\Python\tcc-guilherme\20190212_Sta91500.19o
% inp file  : D:\Google Drive\UERJ\_Projeto Final\20190212_Marco91500 IBGE\riod0431.19o
% inp file  : D:\Google Drive\UERJ\_Projeto Final\20190212_Marco91500 IBGE\brdm0430.19p
% obs start : 2019/02/12 08:38:50.0 GPST (week2040 203930.0s)
% obs end   : 2019/02/12 10:17:44.0 GPST (week2040 209864.0s)
% pos mode  : static
% freqs     : L1
% solution  : forward
% elev mask : 15.0 deg
% dynamics  : off
% tidecorr  : off
% ionos opt : iono-free
% tropo opt : saastamoinen
% ephemeris : broadcast
% navi sys  : gps glonass galileo
% amb res   : fix and hold
% amb glo   : on
% val thres : 3.0
% antenna1  :                       ( 0.0000  0.0000  0.0000)
% antenna2  :                       ( 0.0000  0.0000  0.0080)
% ref pos   :  4280294.8840  -4034431.2298  -2458141.3831
%
% (x/y/z-ecef=WGS84,Q=1:fix,2:float,3:sbas,4:dgps,5:single,6:ppp,ns=# of satellites)
%  GPST                      x-ecef(m)      y-ecef(m)      z-ecef(m)   Q  ns   sdx(m)   sdy(m)   sdz(m)  sdxy(m)  sdyz(m)  sdzx(m) age(s)  ratio
2019/02/12 08:38:56.000   4280206.9924  -4034400.5871  -2458259.4567   5  11  30.0000  30.0000  30.0000   0.0000   0.0000   0.0000  11.00    0.0
2019/02/12 08:39:03.000   4280206.9924  -4034400.5871  -2458259.4567   5  13  30.0000  30.0000  30.0000   0.0000   0.0000   0.0000   3.00    0.0
2019/02/12 08:39:37.000   4280206.9924  -4034400.5871  -2458259.4567   5  14  30.0000  30.0000  30.0000   0.0000   0.0000   0.0000   7.00    0.0
2019/02/12 08:39:47.000   4280206.9924  -4034400.5871  -2458259.4567   5  13  30.0000  30.0000  30.0000   0.0000   0.0000   0.0000   2.00    0.0
2019/02/12 08:40:47.000   4280206.9924  -4034400.5871  -2458259.4567   5  14  30.0000  30.0000  30.0000   0.0000   0.0000   0.0000   2.00    0.0
2019/02/12 08:40:49.000   4280206.9924  -4034400.5871  -2458259.4567   5  13  30.0000  30.0000  30.0000   0.0000   0.0000   0.0000   4.00    0.0
2019/02/12 08:41:05.000   4280206.9924  -4034400.5871  -2458259.4567   5  13  30.0000  30.0000  30.0000   0.0000   0.0000   0.0000   5.00    0.0
2019/02/12 08:41:08.000   4280206.9924  -4034400.5871  -2458259.4567   5  12  30.0000  30.0000  30.0000   0.0000   0.0000   0.0000   8.00    0.0
2019/02/12 08:41:17.000   4280206.9924  -4034400.5871  -2458259.4567   5  14  30.0000  30.0000  30.0000   0.0000   0.0000   0.0000   2.00    0.0
2019/02/12 08:41:22.000   4280206.9924  -4034400.5871  -2458259.4567   5  14  30.0000  30.0000  30.0000   0.0000   0.0000   0.0000   7.00    0.0
2019/02/12 08:41:43.000   4280206.9924  -4034400.5871  -2458259.4567   5  13  30.0000  30.0000  30.0000   0.0000   0.0000   0.0000  13.00    0.0
2019/02/12 08:41:58.000   4280206.9924  -4034400.5871  -2458259.4567   5  13  30.0000  30.0000  30.0000   0.0000   0.0000   0.0000  13.00    0.0
2019/02/12 08:42:06.000   4280206.9924  -4034400.5871  -2458259.4567   5  12  30.0000  30.0000  30.0000   0.0000   0.0000   0.0000   6.00    0.0
2019/02/12 08:42:08.000   4280206.9924  -4034400.5871  -2458259.4567   5  12  30.0000  30.0000  30.0000   0.0000   0.0000   0.0000   8.00    0.0
2019/02/12 08:42:36.000   4280206.9924  -4034400.5871  -2458259.4567   5  14  30.0000  30.0000  30.0000   0.0000   0.0000   0.0000   6.00    0.0
2019/02/12 08:42:38.000   4280206.9924  -4034400.5871  -2458259.4567   5  13  30.0000  30.0000  30.0000   0.0000   0.0000   0.0000   8.00    0.0
2019/02/12 08:42:44.000   4280206.9924  -4034400.5871  -2458259.4567   5  14  30.0000  30.0000  30.0000   0.0000   0.0000   0.0000  14.00    0.0
2019/02/12 08:42:49.000   4280206.9924  -4034400.5871  -2458259.4567   5  14  30.0000  30.0000  30.0000   0.0000   0.0000   0.0000   4.00    0.0
2019/02/12 08:43:15.000   4280206.9924  -4034400.5871  -2458259.4567   5  14  30.0000  30.0000  30.0000   0.0000   0.0000   0.0000  -0.00    0.0
2019/02/12 08:43:17.000   4280206.9924  -4034400.5871  -2458259.4567   5  14  30.0000  30.0000  30.0000   0.0000   0.0000   0.0000   2.00    0.0
2019/02/12 08:43:26.000   4280206.9924  -4034400.5871  -2458259.4567   5  13  30.0000  30.0000  30.0000   0.0000   0.0000   0.0000  11.00    0.0
2019/02/12 08:43:29.000   4280206.9924  -4034400.5871  -2458259.4567   5  12  30.0000  30.0000  30.0000   0.0000   0.0000   0.0000  14.00    0.0
2019/02/12 08:43:58.000   4280206.9924  -4034400.5871  -2458259.4567   5  14  30.0000  30.0000  30.0000   0.0000   0.0000   0.0000  13.00    0.0
2019/02/12 08:43:59.000   4280206.9924  -4034400.5871  -2458259.4567   5  14  30.0000  30.0000  30.0000   0.0000   0.0000   0.0000  14.00    0.0
2019/02/12 08:44:02.000   4280206.9924  -4034400.5871  -2458259.4567   5  14  30.0000  30.0000  30.0000   0.0000   0.0000   0.0000   2.00    0.0
2019/02/12 08:44:07.000   4280206.9924  -4034400.5871  -2458259.4567   5  14  30.0000  30.0000  30.0000   0.0000   0.0000   0.0000   7.00    0.0
2019/02/12 08:44:25.000   4280206.9924  -4034400.5871  -2458259.4567   5  14  30.0000  30.0000  30.0000   0.0000   0.0000   0.0000  10.00    0.0
2019/02/12 08:44:37.000   4280206.9924  -4034400.5871  -2458259.4567   5  14  30.0000  30.0000  30.0000   0.0000   0.0000   0.0000   7.00    0.0
2019/02/12 08:44:58.000   4280206.9924  -4034400.5871  -2458259.4567   5  13  30.0000  30.0000  30.0000   0.0000   0.0000   0.0000  13.00    0.0
2019/02/12 08:45:03.000   4280206.9924  -4034400.5871  -2458259.4567   5  14  30.0000  30.0000  30.0000   0.0000   0.0000   0.0000   3.00    0.0
2019/02/12 08:45:04.000   4280206.9924  -4034400.5871  -2458259.4567   5  14  30.0000  30.0000  30.0000   0.0000   0.0000   0.0000   4.00    0.0
2019/02/12 08:45:12.000   4280206.9924  -4034400.5871  -2458259.4567   5  14  30.0000  30.0000  30.0000   0.0000   0.0000   0.0000  12.00    0.0
2019/02/12 08:45:32.000   4280206.9924  -4034400.5871  -2458259.4567   5  14  30.0000  30.0000  30.0000   0.0000   0.0000   0.0000   2.00    0.0
2019/02/12 08:45:33.000   4280206.9924  -4034400.5871  -2458259.4567   5  14  30.0000  30.0000  30.0000   0.0000   0.0000   0.0000   3.00    0.0
2019/02/12 08:45:51.000   4280206.9924  -4034400.5871  -2458259.4567   5  14  30.0000  30.0000  30.0000   0.0000   0.0000   0.0000   6.00    0.0
2019/02/12 08:46:14.000   4280206.9924  -4034400.5871  -2458259.4567   5  14  30.0000  30.0000  30.0000   0.0000   0.0000   0.0000  14.00    0.0
2019/02/12 08:46:30.000   4280206.9924  -4034400.5871  -2458259.4567   5  13  30.0000  30.0000  30.0000   0.0000   0.0000   0.0000  -0.00    0.0
2019/02/12 08:46:55.000   4280206.9924  -4034400.5871  -2458259.4567   5  14  30.0000  30.0000  30.0000   0.0000   0.0000   0.0000  10.00    0.0
2019/02/12 08:47:04.000   4280206.9924  -4034400.5871  -2458259.4567   5  14  30.0000  30.0000  30.0000   0.0000   0.0000   0.0000   4.00    0.0
2019/02/12 08:47:09.000   4280206.9924  -4034400.5871  -2458259.4567   5  14  30.0000  30.0000  30.0000   0.0000   0.0000   0.0000   9.00    0.0
2019/02/12 08:47:37.000   4280206.9924  -4034400.5871  -2458259.4567   5  14  30.0000  30.0000  30.0000   0.0000   0.0000   0.0000   7.00    0.0
2019/02/12 08:47:39.000   4280206.9924  -4034400.5871  -2458259.4567   5  14  30.0000  30.0000  30.0000   0.0000   0.0000   0.0000   9.00    0.0
2019/02/12 08:48:03.000   4280206.9924  -4034400.5871  -2458259.4567   5  14  30.0000  30.0000  30.0000   0.0000   0.0000   0.0000   3.00    0.0
2019/02/12 08:48:14.000   4280206.9924  -4034400.5871  -2458259.4567   5  14  30.0000  30.0000  30.0000   0.0000   0.0000   0.0000  14.00    0.0
2019/02/12 08:48:18.000   4280206.9924  -4034400.5871  -2458259.4567   5  14  30.0000  30.0000  30.0000   0.0000   0.0000   0.0000   3.00    0.0
2019/02/12 08:48:23.000   4280206.9924  -4034400.5871  -2458259.4567   5  14  30.0000  30.0000  30.0000   0.0000   0.0000   0.0000   8.00    0.0
2019/02/12 08:48:49.000   4280206.9924  -4034400.5871  -2458259.4567   5  14  30.0000  30.0000  30.0000   0.0000   0.0000   0.0000   4.00    0.0
2019/02/12 08:49:04.000   4280206.9924  -4034400.5871  -2458259.4567   5  14  30.0000  30.0000  30.0000   0.0000   0.0000   0.0000   4.00    0.0
2019/02/12 08:49:05.000   4280206.9924  -4034400.5871  -2458259.4567   5  14  30.0000  30.0000  30.0000   0.0000   0.0000   0.0000   5.00    0.0
2019/02/12 08:49:06.000   4280206.9924  -4034400.5871  -2458259.4567   5  14  30.0000  30.0000  30.0000   0.0000   0.0000   0.0000   6.00    0.0
2019/02/12 08:49:11.000   4280206.9924  -4034400.5871  -2458259.4567   5  14  30.0000  30.0000  30.0000   0.0000   0.0000   0.0000  11.00    0.0
2019/02/12 08:49:18.000   4280206.9924  -4034400.5871  -2458259.4567   5  13  30.0000  30.0000  30.0000   0.0000   0.0000   0.0000   3.00    0.0
2019/02/12 08:49:23.000   4280206.9924  -4034400.5871  -2458259.4567   5  14  30.0000  30.0000  30.0000   0.0000   0.0000   0.0000   8.00    0.0
2019/02/12 08:49:44.000   4280206.9924  -4034400.5871  -2458259.4567   5  14  30.0000  30.0000  30.0000   0.0000   0.0000   0.0000  14.00    0.0
2019/02/12 08:50:11.000   4280206.9924  -4034400.5871  -2458259.4567   5  14  30.0000  30.0000  30.0000   0.0000   0.0000   0.0000  11.00    0.0
2019/02/12 08:50:26.000   4280206.9924  -4034400.5871  -2458259.4567   5  14  30.0000  30.0000  30.0000   0.0000   0.0000   0.0000  11.00    0.0
2019/02/12 08:50:44.000   4280206.9924  -4034400.5871  -2458259.4567   5  14  30.0000  30.0000  30.0000   0.0000   0.0000   0.0000  14.00    0.0
2019/02/12 08:51:21.000   4280206.9924  -4034400.5871  -2458259.4567   5  14  30.0000  30.0000  30.0000   0.0000   0.0000   0.0000   6.00    0.0
2019/02/12 08:51:29.000   4280206.9924  -4034400.5871  -2458259.4567   5  13  30.0000  30.0000  30.0000   0.0000   0.0000   0.0000  14.00    0.0
2019/02/12 08:52:05.000   4280206.9924  -4034400.5871  -2458259.4567   5  14  30.0000  30.0000  30.0000   0.0000   0.0000   0.0000   5.00    0.0
2019/02/12 08:52:06.000   4280206.9924  -4034400.5871  -2458259.4567   5  14  30.0000  30.0000  30.0000   0.0000   0.0000   0.0000   6.00    0.0
2019/02/12 08:52:09.000   4280206.9924  -4034400.5871  -2458259.4567   5  14  30.0000  30.0000  30.0000   0.0000   0.0000   0.0000   9.00    0.0
2019/02/12 08:52:14.000   4280206.9924  -4034400.5871  -2458259.4567   5  14  30.0000  30.0000  30.0000   0.0000   0.0000   0.0000  14.00    0.0
2019/02/12 08:52:32.000   4280206.9924  -4034400.5871  -2458259.4567   5  14  30.0000  30.0000  30.0000   0.0000   0.0000   0.0000   2.00    0.0
2019/02/12 08:52:38.000   4280206.9924  -4034400.5871  -2458259.4567   5  14  30.0000  30.0000  30.0000   0.0000   0.0000   0.0000   8.00    0.0
2019/02/12 08:52:44.000   4280206.9924  -4034400.5871  -2458259.4567   5  14  30.0000  30.0000  30.0000   0.0000   0.0000   0.0000  14.00    0.0
2019/02/12 08:52:55.000   4280206.9924  -4034400.5871  -2458259.4567   5  14  30.0000  30.0000  30.0000   0.0000   0.0000   0.0000  10.00    0.0
2019/02/12 08:53:04.000   4280206.9924  -4034400.5871  -2458259.4567   5  14  30.0000  30.0000  30.0000   0.0000   0.0000   0.0000   4.00    0.0
2019/02/12 08:53:41.000   4280206.9924  -4034400.5871  -2458259.4567   5  13  30.0000  30.0000  30.0000   0.0000   0.0000   0.0000  11.00    0.0
2019/02/12 08:53:46.000   4280206.9924  -4034400.5871  -2458259.4567   5  13  30.0000  30.0000  30.0000   0.0000   0.0000   0.0000   1.00    0.0
2019/02/12 08:53:50.000   4280206.9924  -4034400.5871  -2458259.4567   5  13  30.0000  30.0000  30.0000   0.0000   0.0000   0.0000   5.00    0.0
2019/02/12 08:53:54.000   4280206.9924  -4034400.5871  -2458259.4567   5  14  30.0000  30.0000  30.0000   0.0000   0.0000   0.0000   9.00    0.0
2019/02/12 08:54:28.000   4280206.9924  -4034400.5871  -2458259.4567   5  14  30.0000  30.0000  30.0000   0.0000   0.0000   0.0000  13.00    0.0
2019/02/12 08:54:40.000   4280206.9924  -4034400.5871  -2458259.4567   5  14  30.0000  30.0000  30.0000   0.0000   0.0000   0.0000  10.00    0.0
2019/02/12 08:54:43.000   4280206.9924  -4034400.5871  -2458259.4567   5  14  30.0000  30.0000  30.0000   0.0000   0.0000   0.0000  13.00    0.0
2019/02/12 08:54:48.000   4280206.9924  -4034400.5871  -2458259.4567   5  12  30.0000  30.0000  30.0000   0.0000   0.0000   0.0000   3.00    0.0
2019/02/12 08:55:02.000   4280206.9924  -4034400.5871  -2458259.4567   5  14  30.0000  30.0000  30.0000   0.0000   0.0000   0.0000   2.00    0.0
2019/02/12 08:55:06.000   4280206.9924  -4034400.5871  -2458259.4567   5  13  30.0000  30.0000  30.0000   0.0000   0.0000   0.0000   6.00    0.0
2019/02/12 08:55:09.000   4280206.9924  -4034400.5871  -2458259.4567   5  13  30.0000  30.0000  30.0000   0.0000   0.0000   0.0000   9.00    0.0
2019/02/12 08:55:10.000   4280206.9924  -4034400.5871  -2458259.4567   5  13  30.0000  30.0000  30.0000   0.0000   0.0000   0.0000  10.00    0.0
2019/02/12 08:55:27.000   4280206.9924  -4034400.5871  -2458259.4567   5  13  30.0000  30.0000  30.0000   0.0000   0.0000   0.0000  12.00    0.0
2019/02/12 08:55:29.000   4280206.9924  -4034400.5871  -2458259.4567   5  13  30.0000  30.0000  30.0000   0.0000   0.0000   0.0000  14.00    0.0
2019/02/12 08:55:53.000   4280206.9924  -4034400.5871  -2458259.4567   5  13  30.0000  30.0000  30.0000   0.0000   0.0000   0.0000   8.00    0.0
2019/02/12 08:56:00.000   4280206.9924  -4034400.5871  -2458259.4567   5  13  30.0000  30.0000  30.0000   0.0000   0.0000   0.0000  -0.00    0.0
2019/02/12 08:56:02.000   4280206.9924  -4034400.5871  -2458259.4567   5  14  30.0000  30.0000  30.0000   0.0000   0.0000   0.0000   2.00    0.0
2019/02/12 08:56:33.000   4280206.9924  -4034400.5871  -2458259.4567   5  13  30.0000  30.0000  30.0000   0.0000   0.0000   0.0000   3.00    0.0
2019/02/12 08:56:54.000   4280206.9924  -4034400.5871  -2458259.4567   5  13  30.0000  30.0000  30.0000   0.0000   0.0000   0.0000   9.00    0.0
2019/02/12 08:56:58.000   4280206.9924  -4034400.5871  -2458259.4567   5  13  30.0000  30.0000  30.0000   0.0000   0.0000   0.0000  13.00    0.0
2019/02/12 08:57:11.000   4280206.9924  -4034400.5871  -2458259.4567   5  14  30.0000  30.0000  30.0000   0.0000   0.0000   0.0000  11.00    0.0
2019/02/12 08:57:12.000   4280206.9924  -4034400.5871  -2458259.4567   5  14  30.0000  30.0000  30.0000   0.0000   0.0000   0.0000  12.00    0.0
2019/02/12 08:57:21.000   4280206.9924  -4034400.5871  -2458259.4567   5  14  30.0000  30.0000  30.0000   0.0000   0.0000   0.0000   6.00    0.0
2019/02/12 08:57:28.000   4280206.9924  -4034400.5871  -2458259.4567   5  12  30.0000  30.0000  30.0000   0.0000   0.0000   0.0000  13.00    0.0
2019/02/12 08:57:37.000   4280206.9924  -4034400.5871  -2458259.4567   5  13  30.0000  30.0000  30.0000   0.0000   0.0000   0.0000   7.00    0.0
2019/02/12 08:57:38.000   4280206.9924  -4034400.5871  -2458259.4567   5  13  30.0000  30.0000  30.0000   0.0000   0.0000   0.0000   8.00    0.0
2019/02/12 08:57:40.000   4280206.9924  -4034400.5871  -2458259.4567   5  13  30.0000  30.0000  30.0000   0.0000   0.0000   0.0000  10.00    0.0
2019/02/12 08:57:42.000   4280206.9924  -4034400.5871  -2458259.4567   5  13  30.0000  30.0000  30.0000   0.0000   0.0000   0.0000  12.00    0.0
2019/02/12 08:57:43.000   4280206.9924  -4034400.5871  -2458259.4567   5  13  30.0000  30.0000  30.0000   0.0000   0.0000   0.0000  13.00    0.0
2019/02/12 08:57:56.000   4280206.9924  -4034400.5871  -2458259.4567   5  14  30.0000  30.0000  30.0000   0.0000   0.0000   0.0000  11.00    0.0
2019/02/12 08:58:03.000   4280206.9924  -4034400.5871  -2458259.4567   5  14  30.0000  30.0000  30.0000   0.0000   0.0000   0.0000   3.00    0.0
2019/02/12 08:58:11.000   4280206.9924  -4034400.5871  -2458259.4567   5  13  30.0000  30.0000  30.0000   0.0000   0.0000   0.0000  11.00    0.0
2019/02/12 08:58:16.000   4280206.9924  -4034400.5871  -2458259.4567   5  14  30.0000  30.0000  30.0000   0.0000   0.0000   0.0000   1.00    0.0
2019/02/12 08:58:20.000   4280206.9924  -4034400.5871  -2458259.4567   5  14  30.0000  30.0000  30.0000   0.0000   0.0000   0.0000   5.00    0.0
2019/02/12 08:58:23.000   4280206.9924  -4034400.5871  -2458259.4567   5  14  30.0000  30.0000  30.0000   0.0000   0.0000   0.0000   8.00    0.0
2019/02/12 08:58:24.000   4280206.9924  -4034400.5871  -2458259.4567   5  13  30.0000  30.0000  30.0000   0.0000   0.0000   0.0000   9.00    0.0
2019/02/12 08:58:38.000   4280206.9924  -4034400.5871  -2458259.4567   5  14  30.0000  30.0000  30.0000   0.0000   0.0000   0.0000   8.00    0.0
2019/02/12 08:58:45.000   4280206.9924  -4034400.5871  -2458259.4567   5  13  30.0000  30.0000  30.0000   0.0000   0.0000   0.0000  -0.00    0.0
2019/02/12 08:58:47.000   4280206.9924  -4034400.5871  -2458259.4567   5  13  30.0000  30.0000  30.0000   0.0000   0.0000   0.0000   2.00    0.0
2019/02/12 08:59:04.000   4280206.9924  -4034400.5871  -2458259.4567   5  14  30.0000  30.0000  30.0000   0.0000   0.0000   0.0000   4.00    0.0
2019/02/12 08:59:23.000   4280206.9924  -4034400.5871  -2458259.4567   5  12  30.0000  30.0000  30.0000   0.0000   0.0000   0.0000   8.00    0.0
2019/02/12 08:59:24.000   4280206.9924  -4034400.5871  -2458259.4567   5  12  30.0000  30.0000  30.0000   0.0000   0.0000   0.0000   9.00    0.0
2019/02/12 08:59:25.000   4280206.9924  -4034400.5871  -2458259.4567   5  12  30.0000  30.0000  30.0000   0.0000   0.0000   0.0000  10.00    0.0
2019/02/12 08:59:29.000   4280206.9924  -4034400.5871  -2458259.4567   5  12  30.0000  30.0000  30.0000   0.0000   0.0000   0.0000  14.00    0.0
2019/02/12 08:59:39.000   4280206.9924  -4034400.5871  -2458259.4567   5  12  30.0000  30.0000  30.0000   0.0000   0.0000   0.0000   9.00    0.0
2019/02/12 08:59:40.000   4280206.9924  -4034400.5871  -2458259.4567   5  12  30.0000  30.0000  30.0000   0.0000   0.0000   0.0000  10.00    0.0
2019/02/12 08:59:50.000   4280206.9924  -4034400.5871  -2458259.4567   5  13  30.0000  30.0000  30.0000   0.0000   0.0000   0.0000   5.00    0.0
2019/02/12 08:59:55.000   4280206.9924  -4034400.5871  -2458259.4567   5  14  30.0000  30.0000  30.0000   0.0000   0.0000   0.0000  10.00    0.0
2019/02/12 09:00:15.000   4280206.9924  -4034400.5871  -2458259.4567   5  12  30.0000  30.0000  30.0000   0.0000   0.0000   0.0000  -0.00    0.0
2019/02/12 09:00:31.000   4280206.9924  -4034400.5871  -2458259.4567   5  13  30.0000  30.0000  30.0000   0.0000   0.0000   0.0000   1.00    0.0
2019/02/12 09:00:35.000   4280206.9924  -4034400.5871  -2458259.4567   5  13  30.0000  30.0000  30.0000   0.0000   0.0000   0.0000   5.00    0.0
2019/02/12 09:00:39.000   4280206.9924  -4034400.5871  -2458259.4567   5  14  30.0000  30.0000  30.0000   0.0000   0.0000   0.0000   9.00    0.0
2019/02/12 09:00:40.000   4280206.9924  -4034400.5871  -2458259.4567   5  13  30.0000  30.0000  30.0000   0.0000   0.0000   0.0000  10.00    0.0
2019/02/12 09:00:44.000   4280206.9924  -4034400.5871  -2458259.4567   5  13  30.0000  30.0000  30.0000   0.0000   0.0000   0.0000  14.00    0.0
2019/02/12 09:00:45.000   4280206.9924  -4034400.5871  -2458259.4567   5  13  30.0000  30.0000  30.0000   0.0000   0.0000   0.0000  -0.00    0.0
2019/02/12 09:00:51.000   4280206.9924  -4034400.5871  -2458259.4567   5  13  30.0000  30.0000  30.0000   0.0000   0.0000   0.0000   6.00    0.0
2019/02/12 09:01:04.000   4280206.9924  -4034400.5871  -2458259.4567   5  13  30.0000  30.0000  30.0000   0.0000   0.0000   0.0000   4.00    0.0
2019/02/12 09:01:05.000   4280206.9924  -4034400.5871  -2458259.4567   5  14  30.0000  30.0000  30.0000   0.0000   0.0000   0.0000   5.00    0.0
2019/02/12 09:01:38.000   4280206.9924  -4034400.5871  -2458259.4567   5  13  30.0000  30.0000  30.0000   0.0000   0.0000   0.0000   8.00    0.0
2019/02/12 09:01:40.000   4280206.9924  -4034400.5871  -2458259.4567   5  13  30.0000  30.0000  30.0000   0.0000   0.0000   0.0000  10.00    0.0
2019/02/12 09:01:43.000   4280206.9924  -4034400.5871  -2458259.4567   5  13  30.0000  30.0000  30.0000   0.0000   0.0000   0.0000  13.00    0.0
2019/02/12 09:01:47.000   4280206.9924  -4034400.5871  -2458259.4567   5  13  30.0000  30.0000  30.0000   0.0000   0.0000   0.0000   2.00    0.0
2019/02/12 09:01:54.000   4280206.9924  -4034400.5871  -2458259.4567   5  14  30.0000  30.0000  30.0000   0.0000   0.0000   0.0000   9.00    0.0
2019/02/12 09:01:55.000   4280206.9924  -4034400.5871  -2458259.4567   5  14  30.0000  30.0000  30.0000   0.0000   0.0000   0.0000  10.00    0.0
2019/02/12 09:02:00.000   4280206.9924  -4034400.5871  -2458259.4567   5  13  30.0000  30.0000  30.0000   0.0000   0.0000   0.0000  -0.00    0.0
2019/02/12 09:02:04.000   4280206.9924  -4034400.5871  -2458259.4567   5  13  30.0000  30.0000  30.0000   0.0000   0.0000   0.0000   4.00    0.0
2019/02/12 09:02:16.000   4280206.9924  -4034400.5871  -2458259.4567   5  13  30.0000  30.0000  30.0000   0.0000   0.0000   0.0000   1.00    0.0
2019/02/12 09:02:41.000   4280206.9924  -4034400.5871  -2458259.4567   5  13  30.0000  30.0000  30.0000   0.0000   0.0000   0.0000  11.00    0.0
2019/02/12 09:02:48.000   4280206.9924  -4034400.5871  -2458259.4567   5  13  30.0000  30.0000  30.0000   0.0000   0.0000   0.0000   3.00    0.0
2019/02/12 09:02:49.000   4280206.9924  -4034400.5871  -2458259.4567   5  13  30.0000  30.0000  30.0000   0.0000   0.0000   0.0000   4.00    0.0
2019/02/12 09:03:16.000   4280206.9924  -4034400.5871  -2458259.4567   5  13  30.0000  30.0000  30.0000   0.0000   0.0000   0.0000   1.00    0.0
2019/02/12 09:03:29.000   4280206.9924  -4034400.5871  -2458259.4567   5  13  30.0000  30.0000  30.0000   0.0000   0.0000   0.0000  14.00    0.0
2019/02/12 09:03:42.000   4280206.9924  -4034400.5871  -2458259.4567   5  13  30.0000  30.0000  30.0000   0.0000   0.0000   0.0000  12.00    0.0
2019/02/12 09:03:44.000   4280206.9924  -4034400.5871  -2458259.4567   5  13  30.0000  30.0000  30.0000   0.0000   0.0000   0.0000  14.00    0.0
2019/02/12 09:03:51.000   4280206.9924  -4034400.5871  -2458259.4567   5  13  30.0000  30.0000  30.0000   0.0000   0.0000   0.0000   6.00    0.0
2019/02/12 09:03:52.000   4280206.9924  -4034400.5871  -2458259.4567   5  13  30.0000  30.0000  30.0000   0.0000   0.0000   0.0000   7.00    0.0
2019/02/12 09:04:00.000   4280206.9924  -4034400.5871  -2458259.4567   5  12  30.0000  30.0000  30.0000   0.0000   0.0000   0.0000  -0.00    0.0
2019/02/12 09:04:01.000   4280206.9924  -4034400.5871  -2458259.4567   5  12  30.0000  30.0000  30.0000   0.0000   0.0000   0.0000   1.00    0.0
2019/02/12 09:04:02.000   4280206.9924  -4034400.5871  -2458259.4567   5  12  30.0000  30.0000  30.0000   0.0000   0.0000   0.0000   2.00    0.0
2019/02/12 09:04:04.000   4280206.9924  -4034400.5871  -2458259.4567   5  12  30.0000  30.0000  30.0000   0.0000   0.0000   0.0000   4.00    0.0
2019/02/12 09:04:05.000   4280206.9924  -4034400.5871  -2458259.4567   5  12  30.0000  30.0000  30.0000   0.0000   0.0000   0.0000   5.00    0.0
2019/02/12 09:04:10.000   4280206.9924  -4034400.5871  -2458259.4567   5  12  30.0000  30.0000  30.0000   0.0000   0.0000   0.0000  10.00    0.0
2019/02/12 09:04:15.000   4280206.9924  -4034400.5871  -2458259.4567   5  12  30.0000  30.0000  30.0000   0.0000   0.0000   0.0000  -0.00    0.0
2019/02/12 09:04:16.000   4280206.9924  -4034400.5871  -2458259.4567   5  12  30.0000  30.0000  30.0000   0.0000   0.0000   0.0000   1.00    0.0
2019/02/12 09:04:17.000   4280206.9924  -4034400.5871  -2458259.4567   5  12  30.0000  30.0000  30.0000   0.0000   0.0000   0.0000   2.00    0.0
2019/02/12 09:04:19.000   4280206.9924  -4034400.5871  -2458259.4567   5  12  30.0000  30.0000  30.0000   0.0000   0.0000   0.0000   4.00    0.0
2019/02/12 09:04:20.000   4280206.9924  -4034400.5871  -2458259.4567   5  12  30.0000  30.0000  30.0000   0.0000   0.0000   0.0000   5.00    0.0
2019/02/12 09:04:23.000   4280206.9924  -4034400.5871  -2458259.4567   5  12  30.0000  30.0000  30.0000   0.0000   0.0000   0.0000   8.00    0.0
2019/02/12 09:04:24.000   4280206.9924  -4034400.5871  -2458259.4567   5  12  30.0000  30.0000  30.0000   0.0000   0.0000   0.0000   9.00    0.0
2019/02/12 09:04:26.000   4280206.9924  -4034400.5871  -2458259.4567   5  12  30.0000  30.0000  30.0000   0.0000   0.0000   0.0000  11.00    0.0
2019/02/12 09:04:30.000   4280206.9924  -4034400.5871  -2458259.4567   5  12  30.0000  30.0000  30.0000   0.0000   0.0000   0.0000  -0.00    0.0
2019/02/12 09:04:45.000   4280206.9924  -4034400.5871  -2458259.4567   5  12  30.0000  30.0000  30.0000   0.0000   0.0000   0.0000  -0.00    0.0
2019/02/12 09:04:47.000   4280206.9924  -4034400.5871  -2458259.4567   5  12  30.0000  30.0000  30.0000   0.0000   0.0000   0.0000   2.00    0.0
2019/02/12 09:04:48.000   4280206.9924  -4034400.5871  -2458259.4567   5  11  30.0000  30.0000  30.0000   0.0000   0.0000   0.0000   3.00    0.0
2019/02/12 09:04:49.000   4280206.9924  -4034400.5871  -2458259.4567   5  11  30.0000  30.0000  30.0000   0.0000   0.0000   0.0000   4.00    0.0
2019/02/12 09:04:52.000   4280206.9924  -4034400.5871  -2458259.4567   5  11  30.0000  30.0000  30.0000   0.0000   0.0000   0.0000   7.00    0.0
2019/02/12 09:04:57.000   4280206.9924  -4034400.5871  -2458259.4567   5  11  30.0000  30.0000  30.0000   0.0000   0.0000   0.0000  12.00    0.0
2019/02/12 09:05:10.000   4280206.9924  -4034400.5871  -2458259.4567   5  12  30.0000  30.0000  30.0000   0.0000   0.0000   0.0000  10.00    0.0
2019/02/12 09:05:23.000   4280206.9924  -4034400.5871  -2458259.4567   5  12  30.0000  30.0000  30.0000   0.0000   0.0000   0.0000   8.00    0.0
2019/02/12 09:05:31.000   4280206.9924  -4034400.5871  -2458259.4567   5  12  30.0000  30.0000  30.0000   0.0000   0.0000   0.0000   1.00    0.0
2019/02/12 09:05:32.000   4280206.9924  -4034400.5871  -2458259.4567   5  12  30.0000  30.0000  30.0000   0.0000   0.0000   0.0000   2.00    0.0
2019/02/12 09:05:34.000   4280206.9924  -4034400.5871  -2458259.4567   5  12  30.0000  30.0000  30.0000   0.0000   0.0000   0.0000   4.00    0.0
2019/02/12 09:05:38.000   4280206.9924  -4034400.5871  -2458259.4567   5  12  30.0000  30.0000  30.0000   0.0000   0.0000   0.0000   8.00    0.0
2019/02/12 09:05:41.000   4280206.9924  -4034400.5871  -2458259.4567   5  12  30.0000  30.0000  30.0000   0.0000   0.0000   0.0000  11.00    0.0
2019/02/12 09:05:45.000   4280206.9924  -4034400.5871  -2458259.4567   5  12  30.0000  30.0000  30.0000   0.0000   0.0000   0.0000  -0.00    0.0
2019/02/12 09:05:46.000   4280206.9924  -4034400.5871  -2458259.4567   5  12  30.0000  30.0000  30.0000   0.0000   0.0000   0.0000   1.00    0.0
2019/02/12 09:05:47.000   4280206.9924  -4034400.5871  -2458259.4567   5  12  30.0000  30.0000  30.0000   0.0000   0.0000   0.0000   2.00    0.0
2019/02/12 09:05:51.000   4280206.9924  -4034400.5871  -2458259.4567   5  12  30.0000  30.0000  30.0000   0.0000   0.0000   0.0000   6.00    0.0
2019/02/12 09:06:01.000   4280206.9924  -4034400.5871  -2458259.4567   5  12  30.0000  30.0000  30.0000   0.0000   0.0000   0.0000   1.00    0.0
2019/02/12 09:06:02.000   4280206.9924  -4034400.5871  -2458259.4567   5  12  30.0000  30.0000  30.0000   0.0000   0.0000   0.0000   2.00    0.0
2019/02/12 09:06:04.000   4280206.9924  -4034400.5871  -2458259.4567   5  12  30.0000  30.0000  30.0000   0.0000   0.0000   0.0000   4.00    0.0
2019/02/12 09:06:06.000   4280206.9924  -4034400.5871  -2458259.4567   5  12  30.0000  30.0000  30.0000   0.0000   0.0000   0.0000   6.00    0.0
2019/02/12 09:06:07.000   4280206.9924  -4034400.5871  -2458259.4567   5  12  30.0000  30.0000  30.0000   0.0000   0.0000   0.0000   7.00    0.0
2019/02/12 09:06:22.000   4280206.9924  -4034400.5871  -2458259.4567   5  12  30.0000  30.0000  30.0000   0.0000   0.0000   0.0000   7.00    0.0
2019/02/12 09:06:23.000   4280206.9924  -4034400.5871  -2458259.4567   5  12  30.0000  30.0000  30.0000   0.0000   0.0000   0.0000   8.00    0.0
2019/02/12 09:06:24.000   4280206.9924  -4034400.5871  -2458259.4567   5  12  30.0000  30.0000  30.0000   0.0000   0.0000   0.0000   9.00    0.0
2019/02/12 09:06:29.000   4280206.9924  -4034400.5871  -2458259.4567   5  12  30.0000  30.0000  30.0000   0.0000   0.0000   0.0000  14.00    0.0
2019/02/12 09:06:32.000   4280206.9924  -4034400.5871  -2458259.4567   5  12  30.0000  30.0000  30.0000   0.0000   0.0000   0.0000   2.00    0.0
2019/02/12 09:06:38.000   4280206.9924  -4034400.5871  -2458259.4567   5  12  30.0000  30.0000  30.0000   0.0000   0.0000   0.0000   8.00    0.0
2019/02/12 09:07:04.000   4280206.9924  -4034400.5871  -2458259.4567   5  12  30.0000  30.0000  30.0000   0.0000   0.0000   0.0000   4.00    0.0
2019/02/12 09:07:06.000   4280206.9924  -4034400.5871  -2458259.4567   5  12  30.0000  30.0000  30.0000   0.0000   0.0000   0.0000   6.00    0.0
2019/02/12 09:07:08.000   4280206.9924  -4034400.5871  -2458259.4567   5  12  30.0000  30.0000  30.0000   0.0000   0.0000   0.0000   8.00    0.0
2019/02/12 09:07:18.000   4280206.9924  -4034400.5871  -2458259.4567   5  12  30.0000  30.0000  30.0000   0.0000   0.0000   0.0000   3.00    0.0
2019/02/12 09:07:19.000   4280206.9924  -4034400.5871  -2458259.4567   5  12  30.0000  30.0000  30.0000   0.0000   0.0000   0.0000   4.00    0.0
2019/02/12 09:07:27.000   4280206.9924  -4034400.5871  -2458259.4567   5  12  30.0000  30.0000  30.0000   0.0000   0.0000   0.0000  12.00    0.0
2019/02/12 09:07:28.000   4280206.9924  -4034400.5871  -2458259.4567   5  12  30.0000  30.0000  30.0000   0.0000   0.0000   0.0000  13.00    0.0
2019/02/12 09:07:33.000   4280206.9924  -4034400.5871  -2458259.4567   5  12  30.0000  30.0000  30.0000   0.0000   0.0000   0.0000   3.00    0.0
2019/02/12 09:07:35.000   4280206.9924  -4034400.5871  -2458259.4567   5  11  30.0000  30.0000  30.0000   0.0000   0.0000   0.0000   5.00    0.0
2019/02/12 09:07:36.000   4280206.9924  -4034400.5871  -2458259.4567   5  11  30.0000  30.0000  30.0000   0.0000   0.0000   0.0000   6.00    0.0
2019/02/12 09:07:38.000   4280206.9924  -4034400.5871  -2458259.4567   5  11  30.0000  30.0000  30.0000   0.0000   0.0000   0.0000   8.00    0.0
2019/02/12 09:07:39.000   4280206.9924  -4034400.5871  -2458259.4567   5  11  30.0000  30.0000  30.0000   0.0000   0.0000   0.0000   9.00    0.0
2019/02/12 09:07:43.000   4280206.9924  -4034400.5871  -2458259.4567   5  11  30.0000  30.0000  30.0000   0.0000   0.0000   0.0000  13.00    0.0
2019/02/12 09:07:44.000   4280206.9924  -4034400.5871  -2458259.4567   5  11  30.0000  30.0000  30.0000   0.0000   0.0000   0.0000  14.00    0.0
2019/02/12 09:07:46.000   4280206.9924  -4034400.5871  -2458259.4567   5  11  30.0000  30.0000  30.0000   0.0000   0.0000   0.0000   1.00    0.0
2019/02/12 09:07:56.000   4280206.9924  -4034400.5871  -2458259.4567   5  11  30.0000  30.0000  30.0000   0.0000   0.0000   0.0000  11.00    0.0
2019/02/12 09:08:06.000   4280206.9924  -4034400.5871  -2458259.4567   5  12  30.0000  30.0000  30.0000   0.0000   0.0000   0.0000   6.00    0.0
2019/02/12 09:08:07.000   4280206.9924  -4034400.5871  -2458259.4567   5  12  30.0000  30.0000  30.0000   0.0000   0.0000   0.0000   7.00    0.0
2019/02/12 09:08:10.000   4280206.9924  -4034400.5871  -2458259.4567   5  12  30.0000  30.0000  30.0000   0.0000   0.0000   0.0000  10.00    0.0
2019/02/12 09:08:26.000   4280206.9924  -4034400.5871  -2458259.4567   5  12  30.0000  30.0000  30.0000   0.0000   0.0000   0.0000  11.00    0.0
2019/02/12 09:08:36.000   4280206.9924  -4034400.5871  -2458259.4567   5  12  30.0000  30.0000  30.0000   0.0000   0.0000   0.0000   6.00    0.0
2019/02/12 09:08:37.000   4280206.9924  -4034400.5871  -2458259.4567   5  12  30.0000  30.0000  30.0000   0.0000   0.0000   0.0000   7.00    0.0
2019/02/12 09:08:38.000   4280206.9924  -4034400.5871  -2458259.4567   5  12  30.0000  30.0000  30.0000   0.0000   0.0000   0.0000   8.00    0.0
2019/02/12 09:08:40.000   4280206.9924  -4034400.5871  -2458259.4567   5  12  30.0000  30.0000  30.0000   0.0000   0.0000   0.0000  10.00    0.0
2019/02/12 09:08:42.000   4280206.9924  -4034400.5871  -2458259.4567   5  12  30.0000  30.0000  30.0000   0.0000   0.0000   0.0000  12.00    0.0
2019/02/12 09:08:43.000   4280206.9924  -4034400.5871  -2458259.4567   5  12  30.0000  30.0000  30.0000   0.0000   0.0000   0.0000  13.00    0.0
2019/02/12 09:08:48.000   4280206.9924  -4034400.5871  -2458259.4567   5  12  30.0000  30.0000  30.0000   0.0000   0.0000   0.0000   3.00    0.0
2019/02/12 09:08:49.000   4280206.9924  -4034400.5871  -2458259.4567   5  12  30.0000  30.0000  30.0000   0.0000   0.0000   0.0000   4.00    0.0
2019/02/12 09:08:52.000   4280206.9924  -4034400.5871  -2458259.4567   5  12  30.0000  30.0000  30.0000   0.0000   0.0000   0.0000   7.00    0.0
2019/02/12 09:08:53.000   4280206.9924  -4034400.5871  -2458259.4567   5  12  30.0000  30.0000  30.0000   0.0000   0.0000   0.0000   8.00    0.0
2019/02/12 09:08:58.000   4280206.9924  -4034400.5871  -2458259.4567   5  12  30.0000  30.0000  30.0000   0.0000   0.0000   0.0000  13.00    0.0
2019/02/12 09:09:00.000   4280206.9924  -4034400.5871  -2458259.4567   5  12  30.0000  30.0000  30.0000   0.0000   0.0000   0.0000  -0.00    0.0
2019/02/12 09:09:11.000   4280206.9924  -4034400.5871  -2458259.4567   5  12  30.0000  30.0000  30.0000   0.0000   0.0000   0.0000  11.00    0.0
2019/02/12 09:09:30.000   4280206.9924  -4034400.5871  -2458259.4567   5  11  30.0000  30.0000  30.0000   0.0000   0.0000   0.0000  -0.00    0.0
2019/02/12 09:09:32.000   4280206.9924  -4034400.5871  -2458259.4567   5  11  30.0000  30.0000  30.0000   0.0000   0.0000   0.0000   2.00    0.0
2019/02/12 09:09:40.000   4280206.9924  -4034400.5871  -2458259.4567   5  11  30.0000  30.0000  30.0000   0.0000   0.0000   0.0000  10.00    0.0
2019/02/12 09:09:41.000   4280206.9924  -4034400.5871  -2458259.4567   5  11  30.0000  30.0000  30.0000   0.0000   0.0000   0.0000  11.00    0.0
2019/02/12 09:09:42.000   4280206.9924  -4034400.5871  -2458259.4567   5  11  30.0000  30.0000  30.0000   0.0000   0.0000   0.0000  12.00    0.0
2019/02/12 09:09:44.000   4280206.9924  -4034400.5871  -2458259.4567   5  12  30.0000  30.0000  30.0000   0.0000   0.0000   0.0000  14.00    0.0
2019/02/12 09:09:45.000   4280206.9924  -4034400.5871  -2458259.4567   5  12  30.0000  30.0000  30.0000   0.0000   0.0000   0.0000  -0.00    0.0
2019/02/12 09:09:50.000   4280206.9924  -4034400.5871  -2458259.4567   5  12  30.0000  30.0000  30.0000   0.0000   0.0000   0.0000   5.00    0.0
2019/02/12 09:09:53.000   4280206.9924  -4034400.5871  -2458259.4567   5  12  30.0000  30.0000  30.0000   0.0000   0.0000   0.0000   8.00    0.0
2019/02/12 09:09:54.000   4280206.9924  -4034400.5871  -2458259.4567   5  12  30.0000  30.0000  30.0000   0.0000   0.0000   0.0000   9.00    0.0
2019/02/12 09:10:05.000   4280206.9924  -4034400.5871  -2458259.4567   5  12  30.0000  30.0000  30.0000   0.0000   0.0000   0.0000   5.00    0.0
2019/02/12 09:10:08.000   4280206.9924  -4034400.5871  -2458259.4567   5  12  30.0000  30.0000  30.0000   0.0000   0.0000   0.0000   8.00    0.0
2019/02/12 09:10:32.000   4280206.9924  -4034400.5871  -2458259.4567   5  10  30.0000  30.0000  30.0000   0.0000   0.0000   0.0000   2.00    0.0
2019/02/12 09:10:36.000   4280206.9924  -4034400.5871  -2458259.4567   5  10  30.0000  30.0000  30.0000   0.0000   0.0000   0.0000   6.00    0.0
2019/02/12 09:10:38.000   4280206.9924  -4034400.5871  -2458259.4567   5  10  30.0000  30.0000  30.0000   0.0000   0.0000   0.0000   8.00    0.0
2019/02/12 09:10:45.000   4280206.9924  -4034400.5871  -2458259.4567   5  12  30.0000  30.0000  30.0000   0.0000   0.0000   0.0000  -0.00    0.0
2019/02/12 09:10:46.000   4280206.9924  -4034400.5871  -2458259.4567   5  12  30.0000  30.0000  30.0000   0.0000   0.0000   0.0000   1.00    0.0
2019/02/12 09:11:02.000   4280206.9924  -4034400.5871  -2458259.4567   5  12  30.0000  30.0000  30.0000   0.0000   0.0000   0.0000   2.00    0.0
2019/02/12 09:11:03.000   4280206.9924  -4034400.5871  -2458259.4567   5  12  30.0000  30.0000  30.0000   0.0000   0.0000   0.0000   3.00    0.0
2019/02/12 09:11:09.000   4280206.9924  -4034400.5871  -2458259.4567   5  12  30.0000  30.0000  30.0000   0.0000   0.0000   0.0000   9.00    0.0
2019/02/12 09:11:12.000   4280206.9924  -4034400.5871  -2458259.4567   5  12  30.0000  30.0000  30.0000   0.0000   0.0000   0.0000  12.00    0.0
2019/02/12 09:11:21.000   4280206.9924  -4034400.5871  -2458259.4567   5  11  30.0000  30.0000  30.0000   0.0000   0.0000   0.0000   6.00    0.0
2019/02/12 09:11:24.000   4280206.9924  -4034400.5871  -2458259.4567   5  11  30.0000  30.0000  30.0000   0.0000   0.0000   0.0000   9.00    0.0
2019/02/12 09:11:28.000   4280206.9924  -4034400.5871  -2458259.4567   5  11  30.0000  30.0000  30.0000   0.0000   0.0000   0.0000  13.00    0.0
2019/02/12 09:11:40.000   4280206.9924  -4034400.5871  -2458259.4567   5  11  30.0000  30.0000  30.0000   0.0000   0.0000   0.0000  10.00    0.0
2019/02/12 09:11:41.000   4280206.9924  -4034400.5871  -2458259.4567   5  11  30.0000  30.0000  30.0000   0.0000   0.0000   0.0000  11.00    0.0
2019/02/12 09:11:43.000   4280206.9924  -4034400.5871  -2458259.4567   5  11  30.0000  30.0000  30.0000   0.0000   0.0000   0.0000  13.00    0.0
2019/02/12 09:11:54.000   4280206.9924  -4034400.5871  -2458259.4567   5  11  30.0000  30.0000  30.0000   0.0000   0.0000   0.0000   9.00    0.0
2019/02/12 09:11:57.000   4280206.9924  -4034400.5871  -2458259.4567   5  11  30.0000  30.0000  30.0000   0.0000   0.0000   0.0000  12.00    0.0
2019/02/12 09:11:58.000   4280206.9924  -4034400.5871  -2458259.4567   5  11  30.0000  30.0000  30.0000   0.0000   0.0000   0.0000  13.00    0.0
2019/02/12 09:11:59.000   4280206.9924  -4034400.5871  -2458259.4567   5  11  30.0000  30.0000  30.0000   0.0000   0.0000   0.0000  14.00    0.0
2019/02/12 09:12:00.000   4280206.9924  -4034400.5871  -2458259.4567   5  11  30.0000  30.0000  30.0000   0.0000   0.0000   0.0000  -0.00    0.0
2019/02/12 09:12:01.000   4280206.9924  -4034400.5871  -2458259.4567   5  11  30.0000  30.0000  30.0000   0.0000   0.0000   0.0000   1.00    0.0
2019/02/12 09:12:13.000   4280206.9924  -4034400.5871  -2458259.4567   5  11  30.0000  30.0000  30.0000   0.0000   0.0000   0.0000  13.00    0.0
2019/02/12 09:12:15.000   4280206.9924  -4034400.5871  -2458259.4567   5  11  30.0000  30.0000  30.0000   0.0000   0.0000   0.0000  -0.00    0.0
2019/02/12 09:12:22.000   4280206.9924  -4034400.5871  -2458259.4567   5  11  30.0000  30.0000  30.0000   0.0000   0.0000   0.0000   7.00    0.0
2019/02/12 09:12:30.000   4280206.9924  -4034400.5871  -2458259.4567   5  12  30.0000  30.0000  30.0000   0.0000   0.0000   0.0000  -0.00    0.0
2019/02/12 09:12:34.000   4280206.9924  -4034400.5871  -2458259.4567   5  11  30.0000  30.0000  30.0000   0.0000   0.0000   0.0000   4.00    0.0
2019/02/12 09:12:36.000   4280206.9924  -4034400.5871  -2458259.4567   5  11  30.0000  30.0000  30.0000   0.0000   0.0000   0.0000   6.00    0.0
2019/02/12 09:12:38.000   4280206.9924  -4034400.5871  -2458259.4567   5  12  30.0000  30.0000  30.0000   0.0000   0.0000   0.0000   8.00    0.0
2019/02/12 09:12:39.000   4280206.9924  -4034400.5871  -2458259.4567   5  12  30.0000  30.0000  30.0000   0.0000   0.0000   0.0000   9.00    0.0
2019/02/12 09:12:46.000   4280206.9924  -4034400.5871  -2458259.4567   5  12  30.0000  30.0000  30.0000   0.0000   0.0000   0.0000   1.00    0.0
2019/02/12 09:12:48.000   4280206.9924  -4034400.5871  -2458259.4567   5  12  30.0000  30.0000  30.0000   0.0000   0.0000   0.0000   3.00    0.0
2019/02/12 09:13:02.000   4280206.9924  -4034400.5871  -2458259.4567   5  12  30.0000  30.0000  30.0000   0.0000   0.0000   0.0000   2.00    0.0
2019/02/12 09:13:06.000   4280206.9924  -4034400.5871  -2458259.4567   5  12  30.0000  30.0000  30.0000   0.0000   0.0000   0.0000   6.00    0.0
2019/02/12 09:13:07.000   4280206.9924  -4034400.5871  -2458259.4567   5  11  30.0000  30.0000  30.0000   0.0000   0.0000   0.0000   7.00    0.0
2019/02/12 09:13:09.000   4280206.9924  -4034400.5871  -2458259.4567   5  12  30.0000  30.0000  30.0000   0.0000   0.0000   0.0000   9.00    0.0
2019/02/12 09:13:10.000   4280206.9924  -4034400.5871  -2458259.4567   5  11  30.0000  30.0000  30.0000   0.0000   0.0000   0.0000  10.00    0.0
2019/02/12 09:13:11.000   4280206.9924  -4034400.5871  -2458259.4567   5  11  30.0000  30.0000  30.0000   0.0000   0.0000   0.0000  11.00    0.0
2019/02/12 09:13:12.000   4280206.9924  -4034400.5871  -2458259.4567   5  11  30.0000  30.0000  30.0000   0.0000   0.0000   0.0000  12.00    0.0
2019/02/12 09:13:13.000   4280206.9924  -4034400.5871  -2458259.4567   5  11  30.0000  30.0000  30.0000   0.0000   0.0000   0.0000  13.00    0.0
2019/02/12 09:13:17.000   4280206.9924  -4034400.5871  -2458259.4567   5  12  30.0000  30.0000  30.0000   0.0000   0.0000   0.0000   2.00    0.0
2019/02/12 09:13:18.000   4280206.9924  -4034400.5871  -2458259.4567   5  11  30.0000  30.0000  30.0000   0.0000   0.0000   0.0000   3.00    0.0
2019/02/12 09:13:19.000   4280206.9924  -4034400.5871  -2458259.4567   5  11  30.0000  30.0000  30.0000   0.0000   0.0000   0.0000   4.00    0.0
2019/02/12 09:13:21.000   4280206.9924  -4034400.5871  -2458259.4567   5  11  30.0000  30.0000  30.0000   0.0000   0.0000   0.0000   6.00    0.0
2019/02/12 09:13:22.000   4280206.9924  -4034400.5871  -2458259.4567   5  12  30.0000  30.0000  30.0000   0.0000   0.0000   0.0000   7.00    0.0
2019/02/12 09:13:24.000   4280206.9924  -4034400.5871  -2458259.4567   5  11  30.0000  30.0000  30.0000   0.0000   0.0000   0.0000   9.00    0.0
2019/02/12 09:13:25.000   4280206.9924  -4034400.5871  -2458259.4567   5  11  30.0000  30.0000  30.0000   0.0000   0.0000   0.0000  10.00    0.0
2019/02/12 09:13:26.000   4280206.9924  -4034400.5871  -2458259.4567   5  11  30.0000  30.0000  30.0000   0.0000   0.0000   0.0000  11.00    0.0
2019/02/12 09:13:29.000   4280206.9924  -4034400.5871  -2458259.4567   5  11  30.0000  30.0000  30.0000   0.0000   0.0000   0.0000  14.00    0.0
2019/02/12 09:13:34.000   4280206.9924  -4034400.5871  -2458259.4567   5  11  30.0000  30.0000  30.0000   0.0000   0.0000   0.0000   4.00    0.0
2019/02/12 09:13:35.000   4280206.9924  -4034400.5871  -2458259.4567   5  11  30.0000  30.0000  30.0000   0.0000   0.0000   0.0000   5.00    0.0
2019/02/12 09:13:41.000   4280206.9924  -4034400.5871  -2458259.4567   5  11  30.0000  30.0000  30.0000   0.0000   0.0000   0.0000  11.00    0.0
2019/02/12 09:13:42.000   4280206.9924  -4034400.5871  -2458259.4567   5  11  30.0000  30.0000  30.0000   0.0000   0.0000   0.0000  12.00    0.0
2019/02/12 09:13:44.000   4280206.9924  -4034400.5871  -2458259.4567   5  11  30.0000  30.0000  30.0000   0.0000   0.0000   0.0000  14.00    0.0
2019/02/12 09:13:53.000   4280206.9924  -4034400.5871  -2458259.4567   5  12  30.0000  30.0000  30.0000   0.0000   0.0000   0.0000   8.00    0.0
2019/02/12 09:14:13.000   4280206.9924  -4034400.5871  -2458259.4567   5  11  30.0000  30.0000  30.0000   0.0000   0.0000   0.0000  13.00    0.0
2019/02/12 09:14:49.000   4280206.9924  -4034400.5871  -2458259.4567   5  12  30.0000  30.0000  30.0000   0.0000   0.0000   0.0000   4.00    0.0
2019/02/12 09:14:50.000   4280206.9924  -4034400.5871  -2458259.4567   5  11  30.0000  30.0000  30.0000   0.0000   0.0000   0.0000   5.00    0.0
2019/02/12 09:14:51.000   4280206.9924  -4034400.5871  -2458259.4567   5  12  30.0000  30.0000  30.0000   0.0000   0.0000   0.0000   6.00    0.0
2019/02/12 09:15:00.000   4280206.9924  -4034400.5871  -2458259.4567   5  12  30.0000  30.0000  30.0000   0.0000   0.0000   0.0000  -0.00    0.0
2019/02/12 09:15:03.000   4280206.9924  -4034400.5871  -2458259.4567   5  12  30.0000  30.0000  30.0000   0.0000   0.0000   0.0000   3.00    0.0
2019/02/12 09:15:22.000   4280206.9924  -4034400.5871  -2458259.4567   5  11  30.0000  30.0000  30.0000   0.0000   0.0000   0.0000   7.00    0.0
2019/02/12 09:15:23.000   4280206.9924  -4034400.5871  -2458259.4567   5  11  30.0000  30.0000  30.0000   0.0000   0.0000   0.0000   8.00    0.0
2019/02/12 09:15:24.000   4280206.9924  -4034400.5871  -2458259.4567   5  11  30.0000  30.0000  30.0000   0.0000   0.0000   0.0000   9.00    0.0
2019/02/12 09:15:25.000   4280206.9924  -4034400.5871  -2458259.4567   5  11  30.0000  30.0000  30.0000   0.0000   0.0000   0.0000  10.00    0.0
2019/02/12 09:15:26.000   4280206.9924  -4034400.5871  -2458259.4567   5  11  30.0000  30.0000  30.0000   0.0000   0.0000   0.0000  11.00    0.0
2019/02/12 09:15:28.000   4280206.9924  -4034400.5871  -2458259.4567   5  11  30.0000  30.0000  30.0000   0.0000   0.0000   0.0000  13.00    0.0
2019/02/12 09:15:30.000   4280206.9924  -4034400.5871  -2458259.4567   5  11  30.0000  30.0000  30.0000   0.0000   0.0000   0.0000  -0.00    0.0
2019/02/12 09:15:37.000   4280206.9924  -4034400.5871  -2458259.4567   5  11  30.0000  30.0000  30.0000   0.0000   0.0000   0.0000   7.00    0.0
2019/02/12 09:15:44.000   4280206.9924  -4034400.5871  -2458259.4567   5  11  30.0000  30.0000  30.0000   0.0000   0.0000   0.0000  14.00    0.0
2019/02/12 09:15:45.000   4280206.9924  -4034400.5871  -2458259.4567   5  11  30.0000  30.0000  30.0000   0.0000   0.0000   0.0000  -0.00    0.0
2019/02/12 09:15:50.000   4280206.9924  -4034400.5871  -2458259.4567   5  11  30.0000  30.0000  30.0000   0.0000   0.0000   0.0000   5.00    0.0
2019/02/12 09:15:54.000   4280206.9924  -4034400.5871  -2458259.4567   5  12  30.0000  30.0000  30.0000   0.0000   0.0000   0.0000   9.00    0.0
2019/02/12 09:16:08.000   4280206.9924  -4034400.5871  -2458259.4567   5  11  30.0000  30.0000  30.0000   0.0000   0.0000   0.0000   8.00    0.0
2019/02/12 09:16:20.000   4280206.9924  -4034400.5871  -2458259.4567   5  12  30.0000  30.0000  30.0000   0.0000   0.0000   0.0000   5.00    0.0
2019/02/12 09:16:29.000   4280206.9924  -4034400.5871  -2458259.4567   5  12  30.0000  30.0000  30.0000   0.0000   0.0000   0.0000  14.00    0.0
2019/02/12 09:16:32.000   4280206.9924  -4034400.5871  -2458259.4567   5  12  30.0000  30.0000  30.0000   0.0000   0.0000   0.0000   2.00    0.0
2019/02/12 09:16:33.000   4280206.9924  -4034400.5871  -2458259.4567   5  12  30.0000  30.0000  30.0000   0.0000   0.0000   0.0000   3.00    0.0
2019/02/12 09:16:34.000   4280206.9924  -4034400.5871  -2458259.4567   5  12  30.0000  30.0000  30.0000   0.0000   0.0000   0.0000   4.00    0.0
2019/02/12 09:16:40.000   4280206.9924  -4034400.5871  -2458259.4567   5  12  30.0000  30.0000  30.0000   0.0000   0.0000   0.0000  10.00    0.0
2019/02/12 09:16:50.000   4280206.9924  -4034400.5871  -2458259.4567   5  11  30.0000  30.0000  30.0000   0.0000   0.0000   0.0000   5.00    0.0
2019/02/12 09:16:51.000   4280206.9924  -4034400.5871  -2458259.4567   5  11  30.0000  30.0000  30.0000   0.0000   0.0000   0.0000   6.00    0.0
2019/02/12 09:17:03.000   4280206.9924  -4034400.5871  -2458259.4567   5  11  30.0000  30.0000  30.0000   0.0000   0.0000   0.0000   3.00    0.0
2019/02/12 09:17:10.000   4280206.9924  -4034400.5871  -2458259.4567   5  12  30.0000  30.0000  30.0000   0.0000   0.0000   0.0000  10.00    0.0
2019/02/12 09:17:11.000   4280206.9924  -4034400.5871  -2458259.4567   5  12  30.0000  30.0000  30.0000   0.0000   0.0000   0.0000  11.00    0.0
2019/02/12 09:17:18.000   4280206.9924  -4034400.5871  -2458259.4567   5  11  30.0000  30.0000  30.0000   0.0000   0.0000   0.0000   3.00    0.0
2019/02/12 09:17:25.000   4280206.9924  -4034400.5871  -2458259.4567   5  11  30.0000  30.0000  30.0000   0.0000   0.0000   0.0000  10.00    0.0
2019/02/12 09:17:52.000   4280206.9924  -4034400.5871  -2458259.4567   5  11  30.0000  30.0000  30.0000   0.0000   0.0000   0.0000   7.00    0.0
2019/02/12 09:17:59.000   4280206.9924  -4034400.5871  -2458259.4567   5  11  30.0000  30.0000  30.0000   0.0000   0.0000   0.0000  14.00    0.0
2019/02/12 09:18:04.000   4280206.9924  -4034400.5871  -2458259.4567   5  11  30.0000  30.0000  30.0000   0.0000   0.0000   0.0000   4.00    0.0
2019/02/12 09:18:10.000   4280206.9924  -4034400.5871  -2458259.4567   5  11  30.0000  30.0000  30.0000   0.0000   0.0000   0.0000  10.00    0.0
2019/02/12 09:18:12.000   4280206.9924  -4034400.5871  -2458259.4567   5  10  30.0000  30.0000  30.0000   0.0000   0.0000   0.0000  12.00    0.0
2019/02/12 09:18:14.000   4280206.9924  -4034400.5871  -2458259.4567   5  10  30.0000  30.0000  30.0000   0.0000   0.0000   0.0000  14.00    0.0
2019/02/12 09:18:17.000   4280206.9924  -4034400.5871  -2458259.4567   5  10  30.0000  30.0000  30.0000   0.0000   0.0000   0.0000   2.00    0.0
2019/02/12 09:18:21.000   4280206.9924  -4034400.5871  -2458259.4567   5  10  30.0000  30.0000  30.0000   0.0000   0.0000   0.0000   6.00    0.0
2019/02/12 09:18:24.000   4280206.9924  -4034400.5871  -2458259.4567   5  11  30.0000  30.0000  30.0000   0.0000   0.0000   0.0000   9.00    0.0
2019/02/12 09:18:27.000   4280206.9924  -4034400.5871  -2458259.4567   5  11  30.0000  30.0000  30.0000   0.0000   0.0000   0.0000  12.00    0.0
2019/02/12 09:18:33.000   4280206.9924  -4034400.5871  -2458259.4567   5  11  30.0000  30.0000  30.0000   0.0000   0.0000   0.0000   3.00    0.0
2019/02/12 09:18:44.000   4280206.9924  -4034400.5871  -2458259.4567   5  11  30.0000  30.0000  30.0000   0.0000   0.0000   0.0000  14.00    0.0
2019/02/12 09:18:49.000   4280206.9924  -4034400.5871  -2458259.4567   5  11  30.0000  30.0000  30.0000   0.0000   0.0000   0.0000   4.00    0.0
2019/02/12 09:18:50.000   4280206.9924  -4034400.5871  -2458259.4567   5  11  30.0000  30.0000  30.0000   0.0000   0.0000   0.0000   5.00    0.0
2019/02/12 09:18:52.000   4280206.9924  -4034400.5871  -2458259.4567   5  11  30.0000  30.0000  30.0000   0.0000   0.0000   0.0000   7.00    0.0
2019/02/12 09:18:57.000   4280206.9924  -4034400.5871  -2458259.4567   5  11  30.0000  30.0000  30.0000   0.0000   0.0000   0.0000  12.00    0.0
2019/02/12 09:18:58.000   4280206.9924  -4034400.5871  -2458259.4567   5  11  30.0000  30.0000  30.0000   0.0000   0.0000   0.0000  13.00    0.0
2019/02/12 09:19:01.000   4280206.9924  -4034400.5871  -2458259.4567   5  11  30.0000  30.0000  30.0000   0.0000   0.0000   0.0000   1.00    0.0
2019/02/12 09:19:02.000   4280206.9924  -4034400.5871  -2458259.4567   5  11  30.0000  30.0000  30.0000   0.0000   0.0000   0.0000   2.00    0.0
2019/02/12 09:19:03.000   4280206.9924  -4034400.5871  -2458259.4567   5  11  30.0000  30.0000  30.0000   0.0000   0.0000   0.0000   3.00    0.0
2019/02/12 09:19:04.000   4280206.9924  -4034400.5871  -2458259.4567   5  11  30.0000  30.0000  30.0000   0.0000   0.0000   0.0000   4.00    0.0
2019/02/12 09:19:07.000   4280206.9924  -4034400.5871  -2458259.4567   5  11  30.0000  30.0000  30.0000   0.0000   0.0000   0.0000   7.00    0.0
2019/02/12 09:19:09.000   4280206.9924  -4034400.5871  -2458259.4567   5  11  30.0000  30.0000  30.0000   0.0000   0.0000   0.0000   9.00    0.0
2019/02/12 09:19:10.000   4280206.9924  -4034400.5871  -2458259.4567   5  11  30.0000  30.0000  30.0000   0.0000   0.0000   0.0000  10.00    0.0
2019/02/12 09:19:11.000   4280206.9924  -4034400.5871  -2458259.4567   5  11  30.0000  30.0000  30.0000   0.0000   0.0000   0.0000  11.00    0.0
2019/02/12 09:19:36.000   4280206.9924  -4034400.5871  -2458259.4567   5  11  30.0000  30.0000  30.0000   0.0000   0.0000   0.0000   6.00    0.0
2019/02/12 09:19:39.000   4280206.9924  -4034400.5871  -2458259.4567   5  12  30.0000  30.0000  30.0000   0.0000   0.0000   0.0000   9.00    0.0
2019/02/12 09:19:41.000   4280206.9924  -4034400.5871  -2458259.4567   5  11  30.0000  30.0000  30.0000   0.0000   0.0000   0.0000  11.00    0.0
2019/02/12 09:19:46.000   4280206.9924  -4034400.5871  -2458259.4567   5  11  30.0000  30.0000  30.0000   0.0000   0.0000   0.0000   1.00    0.0
2019/02/12 09:19:48.000   4280206.9924  -4034400.5871  -2458259.4567   5  11  30.0000  30.0000  30.0000   0.0000   0.0000   0.0000   3.00    0.0
2019/02/12 09:19:49.000   4280206.9924  -4034400.5871  -2458259.4567   5  11  30.0000  30.0000  30.0000   0.0000   0.0000   0.0000   4.00    0.0
2019/02/12 09:19:57.000   4280206.9924  -4034400.5871  -2458259.4567   5  11  30.0000  30.0000  30.0000   0.0000   0.0000   0.0000  12.00    0.0
2019/02/12 09:20:05.000   4280206.9924  -4034400.5871  -2458259.4567   5  11  30.0000  30.0000  30.0000   0.0000   0.0000   0.0000   5.00    0.0
2019/02/12 09:20:14.000   4280206.9924  -4034400.5871  -2458259.4567   5  11  30.0000  30.0000  30.0000   0.0000   0.0000   0.0000  14.00    0.0
2019/02/12 09:20:22.000   4280206.9924  -4034400.5871  -2458259.4567   5  11  30.0000  30.0000  30.0000   0.0000   0.0000   0.0000   7.00    0.0
2019/02/12 09:20:23.000   4280206.9924  -4034400.5871  -2458259.4567   5  11  30.0000  30.0000  30.0000   0.0000   0.0000   0.0000   8.00    0.0
2019/02/12 09:20:30.000   4280206.9924  -4034400.5871  -2458259.4567   5  10  30.0000  30.0000  30.0000   0.0000   0.0000   0.0000  -0.00    0.0
2019/02/12 09:20:43.000   4280206.9924  -4034400.5871  -2458259.4567   5  10  30.0000  30.0000  30.0000   0.0000   0.0000   0.0000  13.00    0.0
2019/02/12 09:20:48.000   4280206.9924  -4034400.5871  -2458259.4567   5  10  30.0000  30.0000  30.0000   0.0000   0.0000   0.0000   3.00    0.0
2019/02/12 09:20:49.000   4280206.9924  -4034400.5871  -2458259.4567   5  10  30.0000  30.0000  30.0000   0.0000   0.0000   0.0000   4.00    0.0
2019/02/12 09:20:50.000   4280206.9924  -4034400.5871  -2458259.4567   5  11  30.0000  30.0000  30.0000   0.0000   0.0000   0.0000   5.00    0.0
2019/02/12 09:21:02.000   4280206.9924  -4034400.5871  -2458259.4567   5  11  30.0000  30.0000  30.0000   0.0000   0.0000   0.0000   2.00    0.0
2019/02/12 09:21:24.000   4280206.9924  -4034400.5871  -2458259.4567   5  11  30.0000  30.0000  30.0000   0.0000   0.0000   0.0000   9.00    0.0
2019/02/12 09:21:28.000   4280206.9924  -4034400.5871  -2458259.4567   5  11  30.0000  30.0000  30.0000   0.0000   0.0000   0.0000  13.00    0.0
2019/02/12 09:21:38.000   4280206.9924  -4034400.5871  -2458259.4567   5  11  30.0000  30.0000  30.0000   0.0000   0.0000   0.0000   8.00    0.0
2019/02/12 09:21:42.000   4280206.9924  -4034400.5871  -2458259.4567   5  11  30.0000  30.0000  30.0000   0.0000   0.0000   0.0000  12.00    0.0
2019/02/12 09:21:43.000   4280206.9924  -4034400.5871  -2458259.4567   5  11  30.0000  30.0000  30.0000   0.0000   0.0000   0.0000  13.00    0.0
2019/02/12 09:21:44.000   4280206.9924  -4034400.5871  -2458259.4567   5  11  30.0000  30.0000  30.0000   0.0000   0.0000   0.0000  14.00    0.0
2019/02/12 09:21:45.000   4280206.9924  -4034400.5871  -2458259.4567   5  11  30.0000  30.0000  30.0000   0.0000   0.0000   0.0000  -0.00    0.0
2019/02/12 09:22:02.000   4280206.9924  -4034400.5871  -2458259.4567   5  11  30.0000  30.0000  30.0000   0.0000   0.0000   0.0000   2.00    0.0
2019/02/12 09:22:03.000   4280206.9924  -4034400.5871  -2458259.4567   5  11  30.0000  30.0000  30.0000   0.0000   0.0000   0.0000   3.00    0.0
2019/02/12 09:22:04.000   4280206.9924  -4034400.5871  -2458259.4567   5  11  30.0000  30.0000  30.0000   0.0000   0.0000   0.0000   4.00    0.0
2019/02/12 09:22:05.000   4280206.9924  -4034400.5871  -2458259.4567   5  11  30.0000  30.0000  30.0000   0.0000   0.0000   0.0000   5.00    0.0
2019/02/12 09:22:06.000   4280206.9924  -4034400.5871  -2458259.4567   5  11  30.0000  30.0000  30.0000   0.0000   0.0000   0.0000   6.00    0.0
2019/02/12 09:22:11.000   4280206.9924  -4034400.5871  -2458259.4567   5  11  30.0000  30.0000  30.0000   0.0000   0.0000   0.0000  11.00    0.0
2019/02/12 09:22:19.000   4280206.9924  -4034400.5871  -2458259.4567   5  11  30.0000  30.0000  30.0000   0.0000   0.0000   0.0000   4.00    0.0
2019/02/12 09:22:24.000   4280206.9924  -4034400.5871  -2458259.4567   5  11  30.0000  30.0000  30.0000   0.0000   0.0000   0.0000   9.00    0.0
2019/02/12 09:22:31.000   4280206.9924  -4034400.5871  -2458259.4567   5  11  30.0000  30.0000  30.0000   0.0000   0.0000   0.0000   1.00    0.0
2019/02/12 09:22:34.000   4280206.9924  -4034400.5871  -2458259.4567   5  11  30.0000  30.0000  30.0000   0.0000   0.0000   0.0000   4.00    0.0
2019/02/12 09:22:38.000   4280206.9924  -4034400.5871  -2458259.4567   5  11  30.0000  30.0000  30.0000   0.0000   0.0000   0.0000   8.00    0.0
2019/02/12 09:22:40.000   4280206.9924  -4034400.5871  -2458259.4567   5  11  30.0000  30.0000  30.0000   0.0000   0.0000   0.0000  10.00    0.0
2019/02/12 09:22:41.000   4280206.9924  -4034400.5871  -2458259.4567   5  11  30.0000  30.0000  30.0000   0.0000   0.0000   0.0000  11.00    0.0
2019/02/12 09:22:42.000   4280206.9924  -4034400.5871  -2458259.4567   5  11  30.0000  30.0000  30.0000   0.0000   0.0000   0.0000  12.00    0.0
2019/02/12 09:22:43.000   4280206.9924  -4034400.5871  -2458259.4567   5  11  30.0000  30.0000  30.0000   0.0000   0.0000   0.0000  13.00    0.0
2019/02/12 09:22:46.000   4280206.9924  -4034400.5871  -2458259.4567   5  11  30.0000  30.0000  30.0000   0.0000   0.0000   0.0000   1.00    0.0
2019/02/12 09:22:50.000   4280206.9924  -4034400.5871  -2458259.4567   5  11  30.0000  30.0000  30.0000   0.0000   0.0000   0.0000   5.00    0.0
2019/02/12 09:22:51.000   4280206.9924  -4034400.5871  -2458259.4567   5  11  30.0000  30.0000  30.0000   0.0000   0.0000   0.0000   6.00    0.0
2019/02/12 09:22:52.000   4280206.9924  -4034400.5871  -2458259.4567   5  11  30.0000  30.0000  30.0000   0.0000   0.0000   0.0000   7.00    0.0
2019/02/12 09:22:53.000   4280206.9924  -4034400.5871  -2458259.4567   5  11  30.0000  30.0000  30.0000   0.0000   0.0000   0.0000   8.00    0.0
2019/02/12 09:22:55.000   4280206.9924  -4034400.5871  -2458259.4567   5  11  30.0000  30.0000  30.0000   0.0000   0.0000   0.0000  10.00    0.0
2019/02/12 09:22:56.000   4280206.9924  -4034400.5871  -2458259.4567   5  11  30.0000  30.0000  30.0000   0.0000   0.0000   0.0000  11.00    0.0
2019/02/12 09:22:58.000   4280206.9924  -4034400.5871  -2458259.4567   5  11  30.0000  30.0000  30.0000   0.0000   0.0000   0.0000  13.00    0.0
2019/02/12 09:22:59.000   4280206.9924  -4034400.5871  -2458259.4567   5  11  30.0000  30.0000  30.0000   0.0000   0.0000   0.0000  14.00    0.0
2019/02/12 09:23:00.000   4280206.9924  -4034400.5871  -2458259.4567   5  11  30.0000  30.0000  30.0000   0.0000   0.0000   0.0000  -0.00    0.0
2019/02/12 09:23:01.000   4280206.9924  -4034400.5871  -2458259.4567   5  11  30.0000  30.0000  30.0000   0.0000   0.0000   0.0000   1.00    0.0
2019/02/12 09:23:04.000   4280206.9924  -4034400.5871  -2458259.4567   5  11  30.0000  30.0000  30.0000   0.0000   0.0000   0.0000   4.00    0.0
2019/02/12 09:23:06.000   4280206.9924  -4034400.5871  -2458259.4567   5  11  30.0000  30.0000  30.0000   0.0000   0.0000   0.0000   6.00    0.0
2019/02/12 09:23:09.000   4280206.9924  -4034400.5871  -2458259.4567   5  11  30.0000  30.0000  30.0000   0.0000   0.0000   0.0000   9.00    0.0
2019/02/12 09:23:10.000   4280206.9924  -4034400.5871  -2458259.4567   5  11  30.0000  30.0000  30.0000   0.0000   0.0000   0.0000  10.00    0.0
2019/02/12 09:23:11.000   4280206.9924  -4034400.5871  -2458259.4567   5  11  30.0000  30.0000  30.0000   0.0000   0.0000   0.0000  11.00    0.0
2019/02/12 09:23:12.000   4280206.9924  -4034400.5871  -2458259.4567   5  11  30.0000  30.0000  30.0000   0.0000   0.0000   0.0000  12.00    0.0
2019/02/12 09:23:13.000   4280206.9924  -4034400.5871  -2458259.4567   5  11  30.0000  30.0000  30.0000   0.0000   0.0000   0.0000  13.00    0.0
2019/02/12 09:23:14.000   4280206.9924  -4034400.5871  -2458259.4567   5  11  30.0000  30.0000  30.0000   0.0000   0.0000   0.0000  14.00    0.0
2019/02/12 09:23:17.000   4280206.9924  -4034400.5871  -2458259.4567   5  11  30.0000  30.0000  30.0000   0.0000   0.0000   0.0000   2.00    0.0
2019/02/12 09:23:19.000   4280206.9924  -4034400.5871  -2458259.4567   5  11  30.0000  30.0000  30.0000   0.0000   0.0000   0.0000   4.00    0.0
2019/02/12 09:23:20.000   4280206.9924  -4034400.5871  -2458259.4567   5  11  30.0000  30.0000  30.0000   0.0000   0.0000   0.0000   5.00    0.0
2019/02/12 09:23:26.000   4280206.9924  -4034400.5871  -2458259.4567   5  11  30.0000  30.0000  30.0000   0.0000   0.0000   0.0000  11.00    0.0
2019/02/12 09:23:27.000   4280206.9924  -4034400.5871  -2458259.4567   5  11  30.0000  30.0000  30.0000   0.0000   0.0000   0.0000  12.00    0.0
