% program   : RTKPOST ver.2.4.2
% inp file  : D:\Google Drive\UERJ\_Projeto Final\Python\tcc-guilherme\20190115_Levantamento_8min_Original.19o
% inp file  : D:\Google Drive\UERJ\_Projeto Final\20190115_Marco 91500 IBGE\brdm0150.19p
% obs start : 2019/01/15 09:34:43.0 GPST (week2036 207283.0s)
% obs end   : 2019/01/15 09:52:37.0 GPST (week2036 208357.0s)
% pos mode  : single
% elev mask : 15.0 deg
% ionos opt : off
% tropo opt : saastamoinen
% ephemeris : broadcast
%
% (x/y/z-ecef=WGS84,Q=1:fix,2:float,3:sbas,4:dgps,5:single,6:ppp,ns=# of satellites)
%  GPST                      x-ecef(m)      y-ecef(m)      z-ecef(m)   Q  ns   sdx(m)   sdy(m)   sdz(m)  sdxy(m)  sdyz(m)  sdzx(m) age(s)  ratio
2019/01/15 09:34:43.000   4280201.3251  -4034391.6810  -2458261.1705   5   5   9.8761   9.8555  11.5387  -8.4677  -1.4124  -5.7028   0.00    0.0
2019/01/15 09:34:44.000   4280216.9712  -4034413.6952  -2458239.7314   5   6   9.1627   6.9480  10.1653  -6.7780   6.0086  -7.2520   0.00    0.0
2019/01/15 09:34:45.000   4280229.0419  -4034409.7855  -2458258.4896   5   6   9.1625   6.9472  10.1624  -6.7775   6.0068  -7.2498   0.00    0.0
2019/01/15 09:34:46.000   4280215.5753  -4034405.0316  -2458274.8180   5   6   9.1623   6.9465  10.1595  -6.7770   6.0050  -7.2477   0.00    0.0
2019/01/15 09:34:47.000   4280234.6371  -4034424.5816  -2458277.5779   5   6   9.1622   6.9458  10.1566  -6.7765   6.0032  -7.2456   0.00    0.0
2019/01/15 09:34:48.000   4280235.9282  -4034426.5117  -2458274.3432   5   6   9.1620   6.9451  10.1537  -6.7760   6.0014  -7.2435   0.00    0.0
2019/01/15 09:34:49.000   4280209.7040  -4034399.0318  -2458271.7754   5   6   9.1619   6.9444  10.1508  -6.7756   5.9996  -7.2414   0.00    0.0
2019/01/15 09:34:50.000   4280221.9060  -4034407.1035  -2458278.7959   5   6   9.1617   6.9437  10.1480  -6.7751   5.9978  -7.2393   0.00    0.0
2019/01/15 09:34:51.000   4280226.0587  -4034405.3717  -2458274.8827   5   6   9.1615   6.9429  10.1451  -6.7746   5.9960  -7.2371   0.00    0.0
2019/01/15 09:34:52.000   4280225.9323  -4034422.4022  -2458267.1230   5   6   9.1614   6.9422  10.1422  -6.7742   5.9942  -7.2350   0.00    0.0
2019/01/15 09:34:53.000   4280226.6407  -4034417.7657  -2458271.7721   5   6   9.1612   6.9415  10.1393  -6.7737   5.9924  -7.2329   0.00    0.0
2019/01/15 09:34:54.000   4280220.2028  -4034419.3369  -2458269.1021   5   6   9.1611   6.9408  10.1364  -6.7732   5.9906  -7.2308   0.00    0.0
2019/01/15 09:34:55.000   4280213.2581  -4034410.7129  -2458265.9265   5   6   9.1609   6.9401  10.1336  -6.7728   5.9888  -7.2287   0.00    0.0
2019/01/15 09:34:56.000   4280223.3763  -4034415.6381  -2458282.2515   5   6   9.1608   6.9394  10.1307  -6.7723   5.9870  -7.2266   0.00    0.0
2019/01/15 09:34:57.000   4280224.4379  -4034415.0786  -2458295.4603   5   6   9.1606   6.9387  10.1278  -6.7718   5.9852  -7.2245   0.00    0.0
2019/01/15 09:34:58.000   4280230.4438  -4034432.9890  -2458286.0915   5   6   9.1605   6.9379  10.1249  -6.7714   5.9834  -7.2224   0.00    0.0
2019/01/15 09:34:59.000   4280221.3234  -4034423.3444  -2458281.3537   5   6   9.1603   6.9372  10.1221  -6.7709   5.9817  -7.2203   0.00    0.0
2019/01/15 09:35:00.000   4280238.5486  -4034429.9922  -2458296.7750   5   6   9.1602   6.9365  10.1192  -6.7704   5.9799  -7.2182   0.00    0.0
2019/01/15 09:35:01.000   4280218.3080  -4034413.7613  -2458283.2448   5   6   9.1600   6.9358  10.1163  -6.7700   5.9781  -7.2161   0.00    0.0
2019/01/15 09:35:02.000   4280212.3207  -4034416.0420  -2458271.4044   5   6   9.1599   6.9351  10.1135  -6.7695   5.9763  -7.2140   0.00    0.0
2019/01/15 09:35:03.000   4280244.1585  -4034430.8767  -2458279.5733   5   6   9.1597   6.9344  10.1106  -6.7691   5.9745  -7.2119   0.00    0.0
2019/01/15 09:35:04.000   4280216.0741  -4034413.9086  -2458269.5836   5   6   9.1596   6.9337  10.1077  -6.7686   5.9728  -7.2098   0.00    0.0
2019/01/15 09:35:05.000   4280226.4824  -4034417.7207  -2458295.9117   5   6   9.1594   6.9330  10.1048  -6.7682   5.9710  -7.2077   0.00    0.0
2019/01/15 09:35:06.000   4280226.5075  -4034423.2399  -2458279.6105   5   6   9.1593   6.9323  10.1020  -6.7677   5.9692  -7.2056   0.00    0.0
2019/01/15 09:35:07.000   4280230.7632  -4034429.9705  -2458286.0634   5   6   9.1592   6.9316  10.0991  -6.7673   5.9674  -7.2035   0.00    0.0
2019/01/15 09:35:08.000   4280224.8485  -4034424.0289  -2458273.1131   5   6   9.1590   6.9309  10.0963  -6.7668   5.9656  -7.2014   0.00    0.0
2019/01/15 09:35:09.000   4280210.1823  -4034411.6653  -2458255.5601   5   6   9.1589   6.9302  10.0934  -6.7664   5.9639  -7.1993   0.00    0.0
2019/01/15 09:35:10.000   4280237.8309  -4034426.3842  -2458271.1909   5   6   9.1588   6.9295  10.0905  -6.7659   5.9621  -7.1972   0.00    0.0
2019/01/15 09:35:11.000   4280239.4018  -4034439.4101  -2458277.6424   5   6   9.1586   6.9288  10.0877  -6.7654   5.9603  -7.1951   0.00    0.0
2019/01/15 09:35:12.000   4280224.1842  -4034422.7116  -2458248.6306   5   6   9.1585   6.9281  10.0848  -6.7650   5.9586  -7.1930   0.00    0.0
2019/01/15 09:35:14.000   4280211.8146  -4034399.5074  -2458240.8647   5   6   9.1582   6.9267  10.0791  -6.7641   5.9550  -7.1889   0.00    0.0
2019/01/15 09:35:15.000   4280232.2819  -4034416.6460  -2458270.6688   5   6   9.1581   6.9260  10.0763  -6.7637   5.9532  -7.1868   0.00    0.0
2019/01/15 09:35:16.000   4280228.5254  -4034425.6627  -2458271.5683   5   6   9.1580   6.9253  10.0734  -6.7632   5.9515  -7.1847   0.00    0.0
2019/01/15 09:35:17.000   4280230.2000  -4034420.8981  -2458254.5938   5   6   9.1578   6.9246  10.0706  -6.7628   5.9497  -7.1826   0.00    0.0
2019/01/15 09:35:18.000   4280222.7786  -4034413.6648  -2458256.3182   5   6   9.1577   6.9239  10.0677  -6.7623   5.9479  -7.1805   0.00    0.0
2019/01/15 09:35:19.000   4280222.0139  -4034405.1620  -2458267.7819   5   6   9.1576   6.9232  10.0648  -6.7619   5.9462  -7.1784   0.00    0.0
2019/01/15 09:35:20.000   4280222.7594  -4034410.4097  -2458263.3888   5   6   9.1575   6.9225  10.0620  -6.7615   5.9444  -7.1764   0.00    0.0
2019/01/15 09:35:21.000   4280231.9535  -4034425.0904  -2458277.4922   5   6   9.1573   6.9218  10.0591  -6.7610   5.9427  -7.1743   0.00    0.0
2019/01/15 09:35:22.000   4280222.2442  -4034415.7393  -2458263.7098   5   6   9.1572   6.9212  10.0563  -6.7606   5.9409  -7.1722   0.00    0.0
2019/01/15 09:35:23.000   4280222.4592  -4034421.9107  -2458271.0616   5   6   9.1571   6.9205  10.0535  -6.7601   5.9391  -7.1701   0.00    0.0
2019/01/15 09:35:24.000   4280225.9185  -4034420.0144  -2458283.0097   5   6   9.1570   6.9198  10.0506  -6.7597   5.9374  -7.1680   0.00    0.0
2019/01/15 09:35:25.000   4280231.0196  -4034425.0532  -2458281.6091   5   6   9.1569   6.9191  10.0478  -6.7593   5.9356  -7.1660   0.00    0.0
2019/01/15 09:35:26.000   4280238.3049  -4034429.7837  -2458269.5801   5   6   9.1567   6.9184  10.0449  -6.7588   5.9339  -7.1639   0.00    0.0
2019/01/15 09:35:27.000   4280231.2284  -4034427.5098  -2458270.8374   5   6   9.1566   6.9177  10.0421  -6.7584   5.9321  -7.1618   0.00    0.0
2019/01/15 09:35:28.000   4280228.4152  -4034421.8400  -2458272.5010   5   6   9.1565   6.9170  10.0392  -6.7580   5.9304  -7.1597   0.00    0.0
2019/01/15 09:35:29.000   4280227.2402  -4034428.3572  -2458286.7033   5   6   9.1564   6.9163  10.0364  -6.7575   5.9286  -7.1577   0.00    0.0
2019/01/15 09:35:30.000   4280225.8435  -4034416.3596  -2458279.3796   5   6   9.1563   6.9157  10.0336  -6.7571   5.9269  -7.1556   0.00    0.0
2019/01/15 09:35:31.000   4280222.4889  -4034409.1122  -2458285.8122   5   6   9.1562   6.9150  10.0307  -6.7567   5.9251  -7.1535   0.00    0.0
2019/01/15 09:35:32.000   4280221.0208  -4034415.0737  -2458283.1174   5   6   9.1561   6.9143  10.0279  -6.7563   5.9234  -7.1515   0.00    0.0
2019/01/15 09:35:33.000   4280223.1586  -4034428.4973  -2458264.0998   5   6   9.1559   6.9136  10.0250  -6.7558   5.9216  -7.1494   0.00    0.0
2019/01/15 09:35:34.000   4280234.4993  -4034434.6086  -2458281.5657   5   6   9.1558   6.9129  10.0222  -6.7554   5.9199  -7.1473   0.00    0.0
2019/01/15 09:35:35.000   4280233.4394  -4034431.5977  -2458264.6648   5   6   9.1557   6.9122  10.0194  -6.7550   5.9181  -7.1453   0.00    0.0
2019/01/15 09:35:36.000   4280209.0621  -4034406.9912  -2458254.1667   5   6   9.1556   6.9116  10.0166  -6.7546   5.9164  -7.1432   0.00    0.0
2019/01/15 09:35:37.000   4280221.8363  -4034401.5308  -2458253.5848   5   6   9.1555   6.9109  10.0137  -6.7541   5.9146  -7.1412   0.00    0.0
2019/01/15 09:35:38.000   4280204.1738  -4034393.9214  -2458245.4675   5   6   9.1554   6.9102  10.0109  -6.7537   5.9129  -7.1391   0.00    0.0
2019/01/15 09:35:39.000   4280220.6500  -4034407.8837  -2458247.8511   5   6   9.1553   6.9095  10.0081  -6.7533   5.9112  -7.1370   0.00    0.0
2019/01/15 09:35:40.000   4280225.8904  -4034408.1780  -2458255.6420   5   6   9.1552   6.9089  10.0052  -6.7529   5.9094  -7.1350   0.00    0.0
2019/01/15 09:35:41.000   4280213.5088  -4034402.1122  -2458232.6043   5   6   9.1551   6.9082  10.0024  -6.7525   5.9077  -7.1329   0.00    0.0
2019/01/15 09:35:43.000   4280213.8970  -4034410.9054  -2458224.6931   5   6   9.1549   6.9068   9.9968  -6.7516   5.9042  -7.1288   0.00    0.0
2019/01/15 09:35:44.000   4280233.2524  -4034416.6744  -2458239.1501   5   6   9.1548   6.9062   9.9939  -6.7512   5.9025  -7.1268   0.00    0.0
2019/01/15 09:35:45.000   4280217.9562  -4034400.2199  -2458241.9206   5   6   9.1547   6.9055   9.9911  -6.7508   5.9007  -7.1247   0.00    0.0
2019/01/15 09:35:46.000   4280208.1885  -4034402.8612  -2458250.1220   5   6   9.1546   6.9048   9.9883  -6.7504   5.8990  -7.1227   0.00    0.0
2019/01/15 09:35:47.000   4280227.5440  -4034414.6745  -2458256.4782   5   6   9.1545   6.9041   9.9855  -6.7500   5.8973  -7.1206   0.00    0.0
2019/01/15 09:35:48.000   4280214.2840  -4034410.5078  -2458265.1036   5   6   9.1544   6.9035   9.9826  -6.7495   5.8955  -7.1186   0.00    0.0
2019/01/15 09:35:49.000   4280211.5240  -4034399.7265  -2458253.0559   5   6   9.1543   6.9028   9.9798  -6.7491   5.8938  -7.1165   0.00    0.0
2019/01/15 09:35:50.000   4280235.3665  -4034423.9967  -2458259.2526   5   6   9.1542   6.9021   9.9770  -6.7487   5.8921  -7.1145   0.00    0.0
2019/01/15 09:35:51.000   4280231.4387  -4034420.4409  -2458269.4172   5   6   9.1541   6.9014   9.9742  -6.7483   5.8903  -7.1124   0.00    0.0
2019/01/15 09:35:52.000   4280221.9484  -4034417.6934  -2458267.7093   5   6   9.1541   6.9008   9.9714  -6.7479   5.8886  -7.1104   0.00    0.0
2019/01/15 09:35:53.000   4280205.6654  -4034404.5342  -2458271.3517   5   6   9.1540   6.9001   9.9686  -6.7475   5.8869  -7.1083   0.00    0.0
2019/01/15 09:35:54.000   4280214.6973  -4034416.6458  -2458285.1146   5   6   9.1539   6.8994   9.9657  -6.7471   5.8852  -7.1063   0.00    0.0
2019/01/15 09:35:55.000   4280231.7624  -4034430.2763  -2458290.4198   5   6   9.1538   6.8988   9.9629  -6.7467   5.8834  -7.1042   0.00    0.0
2019/01/15 09:35:56.000   4280249.9517  -4034444.1899  -2458293.0711   5   6   9.1537   6.8981   9.9601  -6.7463   5.8817  -7.1022   0.00    0.0
2019/01/15 09:35:57.000   4280226.7767  -4034417.7871  -2458273.2227   5   6   9.1536   6.8974   9.9573  -6.7459   5.8800  -7.1002   0.00    0.0
2019/01/15 09:35:58.000   4280211.6910  -4034406.2989  -2458273.4409   5   6   9.1536   6.8968   9.9545  -6.7455   5.8783  -7.0981   0.00    0.0
2019/01/15 09:35:59.000   4280225.4306  -4034424.6270  -2458282.8355   5   6   9.1535   6.8961   9.9517  -6.7451   5.8766  -7.0961   0.00    0.0
2019/01/15 09:36:00.000   4280232.4458  -4034424.7929  -2458279.2041   5   6   9.1534   6.8955   9.9489  -6.7447   5.8749  -7.0940   0.00    0.0
2019/01/15 09:36:01.000   4280231.1754  -4034423.5058  -2458281.4326   5   6   9.1533   6.8948   9.9461  -6.7443   5.8731  -7.0920   0.00    0.0
2019/01/15 09:36:02.000   4280235.6304  -4034434.4814  -2458281.3545   5   6   9.1532   6.8941   9.9433  -6.7439   5.8714  -7.0900   0.00    0.0
2019/01/15 09:36:03.000   4280224.5087  -4034413.3530  -2458260.9476   5   6   9.1531   6.8935   9.9405  -6.7435   5.8697  -7.0880   0.00    0.0
2019/01/15 09:36:04.000   4280213.2458  -4034404.8606  -2458254.7948   5   6   9.1531   6.8928   9.9377  -6.7431   5.8680  -7.0859   0.00    0.0
2019/01/15 09:36:05.000   4280218.0014  -4034416.9741  -2458252.7050   5   6   9.1530   6.8922   9.9349  -6.7427   5.8663  -7.0839   0.00    0.0
2019/01/15 09:36:06.000   4280222.2483  -4034407.5699  -2458252.3650   5   6   9.1529   6.8915   9.9321  -6.7423   5.8646  -7.0819   0.00    0.0
2019/01/15 09:36:07.000   4280217.5600  -4034398.1628  -2458269.5633   5   6   9.1529   6.8909   9.9293  -6.7419   5.8629  -7.0798   0.00    0.0
2019/01/15 09:36:08.000   4280217.1418  -4034412.1467  -2458277.4009   5   6   9.1528   6.8902   9.9265  -6.7415   5.8612  -7.0778   0.00    0.0
2019/01/15 09:36:09.000   4280212.3148  -4034401.8383  -2458282.9141   5   6   9.1527   6.8895   9.9237  -6.7411   5.8595  -7.0758   0.00    0.0
2019/01/15 09:36:10.000   4280206.0525  -4034399.3901  -2458258.5669   5   6   9.1526   6.8889   9.9209  -6.7407   5.8578  -7.0738   0.00    0.0
2019/01/15 09:36:11.000   4280212.3404  -4034404.3878  -2458268.7915   5   6   9.1526   6.8882   9.9181  -6.7403   5.8561  -7.0718   0.00    0.0
2019/01/15 09:36:13.000   4280210.6892  -4034393.2743  -2458253.9849   5   6   9.1524   6.8869   9.9125  -6.7396   5.8527  -7.0677   0.00    0.0
2019/01/15 09:36:14.000   4280211.8725  -4034401.1722  -2458262.9392   5   6   9.1524   6.8863   9.9097  -6.7392   5.8509  -7.0657   0.00    0.0
2019/01/15 09:36:15.000   4280221.7147  -4034410.8744  -2458262.1769   5   6   9.1523   6.8856   9.9069  -6.7388   5.8492  -7.0637   0.00    0.0
2019/01/15 09:36:16.000   4280205.8911  -4034406.3966  -2458269.7071   5   6   9.1522   6.8850   9.9041  -6.7384   5.8475  -7.0617   0.00    0.0
2019/01/15 09:36:17.000   4280209.1844  -4034402.9514  -2458251.7442   5   6   9.1522   6.8843   9.9013  -6.7380   5.8459  -7.0596   0.00    0.0
2019/01/15 09:36:18.000   4280207.8603  -4034391.9624  -2458265.9755   5   6   9.1521   6.8837   9.8985  -6.7376   5.8442  -7.0576   0.00    0.0
2019/01/15 09:36:19.000   4280200.5857  -4034395.8686  -2458254.9433   5   6   9.1521   6.8830   9.8958  -6.7373   5.8425  -7.0556   0.00    0.0
2019/01/15 09:36:20.000   4280208.6689  -4034394.4672  -2458253.1953   5   6   9.1520   6.8824   9.8930  -6.7369   5.8408  -7.0536   0.00    0.0
2019/01/15 09:36:21.000   4280202.3258  -4034386.3089  -2458268.5334   5   6   9.1520   6.8817   9.8902  -6.7365   5.8391  -7.0516   0.00    0.0
2019/01/15 09:36:22.000   4280202.2580  -4034391.2557  -2458276.9532   5   6   9.1519   6.8811   9.8874  -6.7361   5.8374  -7.0496   0.00    0.0
2019/01/15 09:36:23.000   4280211.1387  -4034399.4010  -2458266.9338   5   6   9.1518   6.8804   9.8846  -6.7357   5.8357  -7.0476   0.00    0.0
2019/01/15 09:36:24.000   4280223.6433  -4034413.8810  -2458276.5697   5   6   9.1518   6.8798   9.8818  -6.7353   5.8340  -7.0455   0.00    0.0
2019/01/15 09:36:25.000   4280210.8149  -4034401.2160  -2458276.0966   5   6   9.1517   6.8791   9.8791  -6.7350   5.8323  -7.0435   0.00    0.0
2019/01/15 09:36:26.000   4280211.6328  -4034389.3729  -2458269.6956   5   6   9.1517   6.8785   9.8763  -6.7346   5.8306  -7.0415   0.00    0.0
2019/01/15 09:36:27.000   4280227.2387  -4034391.5470  -2458263.2348   5   6   9.1516   6.8779   9.8735  -6.7342   5.8289  -7.0395   0.00    0.0
2019/01/15 09:36:28.000   4280218.8146  -4034402.5377  -2458256.0964   5   6   9.1516   6.8772   9.8707  -6.7338   5.8273  -7.0375   0.00    0.0
2019/01/15 09:36:29.000   4280204.8187  -4034395.5426  -2458254.4186   5   6   9.1515   6.8766   9.8680  -6.7335   5.8256  -7.0355   0.00    0.0
2019/01/15 09:36:30.000   4280232.0336  -4034419.9821  -2458289.0032   5   6   9.1515   6.8759   9.8652  -6.7331   5.8239  -7.0335   0.00    0.0
2019/01/15 09:36:31.000   4280233.1576  -4034418.5771  -2458293.8303   5   6   9.1514   6.8753   9.8624  -6.7327   5.8222  -7.0315   0.00    0.0
2019/01/15 09:36:32.000   4280227.2188  -4034412.2144  -2458284.6613   5   6   9.1514   6.8747   9.8596  -6.7324   5.8205  -7.0295   0.00    0.0
2019/01/15 09:36:33.000   4280221.3397  -4034428.6900  -2458292.4711   5   6   9.1513   6.8740   9.8569  -6.7320   5.8188  -7.0275   0.00    0.0
2019/01/15 09:36:34.000   4280216.1249  -4034417.0840  -2458282.5002   5   6   9.1513   6.8734   9.8541  -6.7316   5.8172  -7.0255   0.00    0.0
2019/01/15 09:36:35.000   4280222.8712  -4034413.8834  -2458270.0481   5   6   9.1512   6.8727   9.8513  -6.7313   5.8155  -7.0235   0.00    0.0
2019/01/15 09:36:36.000   4280220.0450  -4034425.1314  -2458266.4238   5   6   9.1512   6.8721   9.8486  -6.7309   5.8138  -7.0215   0.00    0.0
2019/01/15 09:36:37.000   4280232.1080  -4034432.1957  -2458276.5943   5   6   9.1511   6.8715   9.8458  -6.7305   5.8121  -7.0195   0.00    0.0
2019/01/15 09:36:38.000   4280228.8651  -4034427.8637  -2458272.1490   5   6   9.1511   6.8708   9.8430  -6.7302   5.8104  -7.0176   0.00    0.0
2019/01/15 09:36:39.000   4280213.5720  -4034422.3761  -2458268.4297   5   6   9.1511   6.8702   9.8403  -6.7298   5.8088  -7.0156   0.00    0.0
2019/01/15 09:36:40.000   4280221.9015  -4034425.9298  -2458270.2753   5   6   9.1510   6.8696   9.8375  -6.7294   5.8071  -7.0136   0.00    0.0
2019/01/15 09:36:41.000   4280220.1045  -4034425.0557  -2458276.2303   5   6   9.1510   6.8689   9.8347  -6.7291   5.8054  -7.0116   0.00    0.0
2019/01/15 09:36:42.000   4280214.2299  -4034417.6349  -2458279.8754   5   6   9.1510   6.8683   9.8320  -6.7287   5.8038  -7.0096   0.00    0.0
2019/01/15 09:36:43.000   4280228.2875  -4034420.1235  -2458260.7743   5   6   9.1509   6.8677   9.8292  -6.7284   5.8021  -7.0076   0.00    0.0
2019/01/15 09:36:44.000   4280224.1085  -4034426.9605  -2458279.6665   5   6   9.1509   6.8670   9.8264  -6.7280   5.8004  -7.0056   0.00    0.0
2019/01/15 09:36:45.000   4280232.7761  -4034433.8531  -2458287.8432   5   6   9.1508   6.8664   9.8237  -6.7276   5.7988  -7.0036   0.00    0.0
2019/01/15 09:36:46.000   4280240.1649  -4034433.0375  -2458275.7594   5   6   9.1508   6.8658   9.8209  -6.7273   5.7971  -7.0016   0.00    0.0
2019/01/15 09:36:47.000   4280230.0124  -4034423.8527  -2458246.1095   5   6   9.1508   6.8652   9.8182  -6.7269   5.7954  -6.9997   0.00    0.0
2019/01/15 09:36:48.000   4280232.6021  -4034435.2036  -2458247.3137   5   6   9.1508   6.8645   9.8154  -6.7266   5.7938  -6.9977   0.00    0.0
2019/01/15 09:36:49.000   4280254.4796  -4034439.1612  -2458271.1813   5   6   9.1507   6.8639   9.8127  -6.7262   5.7921  -6.9957   0.00    0.0
2019/01/15 09:36:50.000   4280241.9682  -4034432.5879  -2458270.0743   5   6   9.1507   6.8633   9.8099  -6.7259   5.7904  -6.9937   0.00    0.0
2019/01/15 09:36:52.000   4280241.4786  -4034436.6306  -2458273.5293   5   6   9.1507   6.8620   9.8044  -6.7252   5.7871  -6.9898   0.00    0.0
2019/01/15 09:36:53.000   4280224.4089  -4034423.9548  -2458260.6586   5   6   9.1506   6.8614   9.8017  -6.7248   5.7855  -6.9878   0.00    0.0
2019/01/15 09:36:54.000   4280238.7679  -4034436.6907  -2458256.7649   5   6   9.1506   6.8608   9.7989  -6.7245   5.7838  -6.9858   0.00    0.0
2019/01/15 09:36:55.000   4280223.9088  -4034418.8368  -2458250.1690   5   6   9.1506   6.8602   9.7962  -6.7241   5.7822  -6.9839   0.00    0.0
2019/01/15 09:36:56.000   4280227.7616  -4034422.2318  -2458268.0133   5   6   9.1506   6.8595   9.7934  -6.7238   5.7805  -6.9819   0.00    0.0
2019/01/15 09:36:57.000   4280245.7036  -4034444.0623  -2458258.1282   5   6   9.1505   6.8589   9.7907  -6.7234   5.7788  -6.9799   0.00    0.0
2019/01/15 09:36:59.000   4280237.9048  -4034431.8871  -2458267.9002   5   6   9.1505   6.8577   9.7852  -6.7227   5.7755  -6.9760   0.00    0.0
2019/01/15 09:37:00.000   4280241.7540  -4034429.6690  -2458252.5577   5   6   9.1505   6.8571   9.7825  -6.7224   5.7739  -6.9740   0.00    0.0
2019/01/15 09:37:01.000   4280233.5670  -4034428.1838  -2458250.1773   5   6   9.1505   6.8564   9.7797  -6.7220   5.7723  -6.9720   0.00    0.0
2019/01/15 09:37:02.000   4280240.8459  -4034428.4808  -2458260.5506   5   6   9.1505   6.8558   9.7770  -6.7217   5.7706  -6.9701   0.00    0.0
2019/01/15 09:37:03.000   4280232.4662  -4034422.8202  -2458254.1593   5   6   9.1505   6.8552   9.7742  -6.7214   5.7690  -6.9681   0.00    0.0
2019/01/15 09:37:04.000   4280233.9176  -4034420.9152  -2458266.0441   5   6   9.1504   6.8546   9.7715  -6.7210   5.7673  -6.9662   0.00    0.0
2019/01/15 09:37:05.000   4280232.6543  -4034430.9672  -2458267.0240   5   6   9.1504   6.8540   9.7688  -6.7207   5.7657  -6.9642   0.00    0.0
2019/01/15 09:37:06.000   4280235.6722  -4034435.4976  -2458267.6269   5   6   9.1504   6.8534   9.7660  -6.7203   5.7640  -6.9622   0.00    0.0
2019/01/15 09:37:07.000   4280224.7325  -4034427.4930  -2458282.6496   5   6   9.1504   6.8527   9.7633  -6.7200   5.7624  -6.9603   0.00    0.0
2019/01/15 09:37:08.000   4280229.6500  -4034425.5025  -2458289.2963   5   6   9.1504   6.8521   9.7605  -6.7197   5.7607  -6.9583   0.00    0.0
2019/01/15 09:37:09.000   4280232.2927  -4034428.0691  -2458249.9907   5   6   9.1504   6.8515   9.7578  -6.7193   5.7591  -6.9564   0.00    0.0
2019/01/15 09:37:10.000   4280234.7130  -4034438.4126  -2458253.8153   5   6   9.1504   6.8509   9.7551  -6.7190   5.7575  -6.9544   0.00    0.0
2019/01/15 09:37:11.000   4280225.9119  -4034415.8393  -2458270.9593   5   6   9.1504   6.8503   9.7524  -6.7187   5.7558  -6.9524   0.00    0.0
2019/01/15 09:37:12.000   4280228.1171  -4034429.0593  -2458277.5519   5   6   9.1504   6.8497   9.7496  -6.7183   5.7542  -6.9505   0.00    0.0
2019/01/15 09:37:13.000   4280249.8962  -4034445.8450  -2458275.3743   5   6   9.1504   6.8491   9.7469  -6.7180   5.7526  -6.9485   0.00    0.0
2019/01/15 09:37:14.000   4280220.6540  -4034415.0292  -2458263.2991   5   6   9.1504   6.8485   9.7442  -6.7177   5.7509  -6.9466   0.00    0.0
2019/01/15 09:37:15.000   4280239.1499  -4034440.9146  -2458297.0853   5   6   9.1504   6.8478   9.7414  -6.7174   5.7493  -6.9446   0.00    0.0
2019/01/15 09:37:16.000   4280227.8335  -4034431.7751  -2458272.1536   5   6   9.1504   6.8472   9.7387  -6.7170   5.7477  -6.9427   0.00    0.0
2019/01/15 09:37:17.000   4280236.7527  -4034429.6000  -2458277.8491   5   6   9.1504   6.8466   9.7360  -6.7167   5.7460  -6.9407   0.00    0.0
2019/01/15 09:37:18.000   4280228.7379  -4034429.9586  -2458279.3949   5   6   9.1504   6.8460   9.7333  -6.7164   5.7444  -6.9388   0.00    0.0
2019/01/15 09:37:19.000   4280220.1865  -4034416.7106  -2458264.7999   5   6   9.1504   6.8454   9.7306  -6.7161   5.7428  -6.9369   0.00    0.0
2019/01/15 09:37:20.000   4280223.7651  -4034419.9182  -2458257.0040   5   6   9.1504   6.8448   9.7279  -6.7157   5.7412  -6.9349   0.00    0.0
2019/01/15 09:37:21.000   4280217.2268  -4034423.5850  -2458253.0249   5   6   9.1504   6.8442   9.7251  -6.7154   5.7395  -6.9330   0.00    0.0
2019/01/15 09:37:22.000   4280227.6794  -4034427.1071  -2458270.1563   5   6   9.1504   6.8436   9.7224  -6.7151   5.7379  -6.9310   0.00    0.0
2019/01/15 09:37:23.000   4280234.3237  -4034433.3482  -2458273.8343   5   6   9.1504   6.8430   9.7197  -6.7148   5.7363  -6.9291   0.00    0.0
2019/01/15 09:37:24.000   4280223.4051  -4034438.3014  -2458263.9636   5   6   9.1504   6.8424   9.7170  -6.7144   5.7347  -6.9271   0.00    0.0
2019/01/15 09:37:26.000   4280234.9628  -4034435.2687  -2458275.0481   5   6   9.1504   6.8412   9.7115  -6.7138   5.7314  -6.9233   0.00    0.0
2019/01/15 09:37:27.000   4280223.9421  -4034426.4554  -2458290.1137   5   6   9.1505   6.8406   9.7088  -6.7135   5.7298  -6.9213   0.00    0.0
2019/01/15 09:37:28.000   4280234.1924  -4034436.3055  -2458295.4550   5   6   9.1505   6.8400   9.7061  -6.7132   5.7282  -6.9194   0.00    0.0
2019/01/15 09:37:29.000   4280232.7051  -4034424.8158  -2458277.1724   5   6   9.1505   6.8394   9.7034  -6.7129   5.7266  -6.9174   0.00    0.0
2019/01/15 09:37:30.000   4280218.3166  -4034421.3575  -2458268.9628   5   6   9.1505   6.8388   9.7007  -6.7126   5.7249  -6.9155   0.00    0.0
2019/01/15 09:37:31.000   4280232.2216  -4034428.8618  -2458275.6391   5   6   9.1505   6.8382   9.6980  -6.7122   5.7233  -6.9136   0.00    0.0
2019/01/15 09:37:32.000   4280243.1290  -4034434.2900  -2458273.7975   5   6   9.1505   6.8376   9.6953  -6.7119   5.7217  -6.9116   0.00    0.0
2019/01/15 09:37:33.000   4280229.5455  -4034432.8881  -2458275.2074   5   6   9.1506   6.8370   9.6926  -6.7116   5.7201  -6.9097   0.00    0.0
2019/01/15 09:37:34.000   4280223.2417  -4034417.9129  -2458264.9780   5   6   9.1506   6.8364   9.6899  -6.7113   5.7185  -6.9078   0.00    0.0
2019/01/15 09:37:35.000   4280233.0098  -4034421.6622  -2458276.6995   5   6   9.1506   6.8358   9.6872  -6.7110   5.7169  -6.9059   0.00    0.0
2019/01/15 09:37:36.000   4280231.9732  -4034423.1899  -2458268.9297   5   6   9.1506   6.8353   9.6845  -6.7107   5.7153  -6.9039   0.00    0.0
2019/01/15 09:37:37.000   4280221.8816  -4034425.1806  -2458264.5072   5   6   9.1506   6.8347   9.6818  -6.7104   5.7137  -6.9020   0.00    0.0
2019/01/15 09:37:38.000   4280225.2139  -4034429.0782  -2458274.3726   5   6   9.1507   6.8341   9.6791  -6.7101   5.7120  -6.9001   0.00    0.0
2019/01/15 09:37:39.000   4280220.6340  -4034417.5305  -2458261.1592   5   6   9.1507   6.8335   9.6764  -6.7098   5.7105  -6.8982   0.00    0.0
2019/01/15 09:37:40.000   4280218.6152  -4034410.6368  -2458258.0459   5   6   9.1507   6.8329   9.6737  -6.7095   5.7088  -6.8963   0.00    0.0
2019/01/15 09:37:41.000   4280227.1323  -4034418.3059  -2458274.2921   5   6   9.1507   6.8323   9.6710  -6.7092   5.7072  -6.8943   0.00    0.0
2019/01/15 09:37:42.000   4280230.3082  -4034420.8643  -2458272.2624   5   6   9.1508   6.8317   9.6683  -6.7088   5.7056  -6.8924   0.00    0.0
2019/01/15 09:37:43.000   4280225.9194  -4034419.3342  -2458260.6956   5   6   9.1508   6.8311   9.6656  -6.7085   5.7040  -6.8905   0.00    0.0
2019/01/15 09:37:44.000   4280232.5534  -4034419.9337  -2458263.1401   5   6   9.1508   6.8305   9.6629  -6.7082   5.7024  -6.8886   0.00    0.0
2019/01/15 09:37:45.000   4280240.4093  -4034424.8568  -2458283.7498   5   6   9.1509   6.8299   9.6602  -6.7079   5.7008  -6.8866   0.00    0.0
2019/01/15 09:37:46.000   4280218.5035  -4034414.2349  -2458268.9177   5   6   9.1509   6.8294   9.6575  -6.7076   5.6992  -6.8847   0.00    0.0
2019/01/15 09:37:47.000   4280216.6519  -4034417.7751  -2458259.7392   5   6   9.1509   6.8288   9.6548  -6.7073   5.6976  -6.8828   0.00    0.0
2019/01/15 09:37:48.000   4280218.4855  -4034404.6745  -2458251.0521   5   6   9.1510   6.8282   9.6522  -6.7071   5.6961  -6.8809   0.00    0.0
2019/01/15 09:37:49.000   4280211.9057  -4034401.0804  -2458237.8003   5   6   9.1510   6.8276   9.6495  -6.7068   5.6945  -6.8790   0.00    0.0
2019/01/15 09:37:50.000   4280223.4661  -4034408.6276  -2458232.0493   5   6   9.1510   6.8270   9.6468  -6.7065   5.6929  -6.8771   0.00    0.0
2019/01/15 09:37:51.000   4280218.9425  -4034402.9522  -2458236.8014   5   6   9.1511   6.8265   9.6441  -6.7062   5.6913  -6.8752   0.00    0.0
2019/01/15 09:37:52.000   4280229.6800  -4034419.6328  -2458252.0991   5   6   9.1511   6.8259   9.6414  -6.7059   5.6897  -6.8733   0.00    0.0
2019/01/15 09:37:53.000   4280212.3210  -4034405.4811  -2458239.7064   5   6   9.1512   6.8253   9.6387  -6.7056   5.6881  -6.8714   0.00    0.0
2019/01/15 09:37:54.000   4280221.8900  -4034409.6702  -2458240.1897   5   6   9.1512   6.8247   9.6361  -6.7053   5.6865  -6.8695   0.00    0.0
2019/01/15 09:37:55.000   4280229.3717  -4034419.6361  -2458248.8849   5   6   9.1512   6.8241   9.6334  -6.7050   5.6849  -6.8676   0.00    0.0
2019/01/15 09:37:57.000   4280227.6552  -4034433.3781  -2458261.5027   5   6   9.1513   6.8230   9.6280  -6.7044   5.6817  -6.8638   0.00    0.0
2019/01/15 09:37:58.000   4280210.4886  -4034417.7804  -2458269.2391   5   6   9.1514   6.8224   9.6253  -6.7041   5.6801  -6.8619   0.00    0.0
2019/01/15 09:37:59.000   4280233.2548  -4034432.2779  -2458276.3054   5   6   9.1514   6.8218   9.6226  -6.7038   5.6785  -6.8599   0.00    0.0
2019/01/15 09:38:00.000   4280223.0947  -4034430.9594  -2458268.6166   5   6   9.1515   6.8212   9.6200  -6.7035   5.6770  -6.8580   0.00    0.0
2019/01/15 09:38:01.000   4280217.8054  -4034423.8094  -2458269.5425   5   6   9.1515   6.8207   9.6173  -6.7033   5.6754  -6.8562   0.00    0.0
2019/01/15 09:38:02.000   4280227.7269  -4034433.3538  -2458273.6685   5   6   9.1515   6.8201   9.6146  -6.7030   5.6738  -6.8543   0.00    0.0
2019/01/15 09:38:03.000   4280239.2515  -4034426.3409  -2458280.1512   5   6   9.1516   6.8195   9.6119  -6.7027   5.6722  -6.8523   0.00    0.0
2019/01/15 09:38:04.000   4280220.5831  -4034428.0896  -2458271.9923   5   6   9.1517   6.8189   9.6093  -6.7024   5.6706  -6.8505   0.00    0.0
2019/01/15 09:38:05.000   4280219.3929  -4034419.4312  -2458275.8705   5   6   9.1517   6.8184   9.6066  -6.7021   5.6691  -6.8486   0.00    0.0
2019/01/15 09:38:06.000   4280218.9402  -4034421.2683  -2458263.2390   5   6   9.1518   6.8178   9.6039  -6.7018   5.6675  -6.8467   0.00    0.0
2019/01/15 09:38:07.000   4280220.1148  -4034421.7863  -2458264.7974   5   6   9.1518   6.8172   9.6013  -6.7016   5.6659  -6.8448   0.00    0.0
2019/01/15 09:38:08.000   4280223.6799  -4034420.3410  -2458282.3846   5   6   9.1519   6.8166   9.5986  -6.7013   5.6643  -6.8429   0.00    0.0
2019/01/15 09:38:09.000   4280232.8668  -4034433.1733  -2458297.6637   5   6   9.1519   6.8161   9.5959  -6.7010   5.6628  -6.8410   0.00    0.0
2019/01/15 09:38:10.000   4280215.6454  -4034413.2943  -2458278.2334   5   6   9.1520   6.8155   9.5933  -6.7007   5.6612  -6.8391   0.00    0.0
2019/01/15 09:38:11.000   4280232.6586  -4034432.7676  -2458287.0111   5   6   9.1520   6.8149   9.5906  -6.7004   5.6596  -6.8372   0.00    0.0
2019/01/15 09:38:12.000   4280233.3861  -4034429.6268  -2458288.8309   5   6   9.1521   6.8144   9.5879  -6.7002   5.6581  -6.8353   0.00    0.0
2019/01/15 09:38:13.000   4280229.1557  -4034437.4542  -2458270.5703   5   6   9.1522   6.8138   9.5853  -6.6999   5.6565  -6.8335   0.00    0.0
2019/01/15 09:38:14.000   4280230.7859  -4034431.2368  -2458281.3740   5   6   9.1522   6.8132   9.5826  -6.6996   5.6549  -6.8316   0.00    0.0
2019/01/15 09:38:15.000   4280221.2398  -4034421.9272  -2458279.1505   5   6   9.1523   6.8127   9.5800  -6.6994   5.6534  -6.8297   0.00    0.0
2019/01/15 09:38:16.000   4280238.3870  -4034433.0272  -2458270.9845   5   6   9.1523   6.8121   9.5773  -6.6991   5.6518  -6.8278   0.00    0.0
2019/01/15 09:38:17.000   4280228.4683  -4034426.5484  -2458280.2275   5   6   9.1524   6.8115   9.5746  -6.6988   5.6502  -6.8259   0.00    0.0
2019/01/15 09:38:18.000   4280217.5252  -4034412.5029  -2458272.9303   5   6   9.1525   6.8110   9.5720  -6.6985   5.6487  -6.8241   0.00    0.0
2019/01/15 09:38:19.000   4280233.5588  -4034429.7360  -2458263.7060   5   6   9.1525   6.8104   9.5693  -6.6983   5.6471  -6.8222   0.00    0.0
2019/01/15 09:38:20.000   4280232.6118  -4034425.1708  -2458266.4564   5   6   9.1526   6.8098   9.5667  -6.6980   5.6455  -6.8203   0.00    0.0
2019/01/15 09:38:21.000   4280209.3359  -4034411.7234  -2458259.2571   5   6   9.1527   6.8093   9.5640  -6.6977   5.6440  -6.8184   0.00    0.0
2019/01/15 09:38:22.000   4280240.3302  -4034422.1168  -2458281.9093   5   6   9.1527   6.8087   9.5614  -6.6975   5.6424  -6.8165   0.00    0.0
2019/01/15 09:38:23.000   4280226.4018  -4034418.2283  -2458281.2945   5   6   9.1528   6.8082   9.5587  -6.6972   5.6409  -6.8147   0.00    0.0
2019/01/15 09:38:24.000   4280224.2999  -4034421.0605  -2458278.1089   5   6   9.1529   6.8076   9.5561  -6.6969   5.6393  -6.8128   0.00    0.0
2019/01/15 09:38:25.000   4280224.3192  -4034418.9405  -2458278.3418   5   6   9.1530   6.8070   9.5534  -6.6967   5.6378  -6.8109   0.00    0.0
2019/01/15 09:38:26.000   4280216.4957  -4034419.1118  -2458270.2376   5   6   9.1530   6.8065   9.5508  -6.6964   5.6362  -6.8091   0.00    0.0
2019/01/15 09:38:27.000   4280221.6332  -4034419.8912  -2458265.7856   5   6   9.1531   6.8059   9.5481  -6.6962   5.6346  -6.8072   0.00    0.0
2019/01/15 09:38:28.000   4280233.2635  -4034427.9477  -2458270.5738   5   6   9.1532   6.8054   9.5455  -6.6959   5.6331  -6.8053   0.00    0.0
2019/01/15 09:38:29.000   4280230.3517  -4034434.4605  -2458280.0673   5   6   9.1533   6.8048   9.5428  -6.6956   5.6315  -6.8035   0.00    0.0
2019/01/15 09:38:30.000   4280234.6388  -4034428.8240  -2458280.1131   5   6   9.1533   6.8042   9.5402  -6.6954   5.6300  -6.8016   0.00    0.0
2019/01/15 09:38:31.000   4280224.0608  -4034421.3925  -2458268.6343   5   6   9.1534   6.8037   9.5376  -6.6951   5.6284  -6.7997   0.00    0.0
2019/01/15 09:38:32.000   4280231.5760  -4034417.6301  -2458270.6960   5   6   9.1535   6.8031   9.5349  -6.6949   5.6269  -6.7979   0.00    0.0
2019/01/15 09:38:33.000   4280212.1475  -4034412.9921  -2458267.2484   5   6   9.1536   6.8026   9.5323  -6.6946   5.6254  -6.7960   0.00    0.0
2019/01/15 09:38:34.000   4280228.7404  -4034426.3979  -2458268.3624   5   6   9.1537   6.8020   9.5296  -6.6943   5.6238  -6.7941   0.00    0.0
2019/01/15 09:38:35.000   4280217.6040  -4034423.9548  -2458247.7844   5   6   9.1537   6.8015   9.5270  -6.6941   5.6223  -6.7923   0.00    0.0
2019/01/15 09:38:36.000   4280226.8345  -4034424.3916  -2458265.5545   5   6   9.1538   6.8009   9.5244  -6.6938   5.6207  -6.7904   0.00    0.0
2019/01/15 09:38:37.000   4280216.1541  -4034419.3969  -2458263.6705   5   6   9.1539   6.8004   9.5217  -6.6936   5.6192  -6.7886   0.00    0.0
2019/01/15 09:38:38.000   4280213.1660  -4034404.7019  -2458267.4476   5   6   9.1540   6.7998   9.5191  -6.6933   5.6176  -6.7867   0.00    0.0
2019/01/15 09:38:39.000   4280216.1822  -4034417.5601  -2458282.7526   5   6   9.1541   6.7993   9.5165  -6.6931   5.6161  -6.7849   0.00    0.0
2019/01/15 09:38:40.000   4280216.4427  -4034414.6358  -2458267.8353   5   6   9.1542   6.7987   9.5138  -6.6928   5.6146  -6.7830   0.00    0.0
2019/01/15 09:38:41.000   4280209.3235  -4034403.2849  -2458261.5106   5   6   9.1543   6.7982   9.5112  -6.6926   5.6130  -6.7812   0.00    0.0
2019/01/15 09:38:42.000   4280206.2839  -4034404.2467  -2458265.4663   5   6   9.1544   6.7976   9.5086  -6.6923   5.6115  -6.7793   0.00    0.0
2019/01/15 09:38:43.000   4280221.3040  -4034414.4126  -2458277.5100   5   6   9.1544   6.7971   9.5060  -6.6921   5.6099  -6.7774   0.00    0.0
2019/01/15 09:38:44.000   4280212.0074  -4034407.3877  -2458264.1196   5   6   9.1545   6.7966   9.5033  -6.6918   5.6084  -6.7756   0.00    0.0
2019/01/15 09:38:45.000   4280226.7283  -4034417.5268  -2458279.7666   5   6   9.1546   6.7960   9.5007  -6.6916   5.6069  -6.7737   0.00    0.0
2019/01/15 09:38:46.000   4280233.9332  -4034425.2126  -2458281.9361   5   6   9.1547   6.7954   9.4981  -6.6913   5.6053  -6.7719   0.00    0.0
2019/01/15 09:38:47.000   4280229.0452  -4034432.0941  -2458284.1352   5   6   9.1548   6.7949   9.4954  -6.6911   5.6038  -6.7700   0.00    0.0
2019/01/15 09:38:48.000   4280225.0244  -4034423.2768  -2458271.8343   5   6   9.1549   6.7944   9.4928  -6.6909   5.6023  -6.7682   0.00    0.0
2019/01/15 09:38:49.000   4280237.3136  -4034428.6772  -2458277.1601   5   6   9.1550   6.7938   9.4902  -6.6906   5.6007  -6.7664   0.00    0.0
2019/01/15 09:38:50.000   4280231.2250  -4034427.0637  -2458277.1651   5   6   9.1551   6.7933   9.4876  -6.6904   5.5992  -6.7645   0.00    0.0
2019/01/15 09:38:51.000   4280212.5065  -4034412.1487  -2458261.9609   5   6   9.1552   6.7927   9.4850  -6.6901   5.5977  -6.7627   0.00    0.0
2019/01/15 09:38:52.000   4280217.7161  -4034419.4021  -2458273.3248   5   6   9.1553   6.7922   9.4824  -6.6899   5.5962  -6.7608   0.00    0.0
2019/01/15 09:38:53.000   4280216.9011  -4034416.0377  -2458272.5680   5   6   9.1554   6.7917   9.4797  -6.6897   5.5946  -6.7590   0.00    0.0
2019/01/15 09:38:54.000   4280219.7861  -4034421.5658  -2458274.9881   5   6   9.1555   6.7911   9.4771  -6.6894   5.5931  -6.7572   0.00    0.0
2019/01/15 09:38:55.000   4280227.4036  -4034424.4694  -2458258.3696   5   6   9.1556   6.7906   9.4745  -6.6892   5.5916  -6.7553   0.00    0.0
2019/01/15 09:38:56.000   4280218.3665  -4034424.3930  -2458265.0001   5   6   9.1557   6.7900   9.4719  -6.6889   5.5901  -6.7535   0.00    0.0
2019/01/15 09:38:57.000   4280222.1353  -4034414.6820  -2458286.6938   5   6   9.1558   6.7895   9.4693  -6.6887   5.5885  -6.7517   0.00    0.0
2019/01/15 09:38:58.000   4280224.2156  -4034423.6282  -2458275.9825   5   6   9.1559   6.7890   9.4667  -6.6885   5.5870  -6.7498   0.00    0.0
2019/01/15 09:38:59.000   4280229.2090  -4034425.1576  -2458269.7409   5   6   9.1560   6.7884   9.4641  -6.6882   5.5855  -6.7480   0.00    0.0
2019/01/15 09:39:00.000   4280234.4674  -4034428.7005  -2458259.9217   5   6   9.1561   6.7879   9.4614  -6.6880   5.5840  -6.7462   0.00    0.0
2019/01/15 09:39:01.000   4280229.8722  -4034424.6016  -2458261.6906   5   6   9.1562   6.7874   9.4588  -6.6878   5.5825  -6.7443   0.00    0.0
2019/01/15 09:39:02.000   4280224.7330  -4034418.4802  -2458272.9852   5   6   9.1564   6.7868   9.4562  -6.6875   5.5810  -6.7425   0.00    0.0
2019/01/15 09:39:03.000   4280226.9414  -4034414.4635  -2458263.8485   5   6   9.1565   6.7863   9.4536  -6.6873   5.5794  -6.7407   0.00    0.0
2019/01/15 09:39:04.000   4280237.2380  -4034430.2322  -2458273.0030   5   6   9.1566   6.7857   9.4510  -6.6871   5.5779  -6.7388   0.00    0.0
2019/01/15 09:39:05.000   4280224.7261  -4034430.9063  -2458259.7364   5   6   9.1567   6.7852   9.4484  -6.6869   5.5764  -6.7370   0.00    0.0
2019/01/15 09:39:06.000   4280238.3529  -4034432.6216  -2458264.5831   5   6   9.1568   6.7847   9.4458  -6.6866   5.5749  -6.7352   0.00    0.0
2019/01/15 09:39:07.000   4280225.0846  -4034411.4147  -2458253.7150   5   6   9.1569   6.7842   9.4432  -6.6864   5.5734  -6.7334   0.00    0.0
2019/01/15 09:39:08.000   4280231.8449  -4034421.6187  -2458261.8337   5   6   9.1570   6.7836   9.4406  -6.6862   5.5719  -6.7315   0.00    0.0
2019/01/15 09:39:09.000   4280223.4437  -4034419.3036  -2458266.3707   5   6   9.1572   6.7831   9.4380  -6.6860   5.5704  -6.7297   0.00    0.0
2019/01/15 09:39:10.000   4280243.9954  -4034431.7392  -2458274.9636   5   6   9.1573   6.7826   9.4354  -6.6857   5.5689  -6.7279   0.00    0.0
2019/01/15 09:39:11.000   4280214.2330  -4034405.2582  -2458244.9173   5   6   9.1574   6.7820   9.4328  -6.6855   5.5674  -6.7261   0.00    0.0
2019/01/15 09:39:12.000   4280232.8170  -4034422.0009  -2458267.2825   5   6   9.1575   6.7815   9.4302  -6.6853   5.5659  -6.7243   0.00    0.0
2019/01/15 09:39:13.000   4280221.2533  -4034405.6857  -2458254.9099   5   6   9.1576   6.7810   9.4276  -6.6851   5.5644  -6.7225   0.00    0.0
2019/01/15 09:39:14.000   4280241.8590  -4034418.0434  -2458261.0837   5   6   9.1578   6.7805   9.4250  -6.6848   5.5628  -6.7206   0.00    0.0
2019/01/15 09:39:15.000   4280212.6844  -4034406.4352  -2458242.2690   5   6   9.1579   6.7799   9.4225  -6.6846   5.5614  -6.7188   0.00    0.0
2019/01/15 09:39:16.000   4280224.4488  -4034412.4007  -2458259.3621   5   6   9.1580   6.7794   9.4198  -6.6844   5.5598  -6.7170   0.00    0.0
2019/01/15 09:39:17.000   4280224.7717  -4034404.1401  -2458254.0783   5   6   9.1581   6.7789   9.4173  -6.6842   5.5584  -6.7152   0.00    0.0
2019/01/15 09:39:18.000   4280211.6489  -4034405.8474  -2458269.7827   5   6   9.1583   6.7784   9.4147  -6.6840   5.5569  -6.7134   0.00    0.0
2019/01/15 09:39:19.000   4280207.2221  -4034408.5713  -2458267.3456   5   6   9.1584   6.7778   9.4121  -6.6838   5.5554  -6.7116   0.00    0.0
2019/01/15 09:39:20.000   4280204.5152  -4034400.0321  -2458259.3516   5   6   9.1585   6.7773   9.4095  -6.6836   5.5539  -6.7098   0.00    0.0
2019/01/15 09:39:21.000   4280212.5651  -4034421.5283  -2458273.6319   5   6   9.1586   6.7768   9.4069  -6.6833   5.5524  -6.7080   0.00    0.0
2019/01/15 09:39:22.000   4280221.3558  -4034418.6704  -2458276.4204   5   6   9.1588   6.7763   9.4043  -6.6831   5.5509  -6.7062   0.00    0.0
2019/01/15 09:39:23.000   4280210.1056  -4034415.3637  -2458273.6003   5   6   9.1589   6.7758   9.4017  -6.6829   5.5494  -6.7044   0.00    0.0
2019/01/15 09:39:24.000   4280204.8695  -4034407.5382  -2458265.1474   5   6   9.1591   6.7752   9.3992  -6.6827   5.5479  -6.7026   0.00    0.0
2019/01/15 09:39:25.000   4280216.1165  -4034416.9694  -2458287.3844   5   6   9.1592   6.7747   9.3966  -6.6825   5.5464  -6.7007   0.00    0.0
2019/01/15 09:39:26.000   4280217.9787  -4034412.0829  -2458285.2000   5   6   9.1593   6.7742   9.3940  -6.6823   5.5449  -6.6989   0.00    0.0
2019/01/15 09:39:27.000   4280219.1314  -4034420.0747  -2458289.0861   5   6   9.1594   6.7737   9.3914  -6.6821   5.5434  -6.6971   0.00    0.0
2019/01/15 09:39:28.000   4280224.4598  -4034424.2961  -2458289.6120   5   6   9.1596   6.7732   9.3888  -6.6819   5.5419  -6.6953   0.00    0.0
2019/01/15 09:39:29.000   4280218.0301  -4034418.3939  -2458288.2161   5   6   9.1597   6.7726   9.3862  -6.6816   5.5404  -6.6935   0.00    0.0
2019/01/15 09:39:30.000   4280229.9334  -4034415.1395  -2458283.4132   5   6   9.1598   6.7721   9.3837  -6.6814   5.5389  -6.6917   0.00    0.0
2019/01/15 09:39:31.000   4280220.1693  -4034419.6036  -2458279.6169   5   6   9.1600   6.7716   9.3811  -6.6812   5.5375  -6.6899   0.00    0.0
2019/01/15 09:39:32.000   4280209.4376  -4034415.4671  -2458281.4918   5   6   9.1601   6.7711   9.3785  -6.6810   5.5360  -6.6881   0.00    0.0
2019/01/15 09:39:33.000   4280220.5935  -4034405.4571  -2458292.2628   5   6   9.1603   6.7706   9.3759  -6.6808   5.5345  -6.6863   0.00    0.0
2019/01/15 09:39:34.000   4280223.4811  -4034408.3685  -2458301.1828   5   6   9.1604   6.7701   9.3734  -6.6806   5.5330  -6.6845   0.00    0.0
2019/01/15 09:39:35.000   4280228.8387  -4034413.7705  -2458300.3319   5   6   9.1606   6.7695   9.3708  -6.6804   5.5315  -6.6828   0.00    0.0
2019/01/15 09:39:37.000   4280199.5186  -4034396.8538  -2458286.8564   5   6   9.1609   6.7685   9.3657  -6.6800   5.5286  -6.6792   0.00    0.0
2019/01/15 09:39:38.000   4280204.9922  -4034394.5976  -2458278.9599   5   6   9.1610   6.7680   9.3631  -6.6798   5.5271  -6.6774   0.00    0.0
2019/01/15 09:39:39.000   4280220.4099  -4034408.7679  -2458302.3923   5   6   9.1611   6.7675   9.3605  -6.6796   5.5256  -6.6756   0.00    0.0
2019/01/15 09:39:40.000   4280218.6095  -4034419.3963  -2458296.3619   5   6   9.1613   6.7670   9.3580  -6.6794   5.5241  -6.6738   0.00    0.0
2019/01/15 09:39:41.000   4280220.4295  -4034414.0307  -2458275.8316   5   6   9.1614   6.7665   9.3554  -6.6792   5.5227  -6.6720   0.00    0.0
2019/01/15 09:39:42.000   4280228.2977  -4034424.9057  -2458285.6872   5   6   9.1616   6.7660   9.3528  -6.6790   5.5212  -6.6702   0.00    0.0
2019/01/15 09:39:43.000   4280218.6749  -4034413.4855  -2458276.1641   5   6   9.1617   6.7655   9.3503  -6.6788   5.5197  -6.6685   0.00    0.0
2019/01/15 09:39:44.000   4280225.9702  -4034407.4835  -2458267.6465   5   6   9.1619   6.7650   9.3477  -6.6787   5.5183  -6.6667   0.00    0.0
2019/01/15 09:39:45.000   4280206.3235  -4034399.7885  -2458284.8410   5   6   9.1621   6.7645   9.3452  -6.6785   5.5168  -6.6649   0.00    0.0
2019/01/15 09:39:46.000   4280214.2210  -4034412.1907  -2458288.6285   5   6   9.1622   6.7640   9.3426  -6.6783   5.5153  -6.6631   0.00    0.0
2019/01/15 09:39:47.000   4280227.0209  -4034414.0006  -2458289.8222   5   6   9.1624   6.7634   9.3400  -6.6781   5.5138  -6.6613   0.00    0.0
2019/01/15 09:39:48.000   4280216.1623  -4034402.8940  -2458271.0746   5   6   9.1625   6.7629   9.3375  -6.6779   5.5124  -6.6596   0.00    0.0
2019/01/15 09:39:49.000   4280222.2411  -4034413.7186  -2458269.5738   5   6   9.1627   6.7624   9.3349  -6.6777   5.5109  -6.6578   0.00    0.0
2019/01/15 09:39:50.000   4280231.6357  -4034417.1091  -2458276.2296   5   6   9.1628   6.7619   9.3324  -6.6775   5.5095  -6.6560   0.00    0.0
2019/01/15 09:39:51.000   4280215.7784  -4034403.8070  -2458265.2446   5   6   9.1630   6.7614   9.3298  -6.6773   5.5080  -6.6542   0.00    0.0
2019/01/15 09:39:52.000   4280203.1993  -4034393.8732  -2458270.1635   5   6   9.1632   6.7609   9.3273  -6.6771   5.5065  -6.6525   0.00    0.0
2019/01/15 09:39:53.000   4280225.4524  -4034406.3090  -2458293.8743   5   6   9.1633   6.7604   9.3247  -6.6769   5.5051  -6.6507   0.00    0.0
2019/01/15 09:39:54.000   4280213.8083  -4034394.7133  -2458272.0452   5   6   9.1635   6.7599   9.3222  -6.6768   5.5036  -6.6489   0.00    0.0
2019/01/15 09:39:55.000   4280211.3382  -4034398.8432  -2458263.3299   5   6   9.1636   6.7594   9.3196  -6.6766   5.5022  -6.6472   0.00    0.0
2019/01/15 09:39:56.000   4280232.7130  -4034413.7690  -2458277.6204   5   6   9.1638   6.7589   9.3171  -6.6764   5.5007  -6.6454   0.00    0.0
2019/01/15 09:39:57.000   4280234.4460  -4034419.1862  -2458271.9982   5   6   9.1640   6.7584   9.3145  -6.6762   5.4992  -6.6436   0.00    0.0
2019/01/15 09:39:58.000   4280214.7125  -4034407.9345  -2458262.9251   5   6   9.1641   6.7579   9.3120  -6.6760   5.4978  -6.6419   0.00    0.0
2019/01/15 09:39:59.000   4280208.7878  -4034384.1807  -2458248.9165   5   6   9.1643   6.7575   9.3095  -6.6759   5.4963  -6.6401   0.00    0.0
2019/01/15 09:40:00.000   4280207.0445  -4034392.9799  -2458255.9150   5   6   9.1645   6.7570   9.3069  -6.6757   5.4949  -6.6383   0.00    0.0
2019/01/15 09:40:01.000   4280209.5786  -4034396.5484  -2458247.7533   5   6   9.1646   6.7565   9.3044  -6.6755   5.4934  -6.6366   0.00    0.0
2019/01/15 09:40:02.000   4280215.2444  -4034404.4454  -2458243.2126   5   6   9.1648   6.7560   9.3018  -6.6753   5.4920  -6.6348   0.00    0.0
2019/01/15 09:40:03.000   4280214.2541  -4034398.0191  -2458249.5138   5   6   9.1650   6.7555   9.2993  -6.6751   5.4905  -6.6331   0.00    0.0
2019/01/15 09:40:04.000   4280217.6975  -4034406.3540  -2458257.1521   5   6   9.1652   6.7550   9.2967  -6.6750   5.4891  -6.6313   0.00    0.0
2019/01/15 09:40:05.000   4280208.9626  -4034404.6619  -2458261.0819   5   6   9.1653   6.7545   9.2942  -6.6748   5.4876  -6.6295   0.00    0.0
2019/01/15 09:40:06.000   4280218.1228  -4034413.0394  -2458271.2691   5   6   9.1655   6.7540   9.2917  -6.6746   5.4862  -6.6278   0.00    0.0
2019/01/15 09:40:07.000   4280222.6962  -4034415.0087  -2458274.2977   5   6   9.1657   6.7535   9.2891  -6.6744   5.4847  -6.6260   0.00    0.0
2019/01/15 09:40:08.000   4280216.3179  -4034415.2248  -2458284.1909   5   6   9.1658   6.7530   9.2866  -6.6743   5.4833  -6.6242   0.00    0.0
2019/01/15 09:40:09.000   4280194.6498  -4034399.8527  -2458270.4459   5   6   9.1660   6.7525   9.2841  -6.6741   5.4818  -6.6225   0.00    0.0
2019/01/15 09:40:10.000   4280201.1606  -4034408.5151  -2458259.0493   5   6   9.1662   6.7520   9.2815  -6.6739   5.4804  -6.6208   0.00    0.0
2019/01/15 09:40:11.000   4280199.7861  -4034395.5910  -2458255.2214   5   6   9.1664   6.7515   9.2790  -6.6738   5.4790  -6.6190   0.00    0.0
2019/01/15 09:40:12.000   4280220.4037  -4034407.5953  -2458253.9587   5   6   9.1666   6.7510   9.2765  -6.6736   5.4775  -6.6173   0.00    0.0
2019/01/15 09:40:13.000   4280215.6962  -4034408.1463  -2458250.3713   5   6   9.1667   6.7505   9.2739  -6.6734   5.4761  -6.6155   0.00    0.0
2019/01/15 09:40:14.000   4280207.1756  -4034406.2269  -2458252.5114   5   6   9.1669   6.7501   9.2714  -6.6732   5.4746  -6.6138   0.00    0.0
2019/01/15 09:40:15.000   4280202.7753  -4034406.0382  -2458262.9180   5   6   9.1671   6.7496   9.2689  -6.6731   5.4732  -6.6120   0.00    0.0
2019/01/15 09:40:16.000   4280221.1121  -4034406.4140  -2458269.2402   5   6   9.1673   6.7491   9.2664  -6.6729   5.4717  -6.6103   0.00    0.0
2019/01/15 09:40:17.000   4280216.3627  -4034405.9379  -2458257.1652   5   6   9.1675   6.7486   9.2638  -6.6727   5.4703  -6.6085   0.00    0.0
2019/01/15 09:40:18.000   4280209.3872  -4034409.4416  -2458267.3456   5   6   9.1677   6.7481   9.2613  -6.6726   5.4689  -6.6068   0.00    0.0
2019/01/15 09:40:19.000   4280217.5405  -4034413.8046  -2458286.6061   5   6   9.1678   6.7476   9.2588  -6.6724   5.4674  -6.6050   0.00    0.0
2019/01/15 09:40:20.000   4280221.3808  -4034412.7401  -2458266.0297   5   6   9.1680   6.7471   9.2563  -6.6722   5.4660  -6.6033   0.00    0.0
2019/01/15 09:40:21.000   4280224.3456  -4034418.6089  -2458265.6456   5   6   9.1682   6.7467   9.2537  -6.6721   5.4646  -6.6015   0.00    0.0
2019/01/15 09:40:22.000   4280221.9106  -4034414.5335  -2458266.6227   5   6   9.1684   6.7462   9.2512  -6.6719   5.4631  -6.5998   0.00    0.0
2019/01/15 09:40:23.000   4280221.1857  -4034415.3457  -2458272.6374   5   6   9.1686   6.7457   9.2487  -6.6718   5.4617  -6.5981   0.00    0.0
2019/01/15 09:40:24.000   4280214.0082  -4034408.8966  -2458269.5763   5   6   9.1688   6.7452   9.2462  -6.6716   5.4603  -6.5963   0.00    0.0
2019/01/15 09:40:25.000   4280217.7219  -4034408.2059  -2458267.5753   5   6   9.1690   6.7447   9.2437  -6.6714   5.4589  -6.5946   0.00    0.0
2019/01/15 09:40:26.000   4280217.5635  -4034414.8848  -2458269.0521   5   6   9.1692   6.7442   9.2412  -6.6713   5.4574  -6.5929   0.00    0.0
2019/01/15 09:40:27.000   4280220.5841  -4034418.2387  -2458274.5645   5   6   9.1694   6.7438   9.2386  -6.6711   5.4560  -6.5911   0.00    0.0
2019/01/15 09:40:28.000   4280227.7115  -4034429.1853  -2458276.8256   5   6   9.1696   6.7433   9.2361  -6.6710   5.4546  -6.5894   0.00    0.0
2019/01/15 09:40:29.000   4280216.3189  -4034415.1852  -2458273.3262   5   6   9.1698   6.7428   9.2336  -6.6708   5.4532  -6.5877   0.00    0.0
2019/01/15 09:40:30.000   4280223.1017  -4034417.4053  -2458278.6578   5   6   9.1700   6.7423   9.2311  -6.6707   5.4517  -6.5859   0.00    0.0
2019/01/15 09:40:31.000   4280214.8579  -4034418.7372  -2458270.1920   5   6   9.1702   6.7419   9.2286  -6.6705   5.4503  -6.5842   0.00    0.0
2019/01/15 09:40:32.000   4280233.9141  -4034428.0108  -2458273.6039   5   6   9.1703   6.7414   9.2261  -6.6703   5.4489  -6.5825   0.00    0.0
2019/01/15 09:40:33.000   4280225.8032  -4034420.4168  -2458260.6935   5   6   9.1706   6.7409   9.2236  -6.6702   5.4475  -6.5807   0.00    0.0
2019/01/15 09:40:34.000   4280213.4459  -4034420.0776  -2458273.4484   5   6   9.1708   6.7404   9.2211  -6.6701   5.4461  -6.5790   0.00    0.0
2019/01/15 09:40:35.000   4280228.1619  -4034417.2343  -2458285.5541   5   6   9.1710   6.7400   9.2186  -6.6699   5.4446  -6.5773   0.00    0.0
2019/01/15 09:40:36.000   4280214.8300  -4034410.1264  -2458263.2325   5   6   9.1712   6.7395   9.2161  -6.6698   5.4432  -6.5756   0.00    0.0
2019/01/15 09:40:37.000   4280209.9169  -4034404.5028  -2458270.2462   5   6   9.1714   6.7390   9.2136  -6.6696   5.4418  -6.5738   0.00    0.0
2019/01/15 09:40:38.000   4280215.1629  -4034417.4869  -2458264.4621   5   6   9.1716   6.7385   9.2111  -6.6695   5.4404  -6.5721   0.00    0.0
2019/01/15 09:40:39.000   4280217.5752  -4034422.3632  -2458275.5177   5   6   9.1718   6.7381   9.2086  -6.6693   5.4390  -6.5704   0.00    0.0
2019/01/15 09:40:40.000   4280210.1795  -4034408.0484  -2458268.9618   5   6   9.1720   6.7376   9.2061  -6.6692   5.4376  -6.5687   0.00    0.0
2019/01/15 09:40:41.000   4280203.4104  -4034407.8471  -2458276.0220   5   6   9.1722   6.7371   9.2036  -6.6690   5.4362  -6.5670   0.00    0.0
2019/01/15 09:40:42.000   4280224.8876  -4034423.0097  -2458279.4693   5   6   9.1724   6.7366   9.2011  -6.6689   5.4347  -6.5652   0.00    0.0
2019/01/15 09:40:43.000   4280205.4938  -4034403.7368  -2458266.9971   5   6   9.1726   6.7362   9.1986  -6.6687   5.4333  -6.5635   0.00    0.0
2019/01/15 09:40:44.000   4280227.0404  -4034425.6609  -2458291.3660   5   6   9.1728   6.7357   9.1961  -6.6686   5.4319  -6.5618   0.00    0.0
2019/01/15 09:40:45.000   4280227.3803  -4034420.2940  -2458289.5423   5   6   9.1730   6.7352   9.1936  -6.6684   5.4305  -6.5601   0.00    0.0
2019/01/15 09:40:46.000   4280210.6049  -4034413.0451  -2458274.6747   5   6   9.1732   6.7348   9.1911  -6.6683   5.4291  -6.5584   0.00    0.0
2019/01/15 09:40:47.000   4280218.8747  -4034412.6285  -2458274.6524   5   6   9.1735   6.7343   9.1886  -6.6682   5.4277  -6.5567   0.00    0.0
2019/01/15 09:40:48.000   4280222.9568  -4034416.2373  -2458286.8790   5   6   9.1737   6.7338   9.1861  -6.6680   5.4263  -6.5549   0.00    0.0
2019/01/15 09:40:49.000   4280215.9479  -4034406.9176  -2458260.7665   5   6   9.1739   6.7334   9.1836  -6.6679   5.4249  -6.5533   0.00    0.0
2019/01/15 09:40:50.000   4280209.1383  -4034406.9011  -2458279.8865   5   6   9.1741   6.7329   9.1811  -6.6678   5.4235  -6.5515   0.00    0.0
2019/01/15 09:40:51.000   4280216.2832  -4034414.9917  -2458280.0109   5   6   9.1743   6.7324   9.1786  -6.6676   5.4221  -6.5498   0.00    0.0
2019/01/15 09:40:52.000   4280220.9090  -4034413.9426  -2458269.2611   5   6   9.1745   6.7320   9.1762  -6.6675   5.4207  -6.5481   0.00    0.0
2019/01/15 09:40:53.000   4280209.3599  -4034411.7250  -2458279.1900   5   6   9.1748   6.7315   9.1737  -6.6673   5.4193  -6.5464   0.00    0.0
2019/01/15 09:40:54.000   4280229.9400  -4034426.7092  -2458297.2120   5   6   9.1750   6.7310   9.1712  -6.6672   5.4179  -6.5447   0.00    0.0
2019/01/15 09:40:55.000   4280235.4353  -4034430.2613  -2458284.7810   5   6   9.1752   6.7306   9.1687  -6.6671   5.4165  -6.5430   0.00    0.0
2019/01/15 09:40:56.000   4280228.0457  -4034429.3914  -2458275.3154   5   6   9.1754   6.7301   9.1662  -6.6669   5.4151  -6.5413   0.00    0.0
2019/01/15 09:40:57.000   4280223.7448  -4034417.0410  -2458268.4304   5   6   9.1756   6.7297   9.1638  -6.6668   5.4137  -6.5396   0.00    0.0
2019/01/15 09:40:58.000   4280214.8403  -4034403.4087  -2458260.7236   5   6   9.1759   6.7292   9.1613  -6.6667   5.4123  -6.5379   0.00    0.0
2019/01/15 09:40:59.000   4280222.2630  -4034410.3854  -2458265.0996   5   6   9.1761   6.7288   9.1588  -6.6665   5.4109  -6.5362   0.00    0.0
2019/01/15 09:41:00.000   4280218.9880  -4034416.7418  -2458268.0991   5   6   9.1763   6.7283   9.1563  -6.6664   5.4095  -6.5345   0.00    0.0
2019/01/15 09:41:01.000   4280220.2911  -4034410.4217  -2458259.9926   5   6   9.1766   6.7278   9.1538  -6.6663   5.4081  -6.5328   0.00    0.0
2019/01/15 09:41:02.000   4280219.3286  -4034413.8957  -2458275.8077   5   6   9.1768   6.7274   9.1514  -6.6662   5.4068  -6.5311   0.00    0.0
2019/01/15 09:41:03.000   4280220.5965  -4034415.0861  -2458278.8480   5   6   9.1770   6.7269   9.1489  -6.6660   5.4054  -6.5294   0.00    0.0
2019/01/15 09:41:04.000   4280223.5287  -4034417.1592  -2458281.0770   5   6   9.1772   6.7265   9.1464  -6.6659   5.4040  -6.5277   0.00    0.0
2019/01/15 09:41:05.000   4280220.5117  -4034418.3440  -2458279.3317   5   6   9.1775   6.7260   9.1439  -6.6658   5.4026  -6.5260   0.00    0.0
2019/01/15 09:41:06.000   4280222.4002  -4034415.0776  -2458275.8740   5   6   9.1777   6.7255   9.1415  -6.6657   5.4012  -6.5243   0.00    0.0
2019/01/15 09:41:07.000   4280218.4194  -4034418.1144  -2458284.7292   5   6   9.1779   6.7251   9.1390  -6.6655   5.3998  -6.5227   0.00    0.0
2019/01/15 09:41:08.000   4280221.1814  -4034415.0198  -2458268.2973   5   6   9.1782   6.7246   9.1365  -6.6654   5.3984  -6.5210   0.00    0.0
2019/01/15 09:41:09.000   4280231.5360  -4034420.3906  -2458257.2399   5   6   9.1784   6.7242   9.1341  -6.6653   5.3971  -6.5193   0.00    0.0
2019/01/15 09:41:10.000   4280243.7107  -4034430.1942  -2458267.9984   5   6   9.1786   6.7237   9.1316  -6.6652   5.3957  -6.5176   0.00    0.0
2019/01/15 09:41:11.000   4280239.5486  -4034427.5348  -2458266.7743   5   6   9.1789   6.7233   9.1291  -6.6650   5.3943  -6.5159   0.00    0.0
2019/01/15 09:41:12.000   4280227.1090  -4034412.8702  -2458256.2618   5   6   9.1791   6.7228   9.1267  -6.6649   5.3929  -6.5142   0.00    0.0
2019/01/15 09:41:13.000   4280226.6852  -4034423.9073  -2458257.5000   5   6   9.1793   6.7224   9.1242  -6.6648   5.3915  -6.5125   0.00    0.0
2019/01/15 09:41:14.000   4280223.1157  -4034421.0098  -2458256.9240   5   6   9.1796   6.7219   9.1218  -6.6647   5.3902  -6.5109   0.00    0.0
2019/01/15 09:41:15.000   4280231.8732  -4034426.2380  -2458266.1316   5   6   9.1798   6.7215   9.1193  -6.6646   5.3888  -6.5092   0.00    0.0
2019/01/15 09:41:16.000   4280228.6671  -4034422.5669  -2458261.3674   5   6   9.1801   6.7210   9.1168  -6.6644   5.3874  -6.5075   0.00    0.0
2019/01/15 09:41:17.000   4280226.7722  -4034423.5260  -2458269.0924   5   6   9.1803   6.7206   9.1144  -6.6643   5.3860  -6.5058   0.00    0.0
2019/01/15 09:41:18.000   4280233.1182  -4034435.8106  -2458279.6533   5   6   9.1805   6.7201   9.1119  -6.6642   5.3846  -6.5041   0.00    0.0
2019/01/15 09:41:19.000   4280222.3556  -4034430.2054  -2458273.5286   5   6   9.1808   6.7197   9.1095  -6.6641   5.3833  -6.5025   0.00    0.0
2019/01/15 09:41:20.000   4280221.2934  -4034425.9425  -2458279.8265   5   6   9.1810   6.7192   9.1070  -6.6640   5.3819  -6.5008   0.00    0.0
2019/01/15 09:41:21.000   4280226.7409  -4034427.1599  -2458270.4926   5   6   9.1813   6.7188   9.1045  -6.6639   5.3805  -6.4991   0.00    0.0
2019/01/15 09:41:22.000   4280226.5127  -4034428.7814  -2458250.2627   5   6   9.1815   6.7183   9.1021  -6.6638   5.3792  -6.4974   0.00    0.0
2019/01/15 09:41:23.000   4280236.1697  -4034431.3470  -2458263.9540   5   6   9.1818   6.7179   9.0996  -6.6637   5.3778  -6.4958   0.00    0.0
2019/01/15 09:41:24.000   4280235.0441  -4034430.0731  -2458278.3703   5   6   9.1820   6.7174   9.0972  -6.6635   5.3764  -6.4941   0.00    0.0
2019/01/15 09:41:25.000   4280229.8350  -4034427.9819  -2458282.0862   5   6   9.1823   6.7170   9.0947  -6.6634   5.3751  -6.4924   0.00    0.0
2019/01/15 09:41:26.000   4280238.6755  -4034429.1352  -2458276.9297   5   6   9.1825   6.7166   9.0923  -6.6633   5.3737  -6.4908   0.00    0.0
2019/01/15 09:41:27.000   4280228.6258  -4034429.2915  -2458277.2186   5   6   9.1828   6.7161   9.0898  -6.6632   5.3723  -6.4891   0.00    0.0
2019/01/15 09:41:28.000   4280234.7697  -4034425.2105  -2458280.8982   5   6   9.1830   6.7157   9.0874  -6.6631   5.3710  -6.4874   0.00    0.0
2019/01/15 09:41:29.000   4280232.2586  -4034419.2457  -2458278.7758   5   6   9.1833   6.7152   9.0849  -6.6630   5.3696  -6.4858   0.00    0.0
2019/01/15 09:41:30.000   4280238.1621  -4034430.6354  -2458276.2658   5   6   9.1835   6.7148   9.0825  -6.6629   5.3682  -6.4841   0.00    0.0
2019/01/15 09:41:31.000   4280237.7628  -4034438.6276  -2458277.9811   5   6   9.1838   6.7144   9.0801  -6.6628   5.3669  -6.4824   0.00    0.0
2019/01/15 09:41:32.000   4280224.1417  -4034420.5268  -2458264.3706   5   6   9.1841   6.7139   9.0776  -6.6627   5.3655  -6.4808   0.00    0.0
2019/01/15 09:41:33.000   4280244.4524  -4034430.6969  -2458275.2968   5   6   9.1843   6.7135   9.0752  -6.6626   5.3642  -6.4791   0.00    0.0
2019/01/15 09:41:34.000   4280232.1702  -4034427.1531  -2458266.4848   5   6   9.1846   6.7130   9.0727  -6.6625   5.3628  -6.4774   0.00    0.0
2019/01/15 09:41:35.000   4280232.6800  -4034430.7344  -2458265.4332   5   6   9.1848   6.7126   9.0703  -6.6624   5.3615  -6.4758   0.00    0.0
2019/01/15 09:41:36.000   4280241.3719  -4034439.0945  -2458264.6837   5   6   9.1851   6.7122   9.0679  -6.6623   5.3601  -6.4741   0.00    0.0
2019/01/15 09:41:37.000   4280220.1886  -4034421.4722  -2458265.6387   5   6   9.1854   6.7117   9.0654  -6.6622   5.3588  -6.4725   0.00    0.0
2019/01/15 09:41:38.000   4280219.4389  -4034421.8319  -2458274.7016   5   6   9.1856   6.7113   9.0630  -6.6621   5.3574  -6.4708   0.00    0.0
