% program   : RTKPOST ver.2.4.2
% inp file  : D:\Google Drive\UERJ\_Projeto Final\Python\tcc-guilherme\20190115_Sta91500_Smoothed.19o
% inp file  : D:\Google Drive\UERJ\_Projeto Final\20190115_Marco 91500 IBGE\riod0151.19o
% inp file  : D:\Google Drive\UERJ\_Projeto Final\20190115_Marco 91500 IBGE\brdm0150.19p
% obs start : 2019/01/15 09:25:22.0 GPST (week2036 206722.0s)
% obs end   : 2019/01/15 10:25:42.0 GPST (week2036 210342.0s)
% pos mode  : dgps
% freqs     : L1
% solution  : forward
% elev mask : 15.0 deg
% dynamics  : off
% tidecorr  : off
% ionos opt : broadcast
% tropo opt : saastamoinen
% ephemeris : broadcast
% navi sys  : gps glonass galileo
% antenna1  :                       ( 0.0000  0.0000  0.0000)
% antenna2  :                       ( 0.0000  0.0000  0.0080)
% ref pos   :  4280294.8840  -4034431.2298  -2458141.3831
%
% (x/y/z-ecef=WGS84,Q=1:fix,2:float,3:sbas,4:dgps,5:single,6:ppp,ns=# of satellites)
%  GPST                      x-ecef(m)      y-ecef(m)      z-ecef(m)   Q  ns   sdx(m)   sdy(m)   sdz(m)  sdxy(m)  sdyz(m)  sdzx(m) age(s)  ratio
2019/01/15 09:25:24.000   4280233.5636  -4034438.5681  -2458272.3617   4   9   1.0446   1.1207   0.9311  -0.8929   0.3338  -0.5415   9.00    0.0
2019/01/15 09:25:25.000   4280226.7004  -4034432.1996  -2458265.8987   4   8   1.1239   1.2239   1.3497  -1.0007   0.7695  -0.8356  10.00    0.0
2019/01/15 09:25:26.000   4280222.7371  -4034425.1320  -2458270.6929   4   7   1.2859   1.2812   1.3627  -1.1126   0.7212  -0.7611  11.00    0.0
2019/01/15 09:25:29.000   4280221.4436  -4034419.9770  -2458275.6982   4   7   1.2863   1.2814   1.3618  -1.1130   0.7209  -0.7603  14.00    0.0
2019/01/15 09:25:30.000   4280231.0269  -4034429.1358  -2458276.6249   4   7   1.2859   1.2810   1.3611  -1.1126   0.7205  -0.7598   0.00    0.0
2019/01/15 09:25:31.000   4280222.7442  -4034421.2703  -2458261.8926   4   8   1.2836   1.2804   1.0776  -1.1113   0.7423  -0.8002   1.00    0.0
2019/01/15 09:25:32.000   4280215.8961  -4034414.2825  -2458262.0129   4   7   1.2860   1.2810   1.3604  -1.1127   0.7203  -0.7592   2.00    0.0
2019/01/15 09:25:33.000   4280216.3076  -4034418.9330  -2458271.5888   4   8   1.1236   1.2236   1.3470  -1.0005   0.7682  -0.8330   3.00    0.0
2019/01/15 09:25:34.000   4280221.5986  -4034418.9207  -2458264.0376   4   7   1.2861   1.2811   1.3598  -1.1128   0.7200  -0.7586   4.00    0.0
2019/01/15 09:25:35.000   4280225.6244  -4034423.6144  -2458271.6268   4   7   1.2862   1.2811   1.3595  -1.1129   0.7199  -0.7583   5.00    0.0
2019/01/15 09:25:36.000   4280221.7539  -4034421.8653  -2458272.0098   4   8   1.1236   1.2236   1.3461  -1.0005   0.7678  -0.8321   6.00    0.0
2019/01/15 09:25:37.000   4280228.4172  -4034426.5553  -2458272.8431   4   7   1.2864   1.2812   1.3589  -1.1131   0.7196  -0.7578   7.00    0.0
2019/01/15 09:25:38.000   4280225.4779  -4034420.6247  -2458276.0515   4   9   1.1625   1.0035   1.0759  -0.8956   0.7600  -0.8108   8.00    0.0
2019/01/15 09:25:39.000   4280225.1161  -4034420.4396  -2458274.1021   4   9   1.1625   1.0035   1.0758  -0.8956   0.7600  -0.8107   9.00    0.0
2019/01/15 09:25:40.000   4280224.3280  -4034420.8370  -2458275.6465   4   8   1.1648   1.0194   1.3331  -0.9029   0.8476  -0.8453  10.00    0.0
2019/01/15 09:25:41.000   4280226.0828  -4034423.4025  -2458275.5626   4   8   1.1648   1.0193   1.3328  -0.9028   0.8474  -0.8450  11.00    0.0
2019/01/15 09:25:42.000   4280227.1230  -4034424.7830  -2458275.0617   4   8   1.1649   1.0193   1.3326  -0.9028   0.8472  -0.8447  12.00    0.0
2019/01/15 09:25:43.000   4280224.9827  -4034421.5701  -2458274.2328   4   9   1.1626   1.0036   1.0752  -0.8957   0.7597  -0.8102  13.00    0.0
2019/01/15 09:25:44.000   4280226.0327  -4034423.2545  -2458275.6082   4   8   1.1649   1.0193   1.3322  -0.9028   0.8468  -0.8441  14.00    0.0
2019/01/15 09:25:45.000   4280227.0540  -4034425.5228  -2458275.1790   4   8   1.1644   1.0188   1.3315  -0.9024   0.8463  -0.8435   0.00    0.0
2019/01/15 09:25:46.000   4280226.3254  -4034424.4701  -2458275.5940   4   8   1.1644   1.0188   1.3312  -0.9023   0.8461  -0.8432   1.00    0.0
2019/01/15 09:25:47.000   4280226.7049  -4034423.0056  -2458274.9813   4  10   1.0093   0.9664   1.0494  -0.8040   0.7171  -0.7227   2.00    0.0
2019/01/15 09:25:48.000   4280224.5374  -4034422.0184  -2458276.4422   4   8   1.1643   1.0187   1.3306  -0.9022   0.8457  -0.8426   3.00    0.0
2019/01/15 09:25:49.000   4280227.3125  -4034423.5591  -2458275.2413   4  10   1.0093   0.9663   1.0490  -0.8040   0.7169  -0.7223   4.00    0.0
2019/01/15 09:27:31.000   4280221.1424  -4034416.1864  -2458269.3323   4  11   1.1458   0.9886   1.0386  -0.9012   0.7692  -0.7791   1.00    0.0
2019/01/15 09:27:32.000   4280221.1029  -4034416.1959  -2458269.2264   4  11   1.1458   0.9886   1.0385  -0.9012   0.7691  -0.7790   2.00    0.0
2019/01/15 09:27:33.000   4280221.1741  -4034416.2726  -2458269.3023   4  11   1.1458   0.9886   1.0383  -0.9011   0.7690  -0.7789   3.00    0.0
2019/01/15 09:27:34.000   4280219.4823  -4034415.1996  -2458268.6682   4  11   1.0087   0.9384   1.0282  -0.7971   0.7143  -0.7032   4.00    0.0
2019/01/15 09:27:35.000   4280219.4314  -4034415.1697  -2458268.4820   4  12   1.0003   0.9218   1.0229  -0.7826   0.7267  -0.7124   5.00    0.0
2019/01/15 09:27:36.000   4280221.2768  -4034416.3265  -2458269.2713   4  11   1.1459   0.9885   1.0380  -0.9011   0.7688  -0.7785   6.00    0.0
2019/01/15 09:27:37.000   4280219.6093  -4034415.2239  -2458268.7995   4  11   1.0003   0.9376   1.0233  -0.7828   0.7222  -0.7120   7.00    0.0
2019/01/15 09:27:38.000   4280219.4910  -4034415.0376  -2458268.7771   4  11   1.0004   0.9376   1.0231  -0.7828   0.7221  -0.7118   8.00    0.0
2019/01/15 09:27:39.000   4280221.5745  -4034416.1061  -2458269.4552   4   9   1.1611   1.0007   1.0558  -0.8936   0.7487  -0.7915   9.00    0.0
2019/01/15 09:27:40.000   4280221.5864  -4034416.0232  -2458269.5439   4  10   1.1610   0.9904   1.0421  -0.8948   0.7647  -0.7897  10.00    0.0
2019/01/15 09:27:41.000   4280221.6173  -4034415.9366  -2458269.6266   4  10   1.1611   0.9904   1.0419  -0.8948   0.7646  -0.7896  11.00    0.0
2019/01/15 09:27:42.000   4280219.1911  -4034414.5026  -2458268.7730   4  11   1.0004   0.9376   1.0226  -0.7828   0.7218  -0.7112  12.00    0.0
2019/01/15 09:27:43.000   4280221.5759  -4034415.7780  -2458269.5485   4   9   1.1613   1.0008   1.0553  -0.8937   0.7485  -0.7910  13.00    0.0
2019/01/15 09:27:44.000   4280219.4341  -4034414.4792  -2458268.9189   4  11   1.0005   0.9376   1.0223  -0.7827   0.7216  -0.7109  14.00    0.0
2019/01/15 09:27:45.000   4280219.2739  -4034414.0119  -2458268.9052   4  11   1.0002   0.9372   1.0219  -0.7824   0.7213  -0.7105   0.00    0.0
2019/01/15 09:27:46.000   4280219.4535  -4034414.3421  -2458268.7223   4  10   1.0093   0.9627   1.0278  -0.8013   0.7038  -0.6995   1.00    0.0
2019/01/15 09:27:47.000   4280221.7132  -4034415.2197  -2458269.8737   4  10   1.1608   0.9900   1.0409  -0.8945   0.7640  -0.7887   2.00    0.0
2019/01/15 09:27:48.000   4280221.6672  -4034415.0637  -2458269.8085   4  10   1.1608   0.9899   1.0408  -0.8944   0.7639  -0.7885   3.00    0.0
2019/01/15 09:27:49.000   4280219.2818  -4034413.8253  -2458269.0465   4  11   1.0002   0.9371   1.0212  -0.7823   0.7208  -0.7098   4.00    0.0
2019/01/15 09:27:50.000   4280221.7806  -4034415.1227  -2458269.8518   4  10   1.1608   0.9899   1.0405  -0.8944   0.7637  -0.7883   5.00    0.0
2019/01/15 09:27:51.000   4280219.4071  -4034413.7990  -2458268.9425   4  11   1.0002   0.9370   1.0209  -0.7822   0.7206  -0.7094   6.00    0.0
2019/01/15 09:27:52.000   4280221.7365  -4034415.0458  -2458269.7624   4  10   1.1609   0.9899   1.0402  -0.8944   0.7636  -0.7881   7.00    0.0
2019/01/15 09:27:53.000   4280221.8573  -4034415.1204  -2458269.7772   4  10   1.1609   0.9899   1.0401  -0.8944   0.7635  -0.7880   8.00    0.0
2019/01/15 09:27:54.000   4280221.8554  -4034415.0712  -2458269.7546   4  10   1.1610   0.9899   1.0400  -0.8944   0.7635  -0.7879   9.00    0.0
2019/01/15 09:27:55.000   4280221.7890  -4034415.0289  -2458269.7511   4  10   1.1610   0.9899   1.0399  -0.8944   0.7634  -0.7878  10.00    0.0
2019/01/15 09:27:56.000   4280221.7486  -4034414.9413  -2458269.7246   4  10   1.1610   0.9899   1.0398  -0.8944   0.7633  -0.7877  11.00    0.0
2019/01/15 09:27:57.000   4280221.7634  -4034414.9832  -2458269.7919   4  10   1.1611   0.9899   1.0396  -0.8944   0.7633  -0.7876  12.00    0.0
2019/01/15 09:27:58.000   4280221.7072  -4034414.9705  -2458269.8518   4  10   1.1611   0.9899   1.0395  -0.8944   0.7632  -0.7875  13.00    0.0
2019/01/15 09:27:59.000   4280219.4411  -4034413.7212  -2458269.2009   4  11   1.0004   0.9370   1.0198  -0.7821   0.7199  -0.7081  14.00    0.0
2019/01/15 09:28:00.000   4280219.1017  -4034413.4042  -2458269.0724   4  11   1.0000   0.9366   1.0194  -0.7818   0.7196  -0.7077   0.00    0.0
2019/01/15 09:28:01.000   4280221.4407  -4034414.5937  -2458269.9323   4  10   1.1608   0.9895   1.0389  -0.8941   0.7627  -0.7868   1.00    0.0
2019/01/15 09:28:02.000   4280219.0344  -4034413.2880  -2458269.1771   4  11   1.0000   0.9366   1.0191  -0.7818   0.7193  -0.7074   2.00    0.0
2019/01/15 09:28:03.000   4280221.6053  -4034414.6527  -2458270.0762   4  10   1.1608   0.9895   1.0386  -0.8940   0.7626  -0.7866   3.00    0.0
2019/01/15 09:28:04.000   4280217.8972  -4034412.5155  -2458271.4075   5  11  30.0000  30.0000  30.0000   0.0000   0.0000   0.0000   4.00    0.0
2019/01/15 09:28:05.000   4280217.8082  -4034412.2985  -2458271.8020   5  12  30.0000  30.0000  30.0000   0.0000   0.0000   0.0000   5.00    0.0
2019/01/15 09:28:06.000   4280217.6098  -4034412.3106  -2458271.8752   5  12  30.0000  30.0000  30.0000   0.0000   0.0000   0.0000   6.00    0.0
2019/01/15 09:28:07.000   4280217.8236  -4034412.6694  -2458271.9377   5  12  30.0000  30.0000  30.0000   0.0000   0.0000   0.0000   7.00    0.0
2019/01/15 09:28:08.000   4280218.0211  -4034413.0065  -2458271.8991   5  12  30.0000  30.0000  30.0000   0.0000   0.0000   0.0000   8.00    0.0
2019/01/15 09:28:09.000   4280218.4201  -4034413.4305  -2458272.0354   5  12  30.0000  30.0000  30.0000   0.0000   0.0000   0.0000   9.00    0.0
2019/01/15 09:28:10.000   4280218.8662  -4034413.7894  -2458272.1604   5  12  30.0000  30.0000  30.0000   0.0000   0.0000   0.0000  10.00    0.0
2019/01/15 09:28:11.000   4280219.1958  -4034413.8242  -2458272.0293   5  12  30.0000  30.0000  30.0000   0.0000   0.0000   0.0000  11.00    0.0
2019/01/15 09:28:12.000   4280219.1359  -4034413.8347  -2458271.8376   5  12  30.0000  30.0000  30.0000   0.0000   0.0000   0.0000  12.00    0.0
2019/01/15 09:28:13.000   4280218.9049  -4034413.7783  -2458271.7137   5  12  30.0000  30.0000  30.0000   0.0000   0.0000   0.0000  13.00    0.0
2019/01/15 09:28:14.000   4280218.8081  -4034414.0017  -2458271.7707   5  12  30.0000  30.0000  30.0000   0.0000   0.0000   0.0000  14.00    0.0
2019/01/15 09:28:15.000   4280219.1973  -4034414.6598  -2458272.0139   5  12  30.0000  30.0000  30.0000   0.0000   0.0000   0.0000   0.00    0.0
2019/01/15 09:28:16.000   4280219.6733  -4034415.0869  -2458271.9915   5  12  30.0000  30.0000  30.0000   0.0000   0.0000   0.0000   1.00    0.0
2019/01/15 09:28:17.000   4280220.2154  -4034415.2971  -2458272.1036   5  12  30.0000  30.0000  30.0000   0.0000   0.0000   0.0000   2.00    0.0
2019/01/15 09:28:18.000   4280220.3556  -4034415.2769  -2458271.8730   5  12  30.0000  30.0000  30.0000   0.0000   0.0000   0.0000   3.00    0.0
2019/01/15 09:28:19.000   4280220.4369  -4034415.4284  -2458271.8044   5  12  30.0000  30.0000  30.0000   0.0000   0.0000   0.0000   4.00    0.0
2019/01/15 09:28:20.000   4280219.9307  -4034415.3035  -2458271.6429   5  12  30.0000  30.0000  30.0000   0.0000   0.0000   0.0000   5.00    0.0
2019/01/15 09:28:21.000   4280219.4541  -4034415.1676  -2458271.5168   5  12  30.0000  30.0000  30.0000   0.0000   0.0000   0.0000   6.00    0.0
2019/01/15 09:28:22.000   4280218.9020  -4034414.9814  -2458271.4547   5  12  30.0000  30.0000  30.0000   0.0000   0.0000   0.0000   7.00    0.0
2019/01/15 09:28:23.000   4280218.7934  -4034414.8182  -2458271.4301   5  12  30.0000  30.0000  30.0000   0.0000   0.0000   0.0000   8.00    0.0
2019/01/15 09:28:24.000   4280219.2971  -4034414.9828  -2458271.8167   5  12  30.0000  30.0000  30.0000   0.0000   0.0000   0.0000   9.00    0.0
2019/01/15 09:28:25.000   4280219.8666  -4034415.1327  -2458272.1822   5  12  30.0000  30.0000  30.0000   0.0000   0.0000   0.0000  10.00    0.0
2019/01/15 09:28:26.000   4280220.3128  -4034415.3926  -2458272.4929   5  12  30.0000  30.0000  30.0000   0.0000   0.0000   0.0000  11.00    0.0
2019/01/15 09:28:27.000   4280220.4104  -4034415.5237  -2458272.5702   5  12  30.0000  30.0000  30.0000   0.0000   0.0000   0.0000  12.00    0.0
2019/01/15 09:28:28.000   4280220.4174  -4034415.6993  -2458272.6428   5  12  30.0000  30.0000  30.0000   0.0000   0.0000   0.0000  13.00    0.0
2019/01/15 09:28:29.000   4280220.5320  -4034415.8129  -2458272.7341   5  12  30.0000  30.0000  30.0000   0.0000   0.0000   0.0000  14.00    0.0
2019/01/15 09:28:30.000   4280220.7633  -4034416.1414  -2458272.8359   5  12  30.0000  30.0000  30.0000   0.0000   0.0000   0.0000   0.00    0.0
2019/01/15 09:28:31.000   4280221.0594  -4034416.2532  -2458272.7894   5  12  30.0000  30.0000  30.0000   0.0000   0.0000   0.0000   1.00    0.0
2019/01/15 09:28:32.000   4280220.8858  -4034415.9119  -2458272.6921   5  12  30.0000  30.0000  30.0000   0.0000   0.0000   0.0000   2.00    0.0
2019/01/15 09:28:33.000   4280220.7453  -4034415.6790  -2458272.6040   5  12  30.0000  30.0000  30.0000   0.0000   0.0000   0.0000   3.00    0.0
2019/01/15 09:28:34.000   4280220.5171  -4034415.4626  -2458272.5300   5  12  30.0000  30.0000  30.0000   0.0000   0.0000   0.0000   4.00    0.0
2019/01/15 09:28:35.000   4280220.5225  -4034415.3002  -2458272.4521   5  12  30.0000  30.0000  30.0000   0.0000   0.0000   0.0000   5.00    0.0
2019/01/15 09:28:36.000   4280220.9735  -4034415.4567  -2458272.4751   5  12  30.0000  30.0000  30.0000   0.0000   0.0000   0.0000   6.00    0.0
2019/01/15 09:28:37.000   4280221.1464  -4034415.4407  -2458272.3648   5  12  30.0000  30.0000  30.0000   0.0000   0.0000   0.0000   7.00    0.0
2019/01/15 09:28:38.000   4280221.0788  -4034415.3380  -2458272.1644   5  12  30.0000  30.0000  30.0000   0.0000   0.0000   0.0000   8.00    0.0
2019/01/15 09:28:39.000   4280220.9858  -4034415.3312  -2458272.1282   5  12  30.0000  30.0000  30.0000   0.0000   0.0000   0.0000   9.00    0.0
2019/01/15 09:28:40.000   4280221.1387  -4034415.5728  -2458272.1803   5  12  30.0000  30.0000  30.0000   0.0000   0.0000   0.0000  10.00    0.0
2019/01/15 09:28:41.000   4280221.3352  -4034415.7147  -2458272.1096   5  12  30.0000  30.0000  30.0000   0.0000   0.0000   0.0000  11.00    0.0
2019/01/15 09:28:42.000   4280221.4845  -4034415.7525  -2458272.1014   5  12  30.0000  30.0000  30.0000   0.0000   0.0000   0.0000  12.00    0.0
2019/01/15 09:28:43.000   4280221.3237  -4034415.3912  -2458271.9618   5  12  30.0000  30.0000  30.0000   0.0000   0.0000   0.0000  13.00    0.0
2019/01/15 09:28:44.000   4280220.9846  -4034415.0916  -2458272.0324   5  12  30.0000  30.0000  30.0000   0.0000   0.0000   0.0000  14.00    0.0
2019/01/15 09:28:45.000   4280220.6636  -4034414.8261  -2458272.0486   5  12  30.0000  30.0000  30.0000   0.0000   0.0000   0.0000   0.00    0.0
2019/01/15 09:28:46.000   4280220.2696  -4034414.3639  -2458271.9331   5  12  30.0000  30.0000  30.0000   0.0000   0.0000   0.0000   1.00    0.0
2019/01/15 09:28:47.000   4280220.0157  -4034413.9896  -2458271.6345   5  12  30.0000  30.0000  30.0000   0.0000   0.0000   0.0000   2.00    0.0
2019/01/15 09:28:48.000   4280220.1902  -4034414.0038  -2458271.4087   5  12  30.0000  30.0000  30.0000   0.0000   0.0000   0.0000   3.00    0.0
2019/01/15 09:28:49.000   4280220.0628  -4034414.0006  -2458271.2758   5  12  30.0000  30.0000  30.0000   0.0000   0.0000   0.0000   4.00    0.0
2019/01/15 09:28:50.000   4280219.6928  -4034413.7886  -2458271.3066   5  12  30.0000  30.0000  30.0000   0.0000   0.0000   0.0000   5.00    0.0
2019/01/15 09:28:51.000   4280219.7358  -4034413.6870  -2458271.2725   5  12  30.0000  30.0000  30.0000   0.0000   0.0000   0.0000   6.00    0.0
2019/01/15 09:28:52.000   4280219.9465  -4034413.7721  -2458271.5648   5  12  30.0000  30.0000  30.0000   0.0000   0.0000   0.0000   7.00    0.0
2019/01/15 09:28:53.000   4280220.3582  -4034414.0449  -2458272.0027   5  12  30.0000  30.0000  30.0000   0.0000   0.0000   0.0000   8.00    0.0
2019/01/15 09:28:54.000   4280220.7612  -4034414.3629  -2458272.3988   5  12  30.0000  30.0000  30.0000   0.0000   0.0000   0.0000   9.00    0.0
2019/01/15 09:28:55.000   4280220.7622  -4034414.3765  -2458272.4839   5  12  30.0000  30.0000  30.0000   0.0000   0.0000   0.0000  10.00    0.0
2019/01/15 09:28:56.000   4280220.3732  -4034414.2946  -2458272.2641   5  12  30.0000  30.0000  30.0000   0.0000   0.0000   0.0000  11.00    0.0
2019/01/15 09:28:57.000   4280219.8646  -4034414.2405  -2458272.0739   5  12  30.0000  30.0000  30.0000   0.0000   0.0000   0.0000  12.00    0.0
2019/01/15 09:28:58.000   4280219.4653  -4034414.2215  -2458272.1122   5  12  30.0000  30.0000  30.0000   0.0000   0.0000   0.0000  13.00    0.0
2019/01/15 09:28:59.000   4280218.9997  -4034414.0437  -2458272.0627   5  12  30.0000  30.0000  30.0000   0.0000   0.0000   0.0000  14.00    0.0
2019/01/15 09:29:00.000   4280218.7647  -4034413.9182  -2458272.1295   5  12  30.0000  30.0000  30.0000   0.0000   0.0000   0.0000   0.00    0.0
2019/01/15 09:29:01.000   4280219.0365  -4034413.8656  -2458272.3434   5  12  30.0000  30.0000  30.0000   0.0000   0.0000   0.0000   1.00    0.0
2019/01/15 09:29:02.000   4280219.4331  -4034413.7644  -2458272.4386   5  12  30.0000  30.0000  30.0000   0.0000   0.0000   0.0000   2.00    0.0
2019/01/15 09:29:03.000   4280220.1802  -4034414.0695  -2458272.4995   5  12  30.0000  30.0000  30.0000   0.0000   0.0000   0.0000   3.00    0.0
2019/01/15 09:29:04.000   4280220.4688  -4034414.4835  -2458272.5813   5  12  30.0000  30.0000  30.0000   0.0000   0.0000   0.0000   4.00    0.0
2019/01/15 09:29:05.000   4280220.3414  -4034414.5630  -2458272.4121   5  12  30.0000  30.0000  30.0000   0.0000   0.0000   0.0000   5.00    0.0
2019/01/15 09:29:06.000   4280219.9114  -4034414.3756  -2458271.9701   5  12  30.0000  30.0000  30.0000   0.0000   0.0000   0.0000   6.00    0.0
2019/01/15 09:29:07.000   4280219.6552  -4034414.4475  -2458271.7537   5  12  30.0000  30.0000  30.0000   0.0000   0.0000   0.0000   7.00    0.0
2019/01/15 09:29:08.000   4280219.5609  -4034414.4397  -2458271.6073   5  12  30.0000  30.0000  30.0000   0.0000   0.0000   0.0000   8.00    0.0
2019/01/15 09:29:09.000   4280219.4830  -4034414.3649  -2458271.4523   5  12  30.0000  30.0000  30.0000   0.0000   0.0000   0.0000   9.00    0.0
2019/01/15 09:29:10.000   4280219.3403  -4034414.2103  -2458271.3726   5  12  30.0000  30.0000  30.0000   0.0000   0.0000   0.0000  10.00    0.0
2019/01/15 09:29:11.000   4280219.1153  -4034414.0479  -2458271.0942   5  12  30.0000  30.0000  30.0000   0.0000   0.0000   0.0000  11.00    0.0
2019/01/15 09:29:12.000   4280218.9626  -4034413.8990  -2458271.0054   5  12  30.0000  30.0000  30.0000   0.0000   0.0000   0.0000  12.00    0.0
2019/01/15 09:29:13.000   4280218.5255  -4034413.5250  -2458270.7077   5  12  30.0000  30.0000  30.0000   0.0000   0.0000   0.0000  13.00    0.0
2019/01/15 09:29:14.000   4280218.2220  -4034413.3745  -2458270.4504   5  12  30.0000  30.0000  30.0000   0.0000   0.0000   0.0000  14.00    0.0
2019/01/15 09:29:15.000   4280218.2239  -4034413.2728  -2458270.2560   5  12  30.0000  30.0000  30.0000   0.0000   0.0000   0.0000   0.00    0.0
2019/01/15 09:29:16.000   4280218.7090  -4034413.5360  -2458270.1751   5  12  30.0000  30.0000  30.0000   0.0000   0.0000   0.0000   1.00    0.0
2019/01/15 09:29:17.000   4280218.9007  -4034413.5960  -2458269.9439   5  12  30.0000  30.0000  30.0000   0.0000   0.0000   0.0000   2.00    0.0
2019/01/15 09:29:18.000   4280218.6063  -4034413.4895  -2458269.6818   5  12  30.0000  30.0000  30.0000   0.0000   0.0000   0.0000   3.00    0.0
2019/01/15 09:29:19.000   4280218.3551  -4034413.2719  -2458269.3460   5  12  30.0000  30.0000  30.0000   0.0000   0.0000   0.0000   4.00    0.0
2019/01/15 09:29:20.000   4280218.4784  -4034413.2954  -2458269.0361   5  12  30.0000  30.0000  30.0000   0.0000   0.0000   0.0000   5.00    0.0
2019/01/15 09:29:21.000   4280218.5533  -4034413.2273  -2458268.8419   5  12  30.0000  30.0000  30.0000   0.0000   0.0000   0.0000   6.00    0.0
2019/01/15 09:29:22.000   4280218.2148  -4034412.6167  -2458268.4558   5  12  30.0000  30.0000  30.0000   0.0000   0.0000   0.0000   7.00    0.0
2019/01/15 09:29:23.000   4280217.6071  -4034411.8901  -2458268.0422   5  12  30.0000  30.0000  30.0000   0.0000   0.0000   0.0000   8.00    0.0
2019/01/15 09:29:24.000   4280217.4718  -4034411.6898  -2458267.9690   5  12  30.0000  30.0000  30.0000   0.0000   0.0000   0.0000   9.00    0.0
2019/01/15 09:29:25.000   4280217.5575  -4034411.8843  -2458267.9687   5  12  30.0000  30.0000  30.0000   0.0000   0.0000   0.0000  10.00    0.0
2019/01/15 09:29:26.000   4280217.7259  -4034412.2551  -2458268.2358   5  12  30.0000  30.0000  30.0000   0.0000   0.0000   0.0000  11.00    0.0
2019/01/15 09:29:27.000   4280217.7627  -4034412.5743  -2458268.3520   5  12  30.0000  30.0000  30.0000   0.0000   0.0000   0.0000  12.00    0.0
2019/01/15 09:29:28.000   4280217.7071  -4034412.6161  -2458268.1818   5  12  30.0000  30.0000  30.0000   0.0000   0.0000   0.0000  13.00    0.0
2019/01/15 09:29:29.000   4280217.5688  -4034412.6868  -2458268.0207   5  12  30.0000  30.0000  30.0000   0.0000   0.0000   0.0000  14.00    0.0
2019/01/15 09:29:30.000   4280217.4011  -4034412.7230  -2458267.8251   5  12  30.0000  30.0000  30.0000   0.0000   0.0000   0.0000   0.00    0.0
2019/01/15 09:29:31.000   4280217.1518  -4034412.4470  -2458267.5760   5  12  30.0000  30.0000  30.0000   0.0000   0.0000   0.0000   1.00    0.0
2019/01/15 09:29:32.000   4280216.7452  -4034411.9210  -2458267.0770   5  12  30.0000  30.0000  30.0000   0.0000   0.0000   0.0000   2.00    0.0
2019/01/15 09:29:33.000   4280216.7408  -4034411.7127  -2458266.8084   5  12  30.0000  30.0000  30.0000   0.0000   0.0000   0.0000   3.00    0.0
2019/01/15 09:29:34.000   4280216.5884  -4034411.5453  -2458266.7219   5  12  30.0000  30.0000  30.0000   0.0000   0.0000   0.0000   4.00    0.0
2019/01/15 09:29:35.000   4280216.0170  -4034411.1793  -2458266.5478   5  12  30.0000  30.0000  30.0000   0.0000   0.0000   0.0000   5.00    0.0
2019/01/15 09:29:36.000   4280215.5138  -4034410.9669  -2458266.3353   5  12  30.0000  30.0000  30.0000   0.0000   0.0000   0.0000   6.00    0.0
2019/01/15 09:29:37.000   4280215.3881  -4034410.9991  -2458266.2967   5  12  30.0000  30.0000  30.0000   0.0000   0.0000   0.0000   7.00    0.0
2019/01/15 09:29:38.000   4280215.2078  -4034411.0449  -2458266.2583   5  12  30.0000  30.0000  30.0000   0.0000   0.0000   0.0000   8.00    0.0
2019/01/15 09:29:39.000   4280215.3872  -4034411.3415  -2458266.2858   5  12  30.0000  30.0000  30.0000   0.0000   0.0000   0.0000   9.00    0.0
2019/01/15 09:29:40.000   4280215.7790  -4034411.5830  -2458266.2179   5  12  30.0000  30.0000  30.0000   0.0000   0.0000   0.0000  10.00    0.0
2019/01/15 09:29:41.000   4280216.0775  -4034411.5809  -2458265.9539   5  12  30.0000  30.0000  30.0000   0.0000   0.0000   0.0000  11.00    0.0
2019/01/15 09:29:42.000   4280216.1781  -4034411.5293  -2458266.0117   5  12  30.0000  30.0000  30.0000   0.0000   0.0000   0.0000  12.00    0.0
2019/01/15 09:29:43.000   4280216.1444  -4034411.5558  -2458266.3664   5  12  30.0000  30.0000  30.0000   0.0000   0.0000   0.0000  13.00    0.0
2019/01/15 09:29:44.000   4280216.1062  -4034411.6882  -2458266.5996   5  12  30.0000  30.0000  30.0000   0.0000   0.0000   0.0000  14.00    0.0
2019/01/15 09:29:45.000   4280216.2066  -4034412.3126  -2458267.1049   5  12  30.0000  30.0000  30.0000   0.0000   0.0000   0.0000   0.00    0.0
2019/01/15 09:29:46.000   4280216.3805  -4034412.7812  -2458267.4051   5  12  30.0000  30.0000  30.0000   0.0000   0.0000   0.0000   1.00    0.0
2019/01/15 09:29:47.000   4280216.7221  -4034413.0585  -2458267.2932   5  12  30.0000  30.0000  30.0000   0.0000   0.0000   0.0000   2.00    0.0
2019/01/15 09:29:48.000   4280216.7726  -4034413.0599  -2458266.9512   5  12  30.0000  30.0000  30.0000   0.0000   0.0000   0.0000   3.00    0.0
2019/01/15 09:29:49.000   4280216.9674  -4034413.1562  -2458266.5990   5  12  30.0000  30.0000  30.0000   0.0000   0.0000   0.0000   4.00    0.0
2019/01/15 09:29:50.000   4280216.7161  -4034413.0039  -2458266.3325   5  12  30.0000  30.0000  30.0000   0.0000   0.0000   0.0000   5.00    0.0
2019/01/15 09:29:51.000   4280216.8744  -4034412.9264  -2458266.4206   5  12  30.0000  30.0000  30.0000   0.0000   0.0000   0.0000   6.00    0.0
2019/01/15 09:29:52.000   4280217.0261  -4034412.7059  -2458266.1792   5  12  30.0000  30.0000  30.0000   0.0000   0.0000   0.0000   7.00    0.0
2019/01/15 09:29:53.000   4280217.0442  -4034412.5796  -2458265.8447   5  12  30.0000  30.0000  30.0000   0.0000   0.0000   0.0000   8.00    0.0
2019/01/15 09:29:54.000   4280216.4791  -4034412.0864  -2458265.3619   5  12  30.0000  30.0000  30.0000   0.0000   0.0000   0.0000   9.00    0.0
2019/01/15 09:29:55.000   4280216.1621  -4034411.7814  -2458265.0366   5  12  30.0000  30.0000  30.0000   0.0000   0.0000   0.0000  10.00    0.0
2019/01/15 09:29:56.000   4280216.3249  -4034412.0039  -2458265.2187   5  12  30.0000  30.0000  30.0000   0.0000   0.0000   0.0000  11.00    0.0
2019/01/15 09:29:57.000   4280216.4524  -4034412.2867  -2458265.5128   5  12  30.0000  30.0000  30.0000   0.0000   0.0000   0.0000  12.00    0.0
2019/01/15 09:29:58.000   4280216.4111  -4034412.4188  -2458265.5504   5  12  30.0000  30.0000  30.0000   0.0000   0.0000   0.0000  13.00    0.0
2019/01/15 09:29:59.000   4280216.8067  -4034412.8811  -2458265.7958   5  12  30.0000  30.0000  30.0000   0.0000   0.0000   0.0000  14.00    0.0
2019/01/15 09:30:00.000   4280217.2243  -4034413.3176  -2458266.0152   5  12  30.0000  30.0000  30.0000   0.0000   0.0000   0.0000   0.00    0.0
2019/01/15 09:30:01.000   4280217.4054  -4034413.3620  -2458265.9205   5  12  30.0000  30.0000  30.0000   0.0000   0.0000   0.0000   1.00    0.0
2019/01/15 09:30:02.000   4280217.2330  -4034413.0731  -2458265.8674   5  12  30.0000  30.0000  30.0000   0.0000   0.0000   0.0000   2.00    0.0
2019/01/15 09:30:03.000   4280217.1868  -4034412.7581  -2458265.9290   5  12  30.0000  30.0000  30.0000   0.0000   0.0000   0.0000   3.00    0.0
2019/01/15 09:30:04.000   4280217.2460  -4034412.5487  -2458265.7516   5  12  30.0000  30.0000  30.0000   0.0000   0.0000   0.0000   4.00    0.0
2019/01/15 09:30:05.000   4280217.6503  -4034412.9000  -2458265.8966   5  12  30.0000  30.0000  30.0000   0.0000   0.0000   0.0000   5.00    0.0
2019/01/15 09:30:06.000   4280218.0197  -4034413.2256  -2458265.9896   5  12  30.0000  30.0000  30.0000   0.0000   0.0000   0.0000   6.00    0.0
2019/01/15 09:30:07.000   4280218.2365  -4034413.4284  -2458265.9797   5  12  30.0000  30.0000  30.0000   0.0000   0.0000   0.0000   7.00    0.0
2019/01/15 09:30:08.000   4280218.3179  -4034413.4037  -2458265.8047   5  12  30.0000  30.0000  30.0000   0.0000   0.0000   0.0000   8.00    0.0
2019/01/15 09:30:09.000   4280218.2224  -4034413.2606  -2458265.6001   5  12  30.0000  30.0000  30.0000   0.0000   0.0000   0.0000   9.00    0.0
2019/01/15 09:30:10.000   4280218.0878  -4034413.2863  -2458265.3789   5  12  30.0000  30.0000  30.0000   0.0000   0.0000   0.0000  10.00    0.0
2019/01/15 09:30:11.000   4280219.3458  -4034414.2463  -2458265.7358   5  11  30.0000  30.0000  30.0000   0.0000   0.0000   0.0000  11.00    0.0
2019/01/15 09:30:12.000   4280219.8202  -4034414.5954  -2458265.7460   5  11  30.0000  30.0000  30.0000   0.0000   0.0000   0.0000  12.00    0.0
2019/01/15 09:30:13.000   4280220.1847  -4034414.8323  -2458265.6556   5  11  30.0000  30.0000  30.0000   0.0000   0.0000   0.0000  13.00    0.0
2019/01/15 09:30:14.000   4280220.3373  -4034415.0521  -2458265.4987   5  11  30.0000  30.0000  30.0000   0.0000   0.0000   0.0000  14.00    0.0
2019/01/15 09:30:15.000   4280220.5919  -4034415.4979  -2458265.5668   5  11  30.0000  30.0000  30.0000   0.0000   0.0000   0.0000   0.00    0.0
2019/01/15 09:30:16.000   4280220.9626  -4034416.0058  -2458265.8727   5  11  30.0000  30.0000  30.0000   0.0000   0.0000   0.0000   1.00    0.0
2019/01/15 09:30:17.000   4280221.2741  -4034416.3331  -2458266.0150   5  11  30.0000  30.0000  30.0000   0.0000   0.0000   0.0000   2.00    0.0
2019/01/15 09:30:18.000   4280222.3516  -4034416.9145  -2458266.3632   5  12  30.0000  30.0000  30.0000   0.0000   0.0000   0.0000   3.00    0.0
2019/01/15 09:30:19.000   4280222.4627  -4034416.8522  -2458266.2406   5  12  30.0000  30.0000  30.0000   0.0000   0.0000   0.0000   4.00    0.0
2019/01/15 09:30:20.000   4280222.7400  -4034416.8429  -2458266.0968   5  12  30.0000  30.0000  30.0000   0.0000   0.0000   0.0000   5.00    0.0
2019/01/15 09:30:21.000   4280223.0624  -4034416.8977  -2458266.1078   5  12  30.0000  30.0000  30.0000   0.0000   0.0000   0.0000   6.00    0.0
2019/01/15 09:30:22.000   4280222.9351  -4034416.7368  -2458265.9182   5  12  30.0000  30.0000  30.0000   0.0000   0.0000   0.0000   7.00    0.0
2019/01/15 09:30:23.000   4280222.6471  -4034416.6686  -2458265.6895   5  12  30.0000  30.0000  30.0000   0.0000   0.0000   0.0000   8.00    0.0
2019/01/15 09:30:24.000   4280222.5942  -4034416.7104  -2458265.5322   5  12  30.0000  30.0000  30.0000   0.0000   0.0000   0.0000   9.00    0.0
2019/01/15 09:30:25.000   4280222.5329  -4034416.6775  -2458265.4691   5  12  30.0000  30.0000  30.0000   0.0000   0.0000   0.0000  10.00    0.0
2019/01/15 09:30:26.000   4280222.2813  -4034416.5865  -2458265.2069   5  12  30.0000  30.0000  30.0000   0.0000   0.0000   0.0000  11.00    0.0
2019/01/15 09:30:27.000   4280221.8547  -4034416.2994  -2458264.8143   5  12  30.0000  30.0000  30.0000   0.0000   0.0000   0.0000  12.00    0.0
2019/01/15 09:30:28.000   4280221.5196  -4034416.0789  -2458264.4022   5  12  30.0000  30.0000  30.0000   0.0000   0.0000   0.0000  13.00    0.0
2019/01/15 09:30:29.000   4280221.0980  -4034415.6319  -2458264.1153   5  12  30.0000  30.0000  30.0000   0.0000   0.0000   0.0000  14.00    0.0
2019/01/15 09:30:30.000   4280220.6238  -4034415.2651  -2458263.9233   5  12  30.0000  30.0000  30.0000   0.0000   0.0000   0.0000   0.00    0.0
2019/01/15 09:30:31.000   4280220.5254  -4034415.0280  -2458263.9483   5  12  30.0000  30.0000  30.0000   0.0000   0.0000   0.0000   1.00    0.0
2019/01/15 09:30:32.000   4280220.5606  -4034414.7175  -2458263.9484   5  12  30.0000  30.0000  30.0000   0.0000   0.0000   0.0000   2.00    0.0
2019/01/15 09:30:33.000   4280220.4362  -4034414.5889  -2458263.7745   5  12  30.0000  30.0000  30.0000   0.0000   0.0000   0.0000   3.00    0.0
2019/01/15 09:30:34.000   4280220.5166  -4034414.6970  -2458263.8654   5  12  30.0000  30.0000  30.0000   0.0000   0.0000   0.0000   4.00    0.0
2019/01/15 09:30:35.000   4280220.3917  -4034414.5599  -2458263.7347   5  12  30.0000  30.0000  30.0000   0.0000   0.0000   0.0000   5.00    0.0
2019/01/15 09:30:36.000   4280220.3295  -4034414.5778  -2458263.8948   5  12  30.0000  30.0000  30.0000   0.0000   0.0000   0.0000   6.00    0.0
2019/01/15 09:30:37.000   4280220.5681  -4034414.8731  -2458264.0896   5  12  30.0000  30.0000  30.0000   0.0000   0.0000   0.0000   7.00    0.0
2019/01/15 09:30:38.000   4280220.8649  -4034415.2074  -2458264.4411   5  12  30.0000  30.0000  30.0000   0.0000   0.0000   0.0000   8.00    0.0
2019/01/15 09:30:39.000   4280221.1150  -4034415.4932  -2458264.5402   5  12  30.0000  30.0000  30.0000   0.0000   0.0000   0.0000   9.00    0.0
2019/01/15 09:30:40.000   4280221.2024  -4034415.4446  -2458264.4109   5  12  30.0000  30.0000  30.0000   0.0000   0.0000   0.0000  10.00    0.0
2019/01/15 09:30:41.000   4280220.6966  -4034415.2315  -2458264.0164   5  12  30.0000  30.0000  30.0000   0.0000   0.0000   0.0000  11.00    0.0
2019/01/15 09:30:42.000   4280219.9447  -4034414.8443  -2458263.4721   5  12  30.0000  30.0000  30.0000   0.0000   0.0000   0.0000  12.00    0.0
2019/01/15 09:30:43.000   4280219.7253  -4034414.6432  -2458263.1575   5  12  30.0000  30.0000  30.0000   0.0000   0.0000   0.0000  13.00    0.0
2019/01/15 09:30:44.000   4280219.9048  -4034414.6293  -2458263.1698   5  12  30.0000  30.0000  30.0000   0.0000   0.0000   0.0000  14.00    0.0
2019/01/15 09:30:45.000   4280219.8519  -4034414.6918  -2458263.3908   5  12  30.0000  30.0000  30.0000   0.0000   0.0000   0.0000   0.00    0.0
2019/01/15 09:30:46.000   4280219.7829  -4034414.7688  -2458263.8413   5  12  30.0000  30.0000  30.0000   0.0000   0.0000   0.0000   1.00    0.0
2019/01/15 09:30:47.000   4280219.3983  -4034414.6077  -2458264.0706   5  12  30.0000  30.0000  30.0000   0.0000   0.0000   0.0000   2.00    0.0
2019/01/15 09:30:48.000   4280219.1373  -4034414.4625  -2458264.2141   5  12  30.0000  30.0000  30.0000   0.0000   0.0000   0.0000   3.00    0.0
2019/01/15 09:30:49.000   4280219.1782  -4034414.5400  -2458264.3608   5  12  30.0000  30.0000  30.0000   0.0000   0.0000   0.0000   4.00    0.0
2019/01/15 09:30:50.000   4280219.4211  -4034414.7331  -2458264.5334   5  12  30.0000  30.0000  30.0000   0.0000   0.0000   0.0000   5.00    0.0
2019/01/15 09:30:51.000   4280219.4422  -4034414.9974  -2458264.5141   5  12  30.0000  30.0000  30.0000   0.0000   0.0000   0.0000   6.00    0.0
2019/01/15 09:30:52.000   4280219.5821  -4034415.1362  -2458264.5259   5  12  30.0000  30.0000  30.0000   0.0000   0.0000   0.0000   7.00    0.0
2019/01/15 09:30:53.000   4280219.6532  -4034415.2474  -2458264.7831   5  12  30.0000  30.0000  30.0000   0.0000   0.0000   0.0000   8.00    0.0
2019/01/15 09:30:54.000   4280219.4877  -4034415.1825  -2458264.9091   5  12  30.0000  30.0000  30.0000   0.0000   0.0000   0.0000   9.00    0.0
2019/01/15 09:30:55.000   4280219.1335  -4034415.0581  -2458265.0191   5  12  30.0000  30.0000  30.0000   0.0000   0.0000   0.0000  10.00    0.0
2019/01/15 09:30:56.000   4280219.0795  -4034415.1407  -2458265.0616   5  12  30.0000  30.0000  30.0000   0.0000   0.0000   0.0000  11.00    0.0
2019/01/15 09:30:57.000   4280219.0304  -4034415.1006  -2458265.1198   5  12  30.0000  30.0000  30.0000   0.0000   0.0000   0.0000  12.00    0.0
2019/01/15 09:30:58.000   4280219.0116  -4034415.1735  -2458265.0225   5  12  30.0000  30.0000  30.0000   0.0000   0.0000   0.0000  13.00    0.0
2019/01/15 09:30:59.000   4280219.2930  -4034415.4628  -2458265.0907   5  12  30.0000  30.0000  30.0000   0.0000   0.0000   0.0000  14.00    0.0
2019/01/15 09:31:00.000   4280219.5830  -4034415.8226  -2458265.4455   5  12  30.0000  30.0000  30.0000   0.0000   0.0000   0.0000   0.00    0.0
2019/01/15 09:31:01.000   4280219.5260  -4034415.8301  -2458265.5655   5  12  30.0000  30.0000  30.0000   0.0000   0.0000   0.0000   1.00    0.0
2019/01/15 09:31:02.000   4280219.2342  -4034415.5025  -2458265.4441   5  12  30.0000  30.0000  30.0000   0.0000   0.0000   0.0000   2.00    0.0
2019/01/15 09:31:03.000   4280218.8780  -4034414.9781  -2458265.2298   5  12  30.0000  30.0000  30.0000   0.0000   0.0000   0.0000   3.00    0.0
2019/01/15 09:31:04.000   4280218.7489  -4034414.8844  -2458265.1448   5  12  30.0000  30.0000  30.0000   0.0000   0.0000   0.0000   4.00    0.0
2019/01/15 09:31:05.000   4280218.9708  -4034415.1284  -2458264.9997   5  12  30.0000  30.0000  30.0000   0.0000   0.0000   0.0000   5.00    0.0
2019/01/15 09:31:06.000   4280219.4334  -4034415.6068  -2458265.3305   5  12  30.0000  30.0000  30.0000   0.0000   0.0000   0.0000   6.00    0.0
2019/01/15 09:31:07.000   4280219.7290  -4034415.9815  -2458265.7165   5  12  30.0000  30.0000  30.0000   0.0000   0.0000   0.0000   7.00    0.0
2019/01/15 09:31:08.000   4280219.7551  -4034415.9695  -2458265.7789   5  12  30.0000  30.0000  30.0000   0.0000   0.0000   0.0000   8.00    0.0
2019/01/15 09:31:09.000   4280219.8149  -4034415.9839  -2458265.6733   5  12  30.0000  30.0000  30.0000   0.0000   0.0000   0.0000   9.00    0.0
2019/01/15 09:31:10.000   4280219.8834  -4034415.9858  -2458265.5971   5  12  30.0000  30.0000  30.0000   0.0000   0.0000   0.0000  10.00    0.0
2019/01/15 09:31:11.000   4280219.9576  -4034416.1178  -2458265.5128   5  12  30.0000  30.0000  30.0000   0.0000   0.0000   0.0000  11.00    0.0
2019/01/15 09:31:12.000   4280220.0632  -4034416.0581  -2458265.4271   5  12  30.0000  30.0000  30.0000   0.0000   0.0000   0.0000  12.00    0.0
2019/01/15 09:31:13.000   4280220.2549  -4034416.0385  -2458265.5437   5  12  30.0000  30.0000  30.0000   0.0000   0.0000   0.0000  13.00    0.0
2019/01/15 09:31:14.000   4280220.9742  -4034415.9654  -2458264.2299   4   8   1.2977   1.2866   1.0231  -1.1251   0.7462  -0.7698  14.00    0.0
2019/01/15 09:31:15.000   4280222.1979  -4034416.0487  -2458264.2124   4  11   1.0009   0.9310   0.9887  -0.7761   0.6995  -0.6740   0.00    0.0
2019/01/15 09:31:16.000   4280222.2909  -4034416.1103  -2458264.3382   4  11   1.0009   0.9310   0.9886  -0.7761   0.6994  -0.6738   1.00    0.0
2019/01/15 09:31:17.000   4280220.8002  -4034416.1847  -2458266.2825   5  12  30.0000  30.0000  30.0000   0.0000   0.0000   0.0000   2.00    0.0
2019/01/15 09:31:18.000   4280221.1526  -4034416.5751  -2458266.6675   5  12  30.0000  30.0000  30.0000   0.0000   0.0000   0.0000   3.00    0.0
2019/01/15 09:31:19.000   4280221.7037  -4034417.1044  -2458267.1728   5  12  30.0000  30.0000  30.0000   0.0000   0.0000   0.0000   4.00    0.0
2019/01/15 09:31:20.000   4280221.7968  -4034417.2775  -2458267.3233   5  12  30.0000  30.0000  30.0000   0.0000   0.0000   0.0000   5.00    0.0
2019/01/15 09:31:21.000   4280221.6033  -4034417.2272  -2458267.1601   5  12  30.0000  30.0000  30.0000   0.0000   0.0000   0.0000   6.00    0.0
2019/01/15 09:31:22.000   4280221.7199  -4034417.1999  -2458266.7109   5  12  30.0000  30.0000  30.0000   0.0000   0.0000   0.0000   7.00    0.0
2019/01/15 09:31:23.000   4280221.9082  -4034417.4174  -2458266.5553   5  12  30.0000  30.0000  30.0000   0.0000   0.0000   0.0000   8.00    0.0
2019/01/15 09:31:24.000   4280222.0599  -4034417.5261  -2458266.3254   5  12  30.0000  30.0000  30.0000   0.0000   0.0000   0.0000   9.00    0.0
2019/01/15 09:31:25.000   4280222.0880  -4034417.4588  -2458266.3271   5  12  30.0000  30.0000  30.0000   0.0000   0.0000   0.0000  10.00    0.0
2019/01/15 09:31:26.000   4280222.2453  -4034417.5100  -2458266.7277   5  12  30.0000  30.0000  30.0000   0.0000   0.0000   0.0000  11.00    0.0
2019/01/15 09:31:27.000   4280222.1012  -4034417.3211  -2458267.1265   5  12  30.0000  30.0000  30.0000   0.0000   0.0000   0.0000  12.00    0.0
2019/01/15 09:31:28.000   4280221.9825  -4034417.3122  -2458267.5043   5  12  30.0000  30.0000  30.0000   0.0000   0.0000   0.0000  13.00    0.0
2019/01/15 09:31:29.000   4280221.7365  -4034417.3988  -2458267.7452   5  12  30.0000  30.0000  30.0000   0.0000   0.0000   0.0000  14.00    0.0
2019/01/15 09:31:30.000   4280221.2670  -4034417.2302  -2458267.9143   5  12  30.0000  30.0000  30.0000   0.0000   0.0000   0.0000   0.00    0.0
2019/01/15 09:31:31.000   4280220.9788  -4034417.0200  -2458268.0754   5  12  30.0000  30.0000  30.0000   0.0000   0.0000   0.0000   1.00    0.0
2019/01/15 09:31:32.000   4280220.7921  -4034417.1112  -2458268.2002   5  12  30.0000  30.0000  30.0000   0.0000   0.0000   0.0000   2.00    0.0
2019/01/15 09:31:33.000   4280220.8235  -4034417.3660  -2458268.3721   5  12  30.0000  30.0000  30.0000   0.0000   0.0000   0.0000   3.00    0.0
2019/01/15 09:31:34.000   4280221.0225  -4034417.5835  -2458268.6080   5  12  30.0000  30.0000  30.0000   0.0000   0.0000   0.0000   4.00    0.0
2019/01/15 09:31:35.000   4280221.1101  -4034417.6427  -2458268.7361   5  12  30.0000  30.0000  30.0000   0.0000   0.0000   0.0000   5.00    0.0
2019/01/15 09:31:36.000   4280221.3231  -4034417.8219  -2458268.9160   5  12  30.0000  30.0000  30.0000   0.0000   0.0000   0.0000   6.00    0.0
2019/01/15 09:31:37.000   4280221.1456  -4034417.6204  -2458268.6160   5  12  30.0000  30.0000  30.0000   0.0000   0.0000   0.0000   7.00    0.0
2019/01/15 09:31:38.000   4280221.0205  -4034417.5653  -2458268.5061   5  12  30.0000  30.0000  30.0000   0.0000   0.0000   0.0000   8.00    0.0
2019/01/15 09:31:39.000   4280220.8520  -4034417.4423  -2458268.4713   5  12  30.0000  30.0000  30.0000   0.0000   0.0000   0.0000   9.00    0.0
2019/01/15 09:31:40.000   4280220.5225  -4034417.0734  -2458268.5202   5  12  30.0000  30.0000  30.0000   0.0000   0.0000   0.0000  10.00    0.0
2019/01/15 09:31:41.000   4280220.2865  -4034416.9284  -2458268.4644   5  12  30.0000  30.0000  30.0000   0.0000   0.0000   0.0000  11.00    0.0
2019/01/15 09:31:42.000   4280220.4335  -4034417.1987  -2458268.4919   5  12  30.0000  30.0000  30.0000   0.0000   0.0000   0.0000  12.00    0.0
2019/01/15 09:31:43.000   4280220.1583  -4034417.1122  -2458268.1693   5  12  30.0000  30.0000  30.0000   0.0000   0.0000   0.0000  13.00    0.0
2019/01/15 09:31:44.000   4280219.8385  -4034416.8550  -2458268.0539   5  12  30.0000  30.0000  30.0000   0.0000   0.0000   0.0000  14.00    0.0
2019/01/15 09:31:45.000   4280219.8579  -4034416.7486  -2458268.2131   5  12  30.0000  30.0000  30.0000   0.0000   0.0000   0.0000   0.00    0.0
2019/01/15 09:31:46.000   4280219.7409  -4034416.5241  -2458268.5261   5  12  30.0000  30.0000  30.0000   0.0000   0.0000   0.0000   1.00    0.0
2019/01/15 09:31:47.000   4280219.8147  -4034416.3834  -2458268.8692   5  12  30.0000  30.0000  30.0000   0.0000   0.0000   0.0000   2.00    0.0
2019/01/15 09:31:48.000   4280219.7981  -4034416.4546  -2458269.0639   5  12  30.0000  30.0000  30.0000   0.0000   0.0000   0.0000   3.00    0.0
2019/01/15 09:31:49.000   4280219.8825  -4034416.5374  -2458269.0827   5  12  30.0000  30.0000  30.0000   0.0000   0.0000   0.0000   4.00    0.0
2019/01/15 09:31:50.000   4280219.9131  -4034416.5582  -2458268.9549   5  12  30.0000  30.0000  30.0000   0.0000   0.0000   0.0000   5.00    0.0
2019/01/15 09:31:51.000   4280219.3535  -4034416.1542  -2458268.3026   5  12  30.0000  30.0000  30.0000   0.0000   0.0000   0.0000   6.00    0.0
2019/01/15 09:31:52.000   4280219.0902  -4034415.7958  -2458267.9547   5  12  30.0000  30.0000  30.0000   0.0000   0.0000   0.0000   7.00    0.0
2019/01/15 09:31:53.000   4280219.1205  -4034415.6133  -2458267.8857   5  12  30.0000  30.0000  30.0000   0.0000   0.0000   0.0000   8.00    0.0
2019/01/15 09:31:54.000   4280219.1737  -4034415.4481  -2458267.9925   5  12  30.0000  30.0000  30.0000   0.0000   0.0000   0.0000   9.00    0.0
2019/01/15 09:31:55.000   4280219.0438  -4034415.4402  -2458268.1882   5  12  30.0000  30.0000  30.0000   0.0000   0.0000   0.0000  10.00    0.0
2019/01/15 09:31:56.000   4280218.6882  -4034415.5076  -2458268.1201   5  12  30.0000  30.0000  30.0000   0.0000   0.0000   0.0000  11.00    0.0
2019/01/15 09:31:57.000   4280218.6953  -4034415.7040  -2458268.1863   5  12  30.0000  30.0000  30.0000   0.0000   0.0000   0.0000  12.00    0.0
2019/01/15 09:31:58.000   4280218.7772  -4034415.8717  -2458268.4473   5  12  30.0000  30.0000  30.0000   0.0000   0.0000   0.0000  13.00    0.0
2019/01/15 09:31:59.000   4280218.7319  -4034415.9809  -2458268.4400   5  12  30.0000  30.0000  30.0000   0.0000   0.0000   0.0000  14.00    0.0
2019/01/15 09:32:00.000   4280218.3746  -4034415.6179  -2458268.0909   5  12  30.0000  30.0000  30.0000   0.0000   0.0000   0.0000   0.00    0.0
2019/01/15 09:32:01.000   4280218.0124  -4034415.1649  -2458267.8126   5  12  30.0000  30.0000  30.0000   0.0000   0.0000   0.0000   1.00    0.0
2019/01/15 09:32:02.000   4280217.7559  -4034414.9313  -2458267.6130   5  12  30.0000  30.0000  30.0000   0.0000   0.0000   0.0000   2.00    0.0
2019/01/15 09:32:03.000   4280217.7226  -4034414.9368  -2458267.4041   5  12  30.0000  30.0000  30.0000   0.0000   0.0000   0.0000   3.00    0.0
2019/01/15 09:32:04.000   4280217.6111  -4034414.9051  -2458267.1649   5  12  30.0000  30.0000  30.0000   0.0000   0.0000   0.0000   4.00    0.0
2019/01/15 09:32:05.000   4280217.4472  -4034414.7953  -2458266.9724   5  12  30.0000  30.0000  30.0000   0.0000   0.0000   0.0000   5.00    0.0
2019/01/15 09:32:06.000   4280217.0309  -4034414.4790  -2458267.1115   5  12  30.0000  30.0000  30.0000   0.0000   0.0000   0.0000   6.00    0.0
2019/01/15 09:32:07.000   4280217.0637  -4034414.5169  -2458267.3714   5  12  30.0000  30.0000  30.0000   0.0000   0.0000   0.0000   7.00    0.0
2019/01/15 09:32:08.000   4280217.2575  -4034414.4954  -2458267.3197   5  12  30.0000  30.0000  30.0000   0.0000   0.0000   0.0000   8.00    0.0
2019/01/15 09:32:09.000   4280217.3473  -4034414.5759  -2458267.2734   5  12  30.0000  30.0000  30.0000   0.0000   0.0000   0.0000   9.00    0.0
2019/01/15 09:32:10.000   4280217.1700  -4034414.4829  -2458267.3326   5  12  30.0000  30.0000  30.0000   0.0000   0.0000   0.0000  10.00    0.0
2019/01/15 09:32:11.000   4280217.3023  -4034414.6815  -2458267.6336   5  12  30.0000  30.0000  30.0000   0.0000   0.0000   0.0000  11.00    0.0
2019/01/15 09:32:12.000   4280217.4403  -4034414.7888  -2458267.7306   5  12  30.0000  30.0000  30.0000   0.0000   0.0000   0.0000  12.00    0.0
2019/01/15 09:32:13.000   4280217.7400  -4034415.0036  -2458267.8372   5  12  30.0000  30.0000  30.0000   0.0000   0.0000   0.0000  13.00    0.0
2019/01/15 09:32:14.000   4280218.0689  -4034415.2874  -2458267.8580   5  12  30.0000  30.0000  30.0000   0.0000   0.0000   0.0000  14.00    0.0
2019/01/15 09:32:15.000   4280218.3973  -4034415.5582  -2458267.8255   5  12  30.0000  30.0000  30.0000   0.0000   0.0000   0.0000   0.00    0.0
2019/01/15 09:32:16.000   4280218.3280  -4034415.5064  -2458267.4248   5  12  30.0000  30.0000  30.0000   0.0000   0.0000   0.0000   1.00    0.0
2019/01/15 09:32:17.000   4280218.1179  -4034415.3241  -2458267.0341   5  12  30.0000  30.0000  30.0000   0.0000   0.0000   0.0000   2.00    0.0
2019/01/15 09:32:18.000   4280217.9389  -4034415.1222  -2458266.6390   5  12  30.0000  30.0000  30.0000   0.0000   0.0000   0.0000   3.00    0.0
2019/01/15 09:32:19.000   4280217.7008  -4034414.9809  -2458266.4994   5  12  30.0000  30.0000  30.0000   0.0000   0.0000   0.0000   4.00    0.0
2019/01/15 09:32:20.000   4280217.8634  -4034415.3178  -2458266.5544   5  12  30.0000  30.0000  30.0000   0.0000   0.0000   0.0000   5.00    0.0
2019/01/15 09:32:21.000   4280218.4897  -4034416.0195  -2458266.8114   5  12  30.0000  30.0000  30.0000   0.0000   0.0000   0.0000   6.00    0.0
2019/01/15 09:32:22.000   4280219.1929  -4034416.4657  -2458267.3694   5  12  30.0000  30.0000  30.0000   0.0000   0.0000   0.0000   7.00    0.0
2019/01/15 09:32:23.000   4280219.6585  -4034416.5219  -2458267.7500   5  12  30.0000  30.0000  30.0000   0.0000   0.0000   0.0000   8.00    0.0
2019/01/15 09:32:24.000   4280219.9678  -4034416.3734  -2458267.8860   5  12  30.0000  30.0000  30.0000   0.0000   0.0000   0.0000   9.00    0.0
2019/01/15 09:32:25.000   4280220.2004  -4034416.3722  -2458268.0072   5  12  30.0000  30.0000  30.0000   0.0000   0.0000   0.0000  10.00    0.0
2019/01/15 09:32:26.000   4280219.9136  -4034416.2985  -2458267.8577   5  12  30.0000  30.0000  30.0000   0.0000   0.0000   0.0000  11.00    0.0
2019/01/15 09:32:27.000   4280219.4939  -4034416.1571  -2458267.7709   5  12  30.0000  30.0000  30.0000   0.0000   0.0000   0.0000  12.00    0.0
2019/01/15 09:32:28.000   4280219.2235  -4034416.2007  -2458267.6578   5  12  30.0000  30.0000  30.0000   0.0000   0.0000   0.0000  13.00    0.0
2019/01/15 09:32:29.000   4280219.2459  -4034416.2166  -2458267.0041   5  11  30.0000  30.0000  30.0000   0.0000   0.0000   0.0000  14.00    0.0
2019/01/15 09:32:30.000   4280219.4350  -4034416.4515  -2458267.0425   5  11  30.0000  30.0000  30.0000   0.0000   0.0000   0.0000   0.00    0.0
2019/01/15 09:32:31.000   4280219.5582  -4034416.6247  -2458267.1735   5  11  30.0000  30.0000  30.0000   0.0000   0.0000   0.0000   1.00    0.0
2019/01/15 09:32:32.000   4280219.4360  -4034416.6936  -2458267.4014   5  11  30.0000  30.0000  30.0000   0.0000   0.0000   0.0000   2.00    0.0
2019/01/15 09:32:33.000   4280219.1701  -4034416.6094  -2458267.3399   5  11  30.0000  30.0000  30.0000   0.0000   0.0000   0.0000   3.00    0.0
2019/01/15 09:32:34.000   4280218.8960  -4034416.5056  -2458267.2371   5  11  30.0000  30.0000  30.0000   0.0000   0.0000   0.0000   4.00    0.0
2019/01/15 09:32:35.000   4280218.7649  -4034416.4070  -2458267.2654   5  11  30.0000  30.0000  30.0000   0.0000   0.0000   0.0000   5.00    0.0
2019/01/15 09:32:36.000   4280218.8469  -4034416.2093  -2458267.5626   5  11  30.0000  30.0000  30.0000   0.0000   0.0000   0.0000   6.00    0.0
2019/01/15 09:32:37.000   4280218.7297  -4034415.9401  -2458267.6824   5  11  30.0000  30.0000  30.0000   0.0000   0.0000   0.0000   7.00    0.0
2019/01/15 09:32:38.000   4280218.4246  -4034415.6537  -2458267.8166   5  11  30.0000  30.0000  30.0000   0.0000   0.0000   0.0000   8.00    0.0
2019/01/15 09:32:39.000   4280218.2572  -4034415.4535  -2458267.8316   5  11  30.0000  30.0000  30.0000   0.0000   0.0000   0.0000   9.00    0.0
2019/01/15 09:32:40.000   4280218.2223  -4034415.2185  -2458267.8768   5  11  30.0000  30.0000  30.0000   0.0000   0.0000   0.0000  10.00    0.0
2019/01/15 09:32:41.000   4280218.2439  -4034415.1496  -2458267.8421   5  11  30.0000  30.0000  30.0000   0.0000   0.0000   0.0000  11.00    0.0
2019/01/15 09:32:42.000   4280218.4065  -4034415.1533  -2458267.9564   5  11  30.0000  30.0000  30.0000   0.0000   0.0000   0.0000  12.00    0.0
2019/01/15 09:32:43.000   4280218.5194  -4034415.1842  -2458268.0222   5  11  30.0000  30.0000  30.0000   0.0000   0.0000   0.0000  13.00    0.0
2019/01/15 09:32:44.000   4280218.9820  -4034415.5397  -2458268.1164   5  11  30.0000  30.0000  30.0000   0.0000   0.0000   0.0000  14.00    0.0
2019/01/15 09:32:45.000   4280219.5915  -4034416.1220  -2458268.5947   5  11  30.0000  30.0000  30.0000   0.0000   0.0000   0.0000   0.00    0.0
2019/01/15 09:32:46.000   4280219.7045  -4034416.4059  -2458268.9012   5  11  30.0000  30.0000  30.0000   0.0000   0.0000   0.0000   1.00    0.0
2019/01/15 09:32:47.000   4280219.6497  -4034416.4413  -2458269.1700   5  11  30.0000  30.0000  30.0000   0.0000   0.0000   0.0000   2.00    0.0
2019/01/15 09:32:48.000   4280219.5695  -4034416.2339  -2458269.5684   5  11  30.0000  30.0000  30.0000   0.0000   0.0000   0.0000   3.00    0.0
2019/01/15 09:32:49.000   4280219.4880  -4034416.1940  -2458269.8993   5  11  30.0000  30.0000  30.0000   0.0000   0.0000   0.0000   4.00    0.0
2019/01/15 09:32:52.000   4280217.9453  -4034414.4148  -2458259.4276   5  12  30.0000  30.0000  30.0000   0.0000   0.0000   0.0000   7.00    0.0
2019/01/15 09:32:53.000   4280219.1199  -4034415.3665  -2458263.5744   5  12  30.0000  30.0000  30.0000   0.0000   0.0000   0.0000   8.00    0.0
2019/01/15 09:32:54.000   4280219.3726  -4034415.7375  -2458267.2716   5  12  30.0000  30.0000  30.0000   0.0000   0.0000   0.0000   9.00    0.0
2019/01/15 09:32:55.000   4280219.3732  -4034415.8960  -2458269.7618   5  12  30.0000  30.0000  30.0000   0.0000   0.0000   0.0000  10.00    0.0
2019/01/15 09:32:56.000   4280219.3926  -4034416.0701  -2458272.7377   5  12  30.0000  30.0000  30.0000   0.0000   0.0000   0.0000  11.00    0.0
2019/01/15 09:32:57.000   4280218.9217  -4034415.5691  -2458271.2322   5  12  30.0000  30.0000  30.0000   0.0000   0.0000   0.0000  12.00    0.0
2019/01/15 09:32:58.000   4280217.6829  -4034414.7182  -2458267.7085   5  12  30.0000  30.0000  30.0000   0.0000   0.0000   0.0000  13.00    0.0
2019/01/15 09:32:59.000   4280216.6264  -4034414.0175  -2458264.8979   5  12  30.0000  30.0000  30.0000   0.0000   0.0000   0.0000  14.00    0.0
2019/01/15 09:33:00.000   4280216.4666  -4034413.9793  -2458265.1773   5  12  30.0000  30.0000  30.0000   0.0000   0.0000   0.0000   0.00    0.0
2019/01/15 09:33:01.000   4280216.4409  -4034414.0280  -2458265.7646   5  12  30.0000  30.0000  30.0000   0.0000   0.0000   0.0000   1.00    0.0
2019/01/15 09:33:02.000   4280216.6065  -4034414.1346  -2458265.9483   5  12  30.0000  30.0000  30.0000   0.0000   0.0000   0.0000   2.00    0.0
2019/01/15 09:33:03.000   4280216.8850  -4034414.0803  -2458265.4441   5  12  30.0000  30.0000  30.0000   0.0000   0.0000   0.0000   3.00    0.0
2019/01/15 09:33:04.000   4280217.0118  -4034414.0106  -2458265.1775   5  12  30.0000  30.0000  30.0000   0.0000   0.0000   0.0000   4.00    0.0
2019/01/15 09:33:05.000   4280216.7867  -4034413.7035  -2458264.9198   5  12  30.0000  30.0000  30.0000   0.0000   0.0000   0.0000   5.00    0.0
2019/01/15 09:33:06.000   4280216.3259  -4034413.3104  -2458264.7190   5  12  30.0000  30.0000  30.0000   0.0000   0.0000   0.0000   6.00    0.0
2019/01/15 09:33:07.000   4280215.9312  -4034412.9939  -2458264.6569   5  12  30.0000  30.0000  30.0000   0.0000   0.0000   0.0000   7.00    0.0
2019/01/15 09:33:08.000   4280215.6006  -4034412.7534  -2458264.5449   5  12  30.0000  30.0000  30.0000   0.0000   0.0000   0.0000   8.00    0.0
2019/01/15 09:33:09.000   4280215.4319  -4034412.7474  -2458264.4471   5  12  30.0000  30.0000  30.0000   0.0000   0.0000   0.0000   9.00    0.0
2019/01/15 09:33:10.000   4280215.5473  -4034412.9151  -2458264.4990   5  12  30.0000  30.0000  30.0000   0.0000   0.0000   0.0000  10.00    0.0
2019/01/15 09:33:11.000   4280215.6808  -4034413.0443  -2458264.6425   5  12  30.0000  30.0000  30.0000   0.0000   0.0000   0.0000  11.00    0.0
2019/01/15 09:33:12.000   4280215.6704  -4034413.0041  -2458264.6010   5  12  30.0000  30.0000  30.0000   0.0000   0.0000   0.0000  12.00    0.0
2019/01/15 09:33:13.000   4280215.2863  -4034412.7472  -2458264.3103   5  12  30.0000  30.0000  30.0000   0.0000   0.0000   0.0000  13.00    0.0
2019/01/15 09:33:14.000   4280214.9537  -4034412.4788  -2458264.2514   5  12  30.0000  30.0000  30.0000   0.0000   0.0000   0.0000  14.00    0.0
2019/01/15 09:33:15.000   4280214.9544  -4034412.5544  -2458264.2443   5  12  30.0000  30.0000  30.0000   0.0000   0.0000   0.0000   0.00    0.0
2019/01/15 09:33:16.000   4280214.8561  -4034412.4809  -2458264.4528   5  12  30.0000  30.0000  30.0000   0.0000   0.0000   0.0000   1.00    0.0
2019/01/15 09:33:17.000   4280214.8165  -4034412.5173  -2458264.8994   5  12  30.0000  30.0000  30.0000   0.0000   0.0000   0.0000   2.00    0.0
2019/01/15 09:33:18.000   4280214.7839  -4034412.6748  -2458265.1888   5  12  30.0000  30.0000  30.0000   0.0000   0.0000   0.0000   3.00    0.0
2019/01/15 09:33:19.000   4280215.0076  -4034413.0780  -2458265.5804   5  12  30.0000  30.0000  30.0000   0.0000   0.0000   0.0000   4.00    0.0
2019/01/15 09:33:20.000   4280215.3140  -4034413.4608  -2458265.9584   5  12  30.0000  30.0000  30.0000   0.0000   0.0000   0.0000   5.00    0.0
2019/01/15 09:33:21.000   4280215.3830  -4034413.6900  -2458266.0933   5  12  30.0000  30.0000  30.0000   0.0000   0.0000   0.0000   6.00    0.0
2019/01/15 09:33:22.000   4280215.4954  -4034413.9008  -2458266.0291   5  12  30.0000  30.0000  30.0000   0.0000   0.0000   0.0000   7.00    0.0
2019/01/15 09:33:23.000   4280215.7048  -4034414.2155  -2458266.0497   5  12  30.0000  30.0000  30.0000   0.0000   0.0000   0.0000   8.00    0.0
2019/01/15 09:33:24.000   4280215.8267  -4034414.2930  -2458266.0657   5  12  30.0000  30.0000  30.0000   0.0000   0.0000   0.0000   9.00    0.0
2019/01/15 09:33:25.000   4280215.9110  -4034414.3999  -2458266.0049   5  12  30.0000  30.0000  30.0000   0.0000   0.0000   0.0000  10.00    0.0
2019/01/15 09:33:26.000   4280215.5597  -4034414.2139  -2458265.8776   5  12  30.0000  30.0000  30.0000   0.0000   0.0000   0.0000  11.00    0.0
2019/01/15 09:33:27.000   4280215.2445  -4034414.0573  -2458265.5809   5  12  30.0000  30.0000  30.0000   0.0000   0.0000   0.0000  12.00    0.0
2019/01/15 09:33:28.000   4280215.5035  -4034414.2268  -2458265.5119   5  12  30.0000  30.0000  30.0000   0.0000   0.0000   0.0000  13.00    0.0
2019/01/15 09:33:29.000   4280215.8044  -4034414.5024  -2458265.6320   5  12  30.0000  30.0000  30.0000   0.0000   0.0000   0.0000  14.00    0.0
2019/01/15 09:33:30.000   4280216.2215  -4034414.8765  -2458265.7364   5  12  30.0000  30.0000  30.0000   0.0000   0.0000   0.0000   0.00    0.0
2019/01/15 09:33:31.000   4280216.5750  -4034415.0582  -2458265.8071   5  12  30.0000  30.0000  30.0000   0.0000   0.0000   0.0000   1.00    0.0
2019/01/15 09:33:32.000   4280216.8105  -4034415.1480  -2458266.0916   5  12  30.0000  30.0000  30.0000   0.0000   0.0000   0.0000   2.00    0.0
2019/01/15 09:33:33.000   4280216.8046  -4034415.0772  -2458266.0983   5  12  30.0000  30.0000  30.0000   0.0000   0.0000   0.0000   3.00    0.0
2019/01/15 09:33:34.000   4280217.1996  -4034415.2914  -2458266.3146   5  12  30.0000  30.0000  30.0000   0.0000   0.0000   0.0000   4.00    0.0
2019/01/15 09:33:35.000   4280217.5422  -4034415.5180  -2458266.1364   5  12  30.0000  30.0000  30.0000   0.0000   0.0000   0.0000   5.00    0.0
2019/01/15 09:33:36.000   4280217.2782  -4034415.4601  -2458265.7935   5  12  30.0000  30.0000  30.0000   0.0000   0.0000   0.0000   6.00    0.0
2019/01/15 09:33:37.000   4280217.2069  -4034415.5967  -2458265.5013   5  12  30.0000  30.0000  30.0000   0.0000   0.0000   0.0000   7.00    0.0
2019/01/15 09:33:38.000   4280216.9124  -4034415.6923  -2458265.2847   5  12  30.0000  30.0000  30.0000   0.0000   0.0000   0.0000   8.00    0.0
2019/01/15 09:33:39.000   4280216.7207  -4034415.7072  -2458265.1729   5  12  30.0000  30.0000  30.0000   0.0000   0.0000   0.0000   9.00    0.0
2019/01/15 09:33:40.000   4280216.3175  -4034415.6047  -2458265.0430   5  12  30.0000  30.0000  30.0000   0.0000   0.0000   0.0000  10.00    0.0
2019/01/15 09:33:41.000   4280216.1667  -4034415.5900  -2458264.9243   5  12  30.0000  30.0000  30.0000   0.0000   0.0000   0.0000  11.00    0.0
2019/01/15 09:33:42.000   4280216.2124  -4034415.8346  -2458264.8008   5  12  30.0000  30.0000  30.0000   0.0000   0.0000   0.0000  12.00    0.0
2019/01/15 09:33:43.000   4280216.4107  -4034416.3686  -2458264.8022   5  12  30.0000  30.0000  30.0000   0.0000   0.0000   0.0000  13.00    0.0
2019/01/15 09:33:44.000   4280216.8357  -4034416.8601  -2458265.0370   5  12  30.0000  30.0000  30.0000   0.0000   0.0000   0.0000  14.00    0.0
2019/01/15 09:33:45.000   4280217.1647  -4034417.2082  -2458265.4533   5  12  30.0000  30.0000  30.0000   0.0000   0.0000   0.0000   0.00    0.0
2019/01/15 09:33:46.000   4280216.8742  -4034417.0552  -2458265.8410   5  12  30.0000  30.0000  30.0000   0.0000   0.0000   0.0000   1.00    0.0
2019/01/15 09:33:47.000   4280216.5083  -4034416.7054  -2458266.2414   5  12  30.0000  30.0000  30.0000   0.0000   0.0000   0.0000   2.00    0.0
2019/01/15 09:33:48.000   4280216.4223  -4034416.5316  -2458266.4556   5  12  30.0000  30.0000  30.0000   0.0000   0.0000   0.0000   3.00    0.0
2019/01/15 09:33:49.000   4280216.4528  -4034416.5412  -2458266.5204   5  12  30.0000  30.0000  30.0000   0.0000   0.0000   0.0000   4.00    0.0
2019/01/15 09:33:50.000   4280216.5755  -4034416.4777  -2458266.2792   5  12  30.0000  30.0000  30.0000   0.0000   0.0000   0.0000   5.00    0.0
2019/01/15 09:33:51.000   4280217.0308  -4034416.7101  -2458266.2485   5  12  30.0000  30.0000  30.0000   0.0000   0.0000   0.0000   6.00    0.0
2019/01/15 09:33:52.000   4280216.9632  -4034416.6832  -2458265.8974   5  12  30.0000  30.0000  30.0000   0.0000   0.0000   0.0000   7.00    0.0
2019/01/15 09:33:53.000   4280216.8558  -4034416.8342  -2458266.0952   5  12  30.0000  30.0000  30.0000   0.0000   0.0000   0.0000   8.00    0.0
2019/01/15 09:33:54.000   4280216.7301  -4034416.8298  -2458266.1148   5  12  30.0000  30.0000  30.0000   0.0000   0.0000   0.0000   9.00    0.0
