% program   : RTKPOST ver.2.4.2
% inp file  : D:\Google Drive\UERJ\_Projeto Final\Python\tcc-guilherme\20190211_Sta91500.19o
% inp file  : D:\Google Drive\UERJ\_Projeto Final\20190211_Marco91500 IBGE\riod0421.19o
% inp file  : D:\Google Drive\UERJ\_Projeto Final\20190211_Marco91500 IBGE\brdm0420.19p
% obs start : 2019/02/11 08:56:22.0 GPST (week2040 118582.0s)
% obs end   : 2019/02/11 10:26:05.0 GPST (week2040 123965.0s)
% pos mode  : static
% freqs     : L1
% solution  : forward
% elev mask : 15.0 deg
% dynamics  : off
% tidecorr  : off
% ionos opt : iono-free
% tropo opt : saastamoinen
% ephemeris : broadcast
% navi sys  : gps glonass galileo
% amb res   : fix and hold
% amb glo   : on
% val thres : 3.0
% antenna1  :                       ( 0.0000  0.0000  0.0000)
% antenna2  :                       ( 0.0000  0.0000  0.0080)
% ref pos   :  4280294.8840  -4034431.2298  -2458141.3831
%
% (x/y/z-ecef=WGS84,Q=1:fix,2:float,3:sbas,4:dgps,5:single,6:ppp,ns=# of satellites)
%  GPST                      x-ecef(m)      y-ecef(m)      z-ecef(m)   Q  ns   sdx(m)   sdy(m)   sdz(m)  sdxy(m)  sdyz(m)  sdzx(m) age(s)  ratio
2019/02/11 08:56:35.000   4280222.4312  -4034414.8688  -2458255.1448   5  12  30.0000  30.0000  30.0000   0.0000   0.0000   0.0000   5.00    0.0
2019/02/11 08:56:42.000   4280222.4312  -4034414.8688  -2458255.1448   5  12  30.0000  30.0000  30.0000   0.0000   0.0000   0.0000  12.00    0.0
2019/02/11 08:56:43.000   4280222.4312  -4034414.8688  -2458255.1448   5  12  30.0000  30.0000  30.0000   0.0000   0.0000   0.0000  13.00    0.0
2019/02/11 08:56:51.000   4280222.4312  -4034414.8688  -2458255.1448   5  12  30.0000  30.0000  30.0000   0.0000   0.0000   0.0000   6.00    0.0
2019/02/11 08:56:56.000   4280222.4312  -4034414.8688  -2458255.1448   5  12  30.0000  30.0000  30.0000   0.0000   0.0000   0.0000  11.00    0.0
2019/02/11 08:56:57.000   4280222.4312  -4034414.8688  -2458255.1448   5  12  30.0000  30.0000  30.0000   0.0000   0.0000   0.0000  12.00    0.0
2019/02/11 08:57:00.000   4280222.4312  -4034414.8688  -2458255.1448   5  12  30.0000  30.0000  30.0000   0.0000   0.0000   0.0000  -0.00    0.0
2019/02/11 08:57:02.000   4280222.4312  -4034414.8688  -2458255.1448   5  12  30.0000  30.0000  30.0000   0.0000   0.0000   0.0000   2.00    0.0
2019/02/11 08:57:03.000   4280222.4312  -4034414.8688  -2458255.1448   5  12  30.0000  30.0000  30.0000   0.0000   0.0000   0.0000   3.00    0.0
2019/02/11 08:57:05.000   4280222.4312  -4034414.8688  -2458255.1448   5  12  30.0000  30.0000  30.0000   0.0000   0.0000   0.0000   5.00    0.0
2019/02/11 08:57:17.000   4280222.4312  -4034414.8688  -2458255.1448   5  12  30.0000  30.0000  30.0000   0.0000   0.0000   0.0000   2.00    0.0
2019/02/11 08:57:20.000   4280222.4312  -4034414.8688  -2458255.1448   5  12  30.0000  30.0000  30.0000   0.0000   0.0000   0.0000   5.00    0.0
2019/02/11 08:57:22.000   4280222.4312  -4034414.8688  -2458255.1448   5  12  30.0000  30.0000  30.0000   0.0000   0.0000   0.0000   7.00    0.0
2019/02/11 08:57:26.000   4280222.4312  -4034414.8688  -2458255.1448   5  12  30.0000  30.0000  30.0000   0.0000   0.0000   0.0000  11.00    0.0
2019/02/11 08:57:27.000   4280222.4312  -4034414.8688  -2458255.1448   5  12  30.0000  30.0000  30.0000   0.0000   0.0000   0.0000  12.00    0.0
2019/02/11 08:57:30.000   4280222.4312  -4034414.8688  -2458255.1448   5  11  30.0000  30.0000  30.0000   0.0000   0.0000   0.0000  -0.00    0.0
2019/02/11 08:57:36.000   4280222.4312  -4034414.8688  -2458255.1448   5  11  30.0000  30.0000  30.0000   0.0000   0.0000   0.0000   6.00    0.0
2019/02/11 08:57:37.000   4280222.4312  -4034414.8688  -2458255.1448   5  11  30.0000  30.0000  30.0000   0.0000   0.0000   0.0000   7.00    0.0
2019/02/11 08:57:42.000   4280222.4312  -4034414.8688  -2458255.1448   5  11  30.0000  30.0000  30.0000   0.0000   0.0000   0.0000  12.00    0.0
2019/02/11 08:57:43.000   4280222.4312  -4034414.8688  -2458255.1448   5  11  30.0000  30.0000  30.0000   0.0000   0.0000   0.0000  13.00    0.0
2019/02/11 08:57:47.000   4280222.4312  -4034414.8688  -2458255.1448   5  11  30.0000  30.0000  30.0000   0.0000   0.0000   0.0000   2.00    0.0
2019/02/11 08:57:52.000   4280222.4312  -4034414.8688  -2458255.1448   5  11  30.0000  30.0000  30.0000   0.0000   0.0000   0.0000   7.00    0.0
2019/02/11 08:57:54.000   4280222.4312  -4034414.8688  -2458255.1448   5  11  30.0000  30.0000  30.0000   0.0000   0.0000   0.0000   9.00    0.0
2019/02/11 08:57:55.000   4280222.4312  -4034414.8688  -2458255.1448   5  11  30.0000  30.0000  30.0000   0.0000   0.0000   0.0000  10.00    0.0
2019/02/11 08:57:56.000   4280222.4312  -4034414.8688  -2458255.1448   5  12  30.0000  30.0000  30.0000   0.0000   0.0000   0.0000  11.00    0.0
2019/02/11 08:58:04.000   4280222.4312  -4034414.8688  -2458255.1448   5  11  30.0000  30.0000  30.0000   0.0000   0.0000   0.0000   4.00    0.0
2019/02/11 08:58:25.000   4280222.4312  -4034414.8688  -2458255.1448   5  11  30.0000  30.0000  30.0000   0.0000   0.0000   0.0000  10.00    0.0
2019/02/11 08:58:27.000   4280222.4312  -4034414.8688  -2458255.1448   5  11  30.0000  30.0000  30.0000   0.0000   0.0000   0.0000  12.00    0.0
2019/02/11 08:58:36.000   4280222.4312  -4034414.8688  -2458255.1448   5  11  30.0000  30.0000  30.0000   0.0000   0.0000   0.0000   6.00    0.0
2019/02/11 08:58:41.000   4280222.4312  -4034414.8688  -2458255.1448   5  12  30.0000  30.0000  30.0000   0.0000   0.0000   0.0000  11.00    0.0
2019/02/11 08:58:46.000   4280222.4312  -4034414.8688  -2458255.1448   5  12  30.0000  30.0000  30.0000   0.0000   0.0000   0.0000   1.00    0.0
2019/02/11 08:58:57.000   4280222.4312  -4034414.8688  -2458255.1448   5  11  30.0000  30.0000  30.0000   0.0000   0.0000   0.0000  12.00    0.0
2019/02/11 08:59:01.000   4280222.4312  -4034414.8688  -2458255.1448   5  11  30.0000  30.0000  30.0000   0.0000   0.0000   0.0000   1.00    0.0
2019/02/11 08:59:02.000   4280222.4312  -4034414.8688  -2458255.1448   5  11  30.0000  30.0000  30.0000   0.0000   0.0000   0.0000   2.00    0.0
2019/02/11 08:59:09.000   4280222.4312  -4034414.8688  -2458255.1448   5  11  30.0000  30.0000  30.0000   0.0000   0.0000   0.0000   9.00    0.0
2019/02/11 08:59:11.000   4280222.4312  -4034414.8688  -2458255.1448   5  11  30.0000  30.0000  30.0000   0.0000   0.0000   0.0000  11.00    0.0
2019/02/11 08:59:17.000   4280222.4312  -4034414.8688  -2458255.1448   5  11  30.0000  30.0000  30.0000   0.0000   0.0000   0.0000   2.00    0.0
2019/02/11 08:59:18.000   4280222.4312  -4034414.8688  -2458255.1448   5  11  30.0000  30.0000  30.0000   0.0000   0.0000   0.0000   3.00    0.0
2019/02/11 08:59:19.000   4280222.4312  -4034414.8688  -2458255.1448   5  11  30.0000  30.0000  30.0000   0.0000   0.0000   0.0000   4.00    0.0
2019/02/11 08:59:22.000   4280222.4312  -4034414.8688  -2458255.1448   5  11  30.0000  30.0000  30.0000   0.0000   0.0000   0.0000   7.00    0.0
2019/02/11 08:59:23.000   4280222.4312  -4034414.8688  -2458255.1448   5  11  30.0000  30.0000  30.0000   0.0000   0.0000   0.0000   8.00    0.0
2019/02/11 08:59:28.000   4280222.4312  -4034414.8688  -2458255.1448   5  11  30.0000  30.0000  30.0000   0.0000   0.0000   0.0000  13.00    0.0
2019/02/11 08:59:32.000   4280222.4312  -4034414.8688  -2458255.1448   5  11  30.0000  30.0000  30.0000   0.0000   0.0000   0.0000   2.00    0.0
2019/02/11 08:59:34.000   4280222.4312  -4034414.8688  -2458255.1448   5  11  30.0000  30.0000  30.0000   0.0000   0.0000   0.0000   4.00    0.0
2019/02/11 08:59:35.000   4280222.4312  -4034414.8688  -2458255.1448   5  11  30.0000  30.0000  30.0000   0.0000   0.0000   0.0000   5.00    0.0
2019/02/11 08:59:39.000   4280222.4312  -4034414.8688  -2458255.1448   5  11  30.0000  30.0000  30.0000   0.0000   0.0000   0.0000   9.00    0.0
2019/02/11 08:59:44.000   4280222.4312  -4034414.8688  -2458255.1448   5  11  30.0000  30.0000  30.0000   0.0000   0.0000   0.0000  14.00    0.0
2019/02/11 08:59:47.000   4280222.4312  -4034414.8688  -2458255.1448   5  11  30.0000  30.0000  30.0000   0.0000   0.0000   0.0000   2.00    0.0
2019/02/11 08:59:48.000   4280222.4312  -4034414.8688  -2458255.1448   5  11  30.0000  30.0000  30.0000   0.0000   0.0000   0.0000   3.00    0.0
2019/02/11 08:59:52.000   4280222.4312  -4034414.8688  -2458255.1448   5  11  30.0000  30.0000  30.0000   0.0000   0.0000   0.0000   7.00    0.0
2019/02/11 08:59:55.000   4280222.4312  -4034414.8688  -2458255.1448   5  11  30.0000  30.0000  30.0000   0.0000   0.0000   0.0000  10.00    0.0
2019/02/11 08:59:57.000   4280222.4312  -4034414.8688  -2458255.1448   5  11  30.0000  30.0000  30.0000   0.0000   0.0000   0.0000  12.00    0.0
2019/02/11 08:59:58.000   4280222.4312  -4034414.8688  -2458255.1448   5  11  30.0000  30.0000  30.0000   0.0000   0.0000   0.0000  13.00    0.0
2019/02/11 09:00:00.000   4280222.4312  -4034414.8688  -2458255.1448   5  11  30.0000  30.0000  30.0000   0.0000   0.0000   0.0000  -0.00    0.0
2019/02/11 09:00:01.000   4280222.4312  -4034414.8688  -2458255.1448   5  11  30.0000  30.0000  30.0000   0.0000   0.0000   0.0000   1.00    0.0
2019/02/11 09:00:09.000   4280222.4312  -4034414.8688  -2458255.1448   5  11  30.0000  30.0000  30.0000   0.0000   0.0000   0.0000   9.00    0.0
2019/02/11 09:00:12.000   4280222.4312  -4034414.8688  -2458255.1448   5  11  30.0000  30.0000  30.0000   0.0000   0.0000   0.0000  12.00    0.0
2019/02/11 09:00:13.000   4280222.4312  -4034414.8688  -2458255.1448   5  11  30.0000  30.0000  30.0000   0.0000   0.0000   0.0000  13.00    0.0
2019/02/11 09:00:19.000   4280222.4312  -4034414.8688  -2458255.1448   5  11  30.0000  30.0000  30.0000   0.0000   0.0000   0.0000   4.00    0.0
2019/02/11 09:00:20.000   4280222.4312  -4034414.8688  -2458255.1448   5  11  30.0000  30.0000  30.0000   0.0000   0.0000   0.0000   5.00    0.0
2019/02/11 09:00:21.000   4280222.4312  -4034414.8688  -2458255.1448   5  11  30.0000  30.0000  30.0000   0.0000   0.0000   0.0000   6.00    0.0
2019/02/11 09:00:23.000   4280222.4312  -4034414.8688  -2458255.1448   5  11  30.0000  30.0000  30.0000   0.0000   0.0000   0.0000   8.00    0.0
2019/02/11 09:00:25.000   4280222.4312  -4034414.8688  -2458255.1448   5  11  30.0000  30.0000  30.0000   0.0000   0.0000   0.0000  10.00    0.0
2019/02/11 09:00:26.000   4280222.4312  -4034414.8688  -2458255.1448   5  11  30.0000  30.0000  30.0000   0.0000   0.0000   0.0000  11.00    0.0
2019/02/11 09:00:27.000   4280222.4312  -4034414.8688  -2458255.1448   5  11  30.0000  30.0000  30.0000   0.0000   0.0000   0.0000  12.00    0.0
2019/02/11 09:00:28.000   4280222.4312  -4034414.8688  -2458255.1448   5  11  30.0000  30.0000  30.0000   0.0000   0.0000   0.0000  13.00    0.0
2019/02/11 09:00:30.000   4280222.4312  -4034414.8688  -2458255.1448   5  11  30.0000  30.0000  30.0000   0.0000   0.0000   0.0000  -0.00    0.0
2019/02/11 09:00:37.000   4280222.4312  -4034414.8688  -2458255.1448   5  11  30.0000  30.0000  30.0000   0.0000   0.0000   0.0000   7.00    0.0
2019/02/11 09:00:41.000   4280222.4312  -4034414.8688  -2458255.1448   5  11  30.0000  30.0000  30.0000   0.0000   0.0000   0.0000  11.00    0.0
2019/02/11 09:00:42.000   4280222.4312  -4034414.8688  -2458255.1448   5  11  30.0000  30.0000  30.0000   0.0000   0.0000   0.0000  12.00    0.0
2019/02/11 09:00:43.000   4280222.4312  -4034414.8688  -2458255.1448   5  11  30.0000  30.0000  30.0000   0.0000   0.0000   0.0000  13.00    0.0
2019/02/11 09:00:44.000   4280222.4312  -4034414.8688  -2458255.1448   5  11  30.0000  30.0000  30.0000   0.0000   0.0000   0.0000  14.00    0.0
2019/02/11 09:00:45.000   4280222.4312  -4034414.8688  -2458255.1448   5  11  30.0000  30.0000  30.0000   0.0000   0.0000   0.0000  -0.00    0.0
2019/02/11 09:00:46.000   4280222.4312  -4034414.8688  -2458255.1448   5  11  30.0000  30.0000  30.0000   0.0000   0.0000   0.0000   1.00    0.0
2019/02/11 09:00:50.000   4280222.4312  -4034414.8688  -2458255.1448   5  11  30.0000  30.0000  30.0000   0.0000   0.0000   0.0000   5.00    0.0
2019/02/11 09:00:51.000   4280222.4312  -4034414.8688  -2458255.1448   5  11  30.0000  30.0000  30.0000   0.0000   0.0000   0.0000   6.00    0.0
2019/02/11 09:00:53.000   4280222.4312  -4034414.8688  -2458255.1448   5  11  30.0000  30.0000  30.0000   0.0000   0.0000   0.0000   8.00    0.0
2019/02/11 09:00:54.000   4280222.4312  -4034414.8688  -2458255.1448   5  11  30.0000  30.0000  30.0000   0.0000   0.0000   0.0000   9.00    0.0
2019/02/11 09:00:55.000   4280222.4312  -4034414.8688  -2458255.1448   5  11  30.0000  30.0000  30.0000   0.0000   0.0000   0.0000  10.00    0.0
2019/02/11 09:00:56.000   4280222.4312  -4034414.8688  -2458255.1448   5  12  30.0000  30.0000  30.0000   0.0000   0.0000   0.0000  11.00    0.0
2019/02/11 09:00:58.000   4280222.4312  -4034414.8688  -2458255.1448   5  11  30.0000  30.0000  30.0000   0.0000   0.0000   0.0000  13.00    0.0
2019/02/11 09:00:59.000   4280222.4312  -4034414.8688  -2458255.1448   5  11  30.0000  30.0000  30.0000   0.0000   0.0000   0.0000  14.00    0.0
2019/02/11 09:01:06.000   4280222.4312  -4034414.8688  -2458255.1448   5  11  30.0000  30.0000  30.0000   0.0000   0.0000   0.0000   6.00    0.0
2019/02/11 09:01:08.000   4280222.4312  -4034414.8688  -2458255.1448   5  11  30.0000  30.0000  30.0000   0.0000   0.0000   0.0000   8.00    0.0
2019/02/11 09:01:10.000   4280222.4312  -4034414.8688  -2458255.1448   5  11  30.0000  30.0000  30.0000   0.0000   0.0000   0.0000  10.00    0.0
2019/02/11 09:01:12.000   4280222.4312  -4034414.8688  -2458255.1448   5  11  30.0000  30.0000  30.0000   0.0000   0.0000   0.0000  12.00    0.0
2019/02/11 09:01:13.000   4280222.4312  -4034414.8688  -2458255.1448   5  11  30.0000  30.0000  30.0000   0.0000   0.0000   0.0000  13.00    0.0
2019/02/11 09:01:14.000   4280222.4312  -4034414.8688  -2458255.1448   5  11  30.0000  30.0000  30.0000   0.0000   0.0000   0.0000  14.00    0.0
2019/02/11 09:01:16.000   4280222.4312  -4034414.8688  -2458255.1448   5  11  30.0000  30.0000  30.0000   0.0000   0.0000   0.0000   1.00    0.0
2019/02/11 09:01:17.000   4280222.4312  -4034414.8688  -2458255.1448   5  11  30.0000  30.0000  30.0000   0.0000   0.0000   0.0000   2.00    0.0
2019/02/11 09:01:22.000   4280222.4312  -4034414.8688  -2458255.1448   5  11  30.0000  30.0000  30.0000   0.0000   0.0000   0.0000   7.00    0.0
2019/02/11 09:01:24.000   4280222.4312  -4034414.8688  -2458255.1448   5  11  30.0000  30.0000  30.0000   0.0000   0.0000   0.0000   9.00    0.0
2019/02/11 09:01:25.000   4280222.4312  -4034414.8688  -2458255.1448   5  11  30.0000  30.0000  30.0000   0.0000   0.0000   0.0000  10.00    0.0
2019/02/11 09:01:28.000   4280222.4312  -4034414.8688  -2458255.1448   5  11  30.0000  30.0000  30.0000   0.0000   0.0000   0.0000  13.00    0.0
2019/02/11 09:01:31.000   4280222.4312  -4034414.8688  -2458255.1448   5  11  30.0000  30.0000  30.0000   0.0000   0.0000   0.0000   1.00    0.0
2019/02/11 09:01:50.000   4280222.4312  -4034414.8688  -2458255.1448   5  11  30.0000  30.0000  30.0000   0.0000   0.0000   0.0000   5.00    0.0
2019/02/11 09:01:52.000   4280222.4312  -4034414.8688  -2458255.1448   5  11  30.0000  30.0000  30.0000   0.0000   0.0000   0.0000   7.00    0.0
2019/02/11 09:01:53.000   4280222.4312  -4034414.8688  -2458255.1448   5  11  30.0000  30.0000  30.0000   0.0000   0.0000   0.0000   8.00    0.0
2019/02/11 09:01:55.000   4280222.4312  -4034414.8688  -2458255.1448   5  11  30.0000  30.0000  30.0000   0.0000   0.0000   0.0000  10.00    0.0
2019/02/11 09:02:05.000   4280222.4312  -4034414.8688  -2458255.1448   5  12  30.0000  30.0000  30.0000   0.0000   0.0000   0.0000   5.00    0.0
2019/02/11 09:02:10.000   4280222.4312  -4034414.8688  -2458255.1448   5  12  30.0000  30.0000  30.0000   0.0000   0.0000   0.0000  10.00    0.0
2019/02/11 09:02:19.000   4280222.4312  -4034414.8688  -2458255.1448   5  12  30.0000  30.0000  30.0000   0.0000   0.0000   0.0000   4.00    0.0
2019/02/11 09:02:25.000   4280222.4312  -4034414.8688  -2458255.1448   5  12  30.0000  30.0000  30.0000   0.0000   0.0000   0.0000  10.00    0.0
2019/02/11 09:02:31.000   4280222.4312  -4034414.8688  -2458255.1448   5  12  30.0000  30.0000  30.0000   0.0000   0.0000   0.0000   1.00    0.0
2019/02/11 09:02:41.000   4280222.4312  -4034414.8688  -2458255.1448   5  11  30.0000  30.0000  30.0000   0.0000   0.0000   0.0000  11.00    0.0
2019/02/11 09:02:47.000   4280222.4312  -4034414.8688  -2458255.1448   5  12  30.0000  30.0000  30.0000   0.0000   0.0000   0.0000   2.00    0.0
2019/02/11 09:02:54.000   4280222.4312  -4034414.8688  -2458255.1448   5  12  30.0000  30.0000  30.0000   0.0000   0.0000   0.0000   9.00    0.0
2019/02/11 09:02:57.000   4280222.4312  -4034414.8688  -2458255.1448   5  12  30.0000  30.0000  30.0000   0.0000   0.0000   0.0000  12.00    0.0
2019/02/11 09:03:06.000   4280222.4312  -4034414.8688  -2458255.1448   5  12  30.0000  30.0000  30.0000   0.0000   0.0000   0.0000   6.00    0.0
2019/02/11 09:03:09.000   4280222.4312  -4034414.8688  -2458255.1448   5  12  30.0000  30.0000  30.0000   0.0000   0.0000   0.0000   9.00    0.0
2019/02/11 09:03:38.000   4280222.4312  -4034414.8688  -2458255.1448   5  12  30.0000  30.0000  30.0000   0.0000   0.0000   0.0000   8.00    0.0
2019/02/11 09:03:40.000   4280222.4312  -4034414.8688  -2458255.1448   5  12  30.0000  30.0000  30.0000   0.0000   0.0000   0.0000  10.00    0.0
2019/02/11 09:03:46.000   4280222.4312  -4034414.8688  -2458255.1448   5  12  30.0000  30.0000  30.0000   0.0000   0.0000   0.0000   1.00    0.0
2019/02/11 09:03:52.000   4280222.4312  -4034414.8688  -2458255.1448   5  12  30.0000  30.0000  30.0000   0.0000   0.0000   0.0000   7.00    0.0
2019/02/11 09:03:53.000   4280222.4312  -4034414.8688  -2458255.1448   5  12  30.0000  30.0000  30.0000   0.0000   0.0000   0.0000   8.00    0.0
2019/02/11 09:03:56.000   4280222.4312  -4034414.8688  -2458255.1448   5  12  30.0000  30.0000  30.0000   0.0000   0.0000   0.0000  11.00    0.0
2019/02/11 09:03:59.000   4280222.4312  -4034414.8688  -2458255.1448   5  12  30.0000  30.0000  30.0000   0.0000   0.0000   0.0000  14.00    0.0
2019/02/11 09:04:04.000   4280222.4312  -4034414.8688  -2458255.1448   5  12  30.0000  30.0000  30.0000   0.0000   0.0000   0.0000   4.00    0.0
2019/02/11 09:04:08.000   4280222.4312  -4034414.8688  -2458255.1448   5  11  30.0000  30.0000  30.0000   0.0000   0.0000   0.0000   8.00    0.0
2019/02/11 09:04:09.000   4280222.4312  -4034414.8688  -2458255.1448   5  11  30.0000  30.0000  30.0000   0.0000   0.0000   0.0000   9.00    0.0
2019/02/11 09:04:10.000   4280222.4312  -4034414.8688  -2458255.1448   5  11  30.0000  30.0000  30.0000   0.0000   0.0000   0.0000  10.00    0.0
2019/02/11 09:04:19.000   4280222.4312  -4034414.8688  -2458255.1448   5  12  30.0000  30.0000  30.0000   0.0000   0.0000   0.0000   4.00    0.0
2019/02/11 09:04:22.000   4280222.4312  -4034414.8688  -2458255.1448   5  12  30.0000  30.0000  30.0000   0.0000   0.0000   0.0000   7.00    0.0
2019/02/11 09:04:23.000   4280222.4312  -4034414.8688  -2458255.1448   5  12  30.0000  30.0000  30.0000   0.0000   0.0000   0.0000   8.00    0.0
2019/02/11 09:04:29.000   4280222.4312  -4034414.8688  -2458255.1448   5  12  30.0000  30.0000  30.0000   0.0000   0.0000   0.0000  14.00    0.0
2019/02/11 09:04:36.000   4280222.4312  -4034414.8688  -2458255.1448   5  12  30.0000  30.0000  30.0000   0.0000   0.0000   0.0000   6.00    0.0
2019/02/11 09:04:39.000   4280222.4312  -4034414.8688  -2458255.1448   5  12  30.0000  30.0000  30.0000   0.0000   0.0000   0.0000   9.00    0.0
2019/02/11 09:04:50.000   4280222.4312  -4034414.8688  -2458255.1448   5  12  30.0000  30.0000  30.0000   0.0000   0.0000   0.0000   5.00    0.0
2019/02/11 09:05:00.000   4280222.4312  -4034414.8688  -2458255.1448   5  12  30.0000  30.0000  30.0000   0.0000   0.0000   0.0000  -0.00    0.0
2019/02/11 09:05:10.000   4280222.4312  -4034414.8688  -2458255.1448   5  12  30.0000  30.0000  30.0000   0.0000   0.0000   0.0000  10.00    0.0
2019/02/11 09:05:16.000   4280222.4312  -4034414.8688  -2458255.1448   5  12  30.0000  30.0000  30.0000   0.0000   0.0000   0.0000   1.00    0.0
2019/02/11 09:05:44.000   4280222.4312  -4034414.8688  -2458255.1448   5  12  30.0000  30.0000  30.0000   0.0000   0.0000   0.0000  14.00    0.0
2019/02/11 09:05:46.000   4280222.4312  -4034414.8688  -2458255.1448   5  12  30.0000  30.0000  30.0000   0.0000   0.0000   0.0000   1.00    0.0
2019/02/11 09:05:53.000   4280222.4312  -4034414.8688  -2458255.1448   5  12  30.0000  30.0000  30.0000   0.0000   0.0000   0.0000   8.00    0.0
2019/02/11 09:06:06.000   4280222.4312  -4034414.8688  -2458255.1448   5  12  30.0000  30.0000  30.0000   0.0000   0.0000   0.0000   6.00    0.0
2019/02/11 09:06:12.000   4280222.4312  -4034414.8688  -2458255.1448   5  12  30.0000  30.0000  30.0000   0.0000   0.0000   0.0000  12.00    0.0
2019/02/11 09:06:18.000   4280222.4312  -4034414.8688  -2458255.1448   5  12  30.0000  30.0000  30.0000   0.0000   0.0000   0.0000   3.00    0.0
2019/02/11 09:06:20.000   4280222.4312  -4034414.8688  -2458255.1448   5  12  30.0000  30.0000  30.0000   0.0000   0.0000   0.0000   5.00    0.0
2019/02/11 09:06:21.000   4280222.4312  -4034414.8688  -2458255.1448   5  12  30.0000  30.0000  30.0000   0.0000   0.0000   0.0000   6.00    0.0
2019/02/11 09:06:42.000   4280222.4312  -4034414.8688  -2458255.1448   5  11  30.0000  30.0000  30.0000   0.0000   0.0000   0.0000  12.00    0.0
2019/02/11 09:06:43.000   4280222.4312  -4034414.8688  -2458255.1448   5  11  30.0000  30.0000  30.0000   0.0000   0.0000   0.0000  13.00    0.0
2019/02/11 09:06:44.000   4280222.4312  -4034414.8688  -2458255.1448   5  11  30.0000  30.0000  30.0000   0.0000   0.0000   0.0000  14.00    0.0
2019/02/11 09:06:50.000   4280222.4312  -4034414.8688  -2458255.1448   5  11  30.0000  30.0000  30.0000   0.0000   0.0000   0.0000   5.00    0.0
2019/02/11 09:06:52.000   4280222.4312  -4034414.8688  -2458255.1448   5  11  30.0000  30.0000  30.0000   0.0000   0.0000   0.0000   7.00    0.0
2019/02/11 09:06:55.000   4280222.4312  -4034414.8688  -2458255.1448   5  12  30.0000  30.0000  30.0000   0.0000   0.0000   0.0000  10.00    0.0
2019/02/11 09:06:57.000   4280222.4312  -4034414.8688  -2458255.1448   5  11  30.0000  30.0000  30.0000   0.0000   0.0000   0.0000  12.00    0.0
2019/02/11 09:06:58.000   4280222.4312  -4034414.8688  -2458255.1448   5  11  30.0000  30.0000  30.0000   0.0000   0.0000   0.0000  13.00    0.0
2019/02/11 09:07:01.000   4280222.4312  -4034414.8688  -2458255.1448   5  11  30.0000  30.0000  30.0000   0.0000   0.0000   0.0000   1.00    0.0
2019/02/11 09:07:04.000   4280222.4312  -4034414.8688  -2458255.1448   5  11  30.0000  30.0000  30.0000   0.0000   0.0000   0.0000   4.00    0.0
2019/02/11 09:07:08.000   4280222.4312  -4034414.8688  -2458255.1448   5  11  30.0000  30.0000  30.0000   0.0000   0.0000   0.0000   8.00    0.0
2019/02/11 09:07:16.000   4280222.4312  -4034414.8688  -2458255.1448   5  11  30.0000  30.0000  30.0000   0.0000   0.0000   0.0000   1.00    0.0
2019/02/11 09:07:17.000   4280222.4312  -4034414.8688  -2458255.1448   5  11  30.0000  30.0000  30.0000   0.0000   0.0000   0.0000   2.00    0.0
2019/02/11 09:07:22.000   4280222.4312  -4034414.8688  -2458255.1448   5  12  30.0000  30.0000  30.0000   0.0000   0.0000   0.0000   7.00    0.0
2019/02/11 09:07:28.000   4280222.4312  -4034414.8688  -2458255.1448   5  12  30.0000  30.0000  30.0000   0.0000   0.0000   0.0000  13.00    0.0
2019/02/11 09:07:29.000   4280222.4312  -4034414.8688  -2458255.1448   5  12  30.0000  30.0000  30.0000   0.0000   0.0000   0.0000  14.00    0.0
2019/02/11 09:07:31.000   4280222.4312  -4034414.8688  -2458255.1448   5  12  30.0000  30.0000  30.0000   0.0000   0.0000   0.0000   1.00    0.0
2019/02/11 09:08:00.000   4280222.4312  -4034414.8688  -2458255.1448   5  11  30.0000  30.0000  30.0000   0.0000   0.0000   0.0000  -0.00    0.0
2019/02/11 09:08:06.000   4280222.4312  -4034414.8688  -2458255.1448   5  11  30.0000  30.0000  30.0000   0.0000   0.0000   0.0000   6.00    0.0
2019/02/11 09:08:10.000   4280222.4312  -4034414.8688  -2458255.1448   5  11  30.0000  30.0000  30.0000   0.0000   0.0000   0.0000  10.00    0.0
2019/02/11 09:08:11.000   4280222.4312  -4034414.8688  -2458255.1448   5  11  30.0000  30.0000  30.0000   0.0000   0.0000   0.0000  11.00    0.0
2019/02/11 09:08:13.000   4280222.4312  -4034414.8688  -2458255.1448   5  11  30.0000  30.0000  30.0000   0.0000   0.0000   0.0000  13.00    0.0
2019/02/11 09:08:14.000   4280222.4312  -4034414.8688  -2458255.1448   5  11  30.0000  30.0000  30.0000   0.0000   0.0000   0.0000  14.00    0.0
2019/02/11 09:08:15.000   4280222.4312  -4034414.8688  -2458255.1448   5  12  30.0000  30.0000  30.0000   0.0000   0.0000   0.0000  -0.00    0.0
2019/02/11 09:08:27.000   4280222.4312  -4034414.8688  -2458255.1448   5  11  30.0000  30.0000  30.0000   0.0000   0.0000   0.0000  12.00    0.0
2019/02/11 09:08:42.000   4280222.4312  -4034414.8688  -2458255.1448   5  12  30.0000  30.0000  30.0000   0.0000   0.0000   0.0000  12.00    0.0
2019/02/11 09:08:43.000   4280222.4312  -4034414.8688  -2458255.1448   5  12  30.0000  30.0000  30.0000   0.0000   0.0000   0.0000  13.00    0.0
2019/02/11 09:09:29.000   4280222.4312  -4034414.8688  -2458255.1448   5  12  30.0000  30.0000  30.0000   0.0000   0.0000   0.0000  14.00    0.0
2019/02/11 09:09:31.000   4280222.4312  -4034414.8688  -2458255.1448   5  12  30.0000  30.0000  30.0000   0.0000   0.0000   0.0000   1.00    0.0
2019/02/11 09:09:32.000   4280222.4312  -4034414.8688  -2458255.1448   5  12  30.0000  30.0000  30.0000   0.0000   0.0000   0.0000   2.00    0.0
2019/02/11 09:09:33.000   4280222.4312  -4034414.8688  -2458255.1448   5  12  30.0000  30.0000  30.0000   0.0000   0.0000   0.0000   3.00    0.0
2019/02/11 09:09:35.000   4280222.4312  -4034414.8688  -2458255.1448   5  12  30.0000  30.0000  30.0000   0.0000   0.0000   0.0000   5.00    0.0
2019/02/11 09:09:51.000   4280222.4312  -4034414.8688  -2458255.1448   5  11  30.0000  30.0000  30.0000   0.0000   0.0000   0.0000   6.00    0.0
2019/02/11 09:09:55.000   4280222.4312  -4034414.8688  -2458255.1448   5  11  30.0000  30.0000  30.0000   0.0000   0.0000   0.0000  10.00    0.0
2019/02/11 09:09:56.000   4280222.4312  -4034414.8688  -2458255.1448   5  11  30.0000  30.0000  30.0000   0.0000   0.0000   0.0000  11.00    0.0
2019/02/11 09:09:57.000   4280222.4312  -4034414.8688  -2458255.1448   5  12  30.0000  30.0000  30.0000   0.0000   0.0000   0.0000  12.00    0.0
2019/02/11 09:09:59.000   4280222.4312  -4034414.8688  -2458255.1448   5  11  30.0000  30.0000  30.0000   0.0000   0.0000   0.0000  14.00    0.0
2019/02/11 09:10:11.000   4280222.4312  -4034414.8688  -2458255.1448   5  12  30.0000  30.0000  30.0000   0.0000   0.0000   0.0000  11.00    0.0
2019/02/11 09:10:13.000   4280222.4312  -4034414.8688  -2458255.1448   5  12  30.0000  30.0000  30.0000   0.0000   0.0000   0.0000  13.00    0.0
2019/02/11 09:10:14.000   4280222.4312  -4034414.8688  -2458255.1448   5  12  30.0000  30.0000  30.0000   0.0000   0.0000   0.0000  14.00    0.0
2019/02/11 09:10:24.000   4280222.4312  -4034414.8688  -2458255.1448   5  12  30.0000  30.0000  30.0000   0.0000   0.0000   0.0000   9.00    0.0
2019/02/11 09:10:25.000   4280222.4312  -4034414.8688  -2458255.1448   5  12  30.0000  30.0000  30.0000   0.0000   0.0000   0.0000  10.00    0.0
2019/02/11 09:10:26.000   4280222.4312  -4034414.8688  -2458255.1448   5  12  30.0000  30.0000  30.0000   0.0000   0.0000   0.0000  11.00    0.0
2019/02/11 09:10:27.000   4280222.4312  -4034414.8688  -2458255.1448   5  12  30.0000  30.0000  30.0000   0.0000   0.0000   0.0000  12.00    0.0
2019/02/11 09:10:28.000   4280222.4312  -4034414.8688  -2458255.1448   5  12  30.0000  30.0000  30.0000   0.0000   0.0000   0.0000  13.00    0.0
2019/02/11 09:10:33.000   4280222.4312  -4034414.8688  -2458255.1448   5  11  30.0000  30.0000  30.0000   0.0000   0.0000   0.0000   3.00    0.0
2019/02/11 09:10:35.000   4280222.4312  -4034414.8688  -2458255.1448   5  11  30.0000  30.0000  30.0000   0.0000   0.0000   0.0000   5.00    0.0
2019/02/11 09:10:39.000   4280222.4312  -4034414.8688  -2458255.1448   5  12  30.0000  30.0000  30.0000   0.0000   0.0000   0.0000   9.00    0.0
2019/02/11 09:10:40.000   4280222.4312  -4034414.8688  -2458255.1448   5  12  30.0000  30.0000  30.0000   0.0000   0.0000   0.0000  10.00    0.0
2019/02/11 09:11:11.000   4280222.4312  -4034414.8688  -2458255.1448   5  12  30.0000  30.0000  30.0000   0.0000   0.0000   0.0000  11.00    0.0
2019/02/11 09:11:16.000   4280222.4312  -4034414.8688  -2458255.1448   5  11  30.0000  30.0000  30.0000   0.0000   0.0000   0.0000   1.00    0.0
2019/02/11 09:11:21.000   4280222.4312  -4034414.8688  -2458255.1448   5  12  30.0000  30.0000  30.0000   0.0000   0.0000   0.0000   6.00    0.0
2019/02/11 09:11:24.000   4280222.4312  -4034414.8688  -2458255.1448   5  12  30.0000  30.0000  30.0000   0.0000   0.0000   0.0000   9.00    0.0
2019/02/11 09:11:28.000   4280222.4312  -4034414.8688  -2458255.1448   5  12  30.0000  30.0000  30.0000   0.0000   0.0000   0.0000  13.00    0.0
2019/02/11 09:11:40.000   4280222.4312  -4034414.8688  -2458255.1448   5  12  30.0000  30.0000  30.0000   0.0000   0.0000   0.0000  10.00    0.0
2019/02/11 09:11:44.000   4280222.4312  -4034414.8688  -2458255.1448   5  12  30.0000  30.0000  30.0000   0.0000   0.0000   0.0000  14.00    0.0
2019/02/11 09:11:45.000   4280222.4312  -4034414.8688  -2458255.1448   5  12  30.0000  30.0000  30.0000   0.0000   0.0000   0.0000  -0.00    0.0
2019/02/11 09:11:50.000   4280222.4312  -4034414.8688  -2458255.1448   5  11  30.0000  30.0000  30.0000   0.0000   0.0000   0.0000   5.00    0.0
2019/02/11 09:11:52.000   4280222.4312  -4034414.8688  -2458255.1448   5  12  30.0000  30.0000  30.0000   0.0000   0.0000   0.0000   7.00    0.0
2019/02/11 09:11:53.000   4280222.4312  -4034414.8688  -2458255.1448   5  12  30.0000  30.0000  30.0000   0.0000   0.0000   0.0000   8.00    0.0
2019/02/11 09:11:54.000   4280222.4312  -4034414.8688  -2458255.1448   5  11  30.0000  30.0000  30.0000   0.0000   0.0000   0.0000   9.00    0.0
2019/02/11 09:11:56.000   4280222.4312  -4034414.8688  -2458255.1448   5  11  30.0000  30.0000  30.0000   0.0000   0.0000   0.0000  11.00    0.0
2019/02/11 09:11:57.000   4280222.4312  -4034414.8688  -2458255.1448   5  11  30.0000  30.0000  30.0000   0.0000   0.0000   0.0000  12.00    0.0
2019/02/11 09:11:58.000   4280222.4312  -4034414.8688  -2458255.1448   5  11  30.0000  30.0000  30.0000   0.0000   0.0000   0.0000  13.00    0.0
2019/02/11 09:12:00.000   4280222.4312  -4034414.8688  -2458255.1448   5  12  30.0000  30.0000  30.0000   0.0000   0.0000   0.0000  -0.00    0.0
2019/02/11 09:12:29.000   4280222.4312  -4034414.8688  -2458255.1448   5  12  30.0000  30.0000  30.0000   0.0000   0.0000   0.0000  14.00    0.0
2019/02/11 09:12:54.000   4280222.4312  -4034414.8688  -2458255.1448   5  12  30.0000  30.0000  30.0000   0.0000   0.0000   0.0000   9.00    0.0
2019/02/11 09:12:59.000   4280222.4312  -4034414.8688  -2458255.1448   5  12  30.0000  30.0000  30.0000   0.0000   0.0000   0.0000  14.00    0.0
2019/02/11 09:13:04.000   4280222.4312  -4034414.8688  -2458255.1448   5  11  30.0000  30.0000  30.0000   0.0000   0.0000   0.0000   4.00    0.0
2019/02/11 09:13:05.000   4280222.4312  -4034414.8688  -2458255.1448   5  11  30.0000  30.0000  30.0000   0.0000   0.0000   0.0000   5.00    0.0
2019/02/11 09:13:08.000   4280222.4312  -4034414.8688  -2458255.1448   5  11  30.0000  30.0000  30.0000   0.0000   0.0000   0.0000   8.00    0.0
2019/02/11 09:13:12.000   4280222.4312  -4034414.8688  -2458255.1448   5  12  30.0000  30.0000  30.0000   0.0000   0.0000   0.0000  12.00    0.0
2019/02/11 09:13:13.000   4280222.4312  -4034414.8688  -2458255.1448   5  12  30.0000  30.0000  30.0000   0.0000   0.0000   0.0000  13.00    0.0
2019/02/11 09:13:32.000   4280222.4312  -4034414.8688  -2458255.1448   5  12  30.0000  30.0000  30.0000   0.0000   0.0000   0.0000   2.00    0.0
2019/02/11 09:13:34.000   4280222.4312  -4034414.8688  -2458255.1448   5  12  30.0000  30.0000  30.0000   0.0000   0.0000   0.0000   4.00    0.0
2019/02/11 09:13:35.000   4280222.4312  -4034414.8688  -2458255.1448   5  12  30.0000  30.0000  30.0000   0.0000   0.0000   0.0000   5.00    0.0
2019/02/11 09:13:38.000   4280222.4312  -4034414.8688  -2458255.1448   5  12  30.0000  30.0000  30.0000   0.0000   0.0000   0.0000   8.00    0.0
2019/02/11 09:14:03.000   4280222.4312  -4034414.8688  -2458255.1448   5  12  30.0000  30.0000  30.0000   0.0000   0.0000   0.0000   3.00    0.0
2019/02/11 09:14:06.000   4280222.4312  -4034414.8688  -2458255.1448   5  12  30.0000  30.0000  30.0000   0.0000   0.0000   0.0000   6.00    0.0
2019/02/11 09:14:12.000   4280222.4312  -4034414.8688  -2458255.1448   5  12  30.0000  30.0000  30.0000   0.0000   0.0000   0.0000  12.00    0.0
2019/02/11 09:14:20.000   4280222.4312  -4034414.8688  -2458255.1448   5  12  30.0000  30.0000  30.0000   0.0000   0.0000   0.0000   5.00    0.0
2019/02/11 09:14:21.000   4280222.4312  -4034414.8688  -2458255.1448   5  12  30.0000  30.0000  30.0000   0.0000   0.0000   0.0000   6.00    0.0
2019/02/11 09:14:31.000   4280222.4312  -4034414.8688  -2458255.1448   5  11  30.0000  30.0000  30.0000   0.0000   0.0000   0.0000   1.00    0.0
2019/02/11 09:14:41.000   4280222.4312  -4034414.8688  -2458255.1448   5  12  30.0000  30.0000  30.0000   0.0000   0.0000   0.0000  11.00    0.0
2019/02/11 09:14:51.000   4280222.4312  -4034414.8688  -2458255.1448   5  12  30.0000  30.0000  30.0000   0.0000   0.0000   0.0000   6.00    0.0
2019/02/11 09:15:21.000   4280222.4312  -4034414.8688  -2458255.1448   5  12  30.0000  30.0000  30.0000   0.0000   0.0000   0.0000   6.00    0.0
2019/02/11 09:15:22.000   4280222.4312  -4034414.8688  -2458255.1448   5  12  30.0000  30.0000  30.0000   0.0000   0.0000   0.0000   7.00    0.0
2019/02/11 09:15:25.000   4280222.4312  -4034414.8688  -2458255.1448   5  12  30.0000  30.0000  30.0000   0.0000   0.0000   0.0000  10.00    0.0
2019/02/11 09:15:28.000   4280222.4312  -4034414.8688  -2458255.1448   5  12  30.0000  30.0000  30.0000   0.0000   0.0000   0.0000  13.00    0.0
2019/02/11 09:15:30.000   4280222.4312  -4034414.8688  -2458255.1448   5  12  30.0000  30.0000  30.0000   0.0000   0.0000   0.0000  -0.00    0.0
2019/02/11 09:15:38.000   4280222.4312  -4034414.8688  -2458255.1448   5  12  30.0000  30.0000  30.0000   0.0000   0.0000   0.0000   8.00    0.0
2019/02/11 09:15:39.000   4280222.4312  -4034414.8688  -2458255.1448   5  12  30.0000  30.0000  30.0000   0.0000   0.0000   0.0000   9.00    0.0
2019/02/11 09:15:41.000   4280222.4312  -4034414.8688  -2458255.1448   5  12  30.0000  30.0000  30.0000   0.0000   0.0000   0.0000  11.00    0.0
2019/02/11 09:15:46.000   4280222.4312  -4034414.8688  -2458255.1448   5  12  30.0000  30.0000  30.0000   0.0000   0.0000   0.0000   1.00    0.0
2019/02/11 09:15:54.000   4280222.4312  -4034414.8688  -2458255.1448   5  12  30.0000  30.0000  30.0000   0.0000   0.0000   0.0000   9.00    0.0
2019/02/11 09:16:05.000   4280222.4312  -4034414.8688  -2458255.1448   5  12  30.0000  30.0000  30.0000   0.0000   0.0000   0.0000   5.00    0.0
2019/02/11 09:16:13.000   4280222.4312  -4034414.8688  -2458255.1448   5  12  30.0000  30.0000  30.0000   0.0000   0.0000   0.0000  13.00    0.0
2019/02/11 09:16:26.000   4280222.4312  -4034414.8688  -2458255.1448   5  12  30.0000  30.0000  30.0000   0.0000   0.0000   0.0000  11.00    0.0
2019/02/11 09:16:29.000   4280222.4312  -4034414.8688  -2458255.1448   5  12  30.0000  30.0000  30.0000   0.0000   0.0000   0.0000  14.00    0.0
2019/02/11 09:16:32.000   4280222.4312  -4034414.8688  -2458255.1448   5  12  30.0000  30.0000  30.0000   0.0000   0.0000   0.0000   2.00    0.0
2019/02/11 09:16:33.000   4280222.4312  -4034414.8688  -2458255.1448   5  12  30.0000  30.0000  30.0000   0.0000   0.0000   0.0000   3.00    0.0
2019/02/11 09:16:46.000   4280222.4312  -4034414.8688  -2458255.1448   5  12  30.0000  30.0000  30.0000   0.0000   0.0000   0.0000   1.00    0.0
2019/02/11 09:16:47.000   4280222.4312  -4034414.8688  -2458255.1448   5  12  30.0000  30.0000  30.0000   0.0000   0.0000   0.0000   2.00    0.0
2019/02/11 09:17:08.000   4280222.4312  -4034414.8688  -2458255.1448   5  12  30.0000  30.0000  30.0000   0.0000   0.0000   0.0000   8.00    0.0
2019/02/11 09:17:12.000   4280222.4312  -4034414.8688  -2458255.1448   5  12  30.0000  30.0000  30.0000   0.0000   0.0000   0.0000  12.00    0.0
2019/02/11 09:17:14.000   4280222.4312  -4034414.8688  -2458255.1448   5  12  30.0000  30.0000  30.0000   0.0000   0.0000   0.0000  14.00    0.0
2019/02/11 09:17:27.000   4280222.4312  -4034414.8688  -2458255.1448   5  12  30.0000  30.0000  30.0000   0.0000   0.0000   0.0000  12.00    0.0
2019/02/11 09:17:28.000   4280222.4312  -4034414.8688  -2458255.1448   5  12  30.0000  30.0000  30.0000   0.0000   0.0000   0.0000  13.00    0.0
2019/02/11 09:17:38.000   4280222.4312  -4034414.8688  -2458255.1448   5  12  30.0000  30.0000  30.0000   0.0000   0.0000   0.0000   8.00    0.0
2019/02/11 09:17:40.000   4280222.4312  -4034414.8688  -2458255.1448   5  12  30.0000  30.0000  30.0000   0.0000   0.0000   0.0000  10.00    0.0
2019/02/11 09:17:41.000   4280222.4312  -4034414.8688  -2458255.1448   5  12  30.0000  30.0000  30.0000   0.0000   0.0000   0.0000  11.00    0.0
2019/02/11 09:17:44.000   4280222.4312  -4034414.8688  -2458255.1448   5  12  30.0000  30.0000  30.0000   0.0000   0.0000   0.0000  14.00    0.0
2019/02/11 09:17:47.000   4280222.4312  -4034414.8688  -2458255.1448   5  12  30.0000  30.0000  30.0000   0.0000   0.0000   0.0000   2.00    0.0
2019/02/11 09:18:03.000   4280222.4312  -4034414.8688  -2458255.1448   5  12  30.0000  30.0000  30.0000   0.0000   0.0000   0.0000   3.00    0.0
2019/02/11 09:18:05.000   4280222.4312  -4034414.8688  -2458255.1448   5  12  30.0000  30.0000  30.0000   0.0000   0.0000   0.0000   5.00    0.0
2019/02/11 09:18:14.000   4280222.4312  -4034414.8688  -2458255.1448   5  12  30.0000  30.0000  30.0000   0.0000   0.0000   0.0000  14.00    0.0
2019/02/11 09:18:15.000   4280222.4312  -4034414.8688  -2458255.1448   5  12  30.0000  30.0000  30.0000   0.0000   0.0000   0.0000  -0.00    0.0
2019/02/11 09:18:17.000   4280222.4312  -4034414.8688  -2458255.1448   5  12  30.0000  30.0000  30.0000   0.0000   0.0000   0.0000   2.00    0.0
2019/02/11 09:18:22.000   4280222.4312  -4034414.8688  -2458255.1448   5  12  30.0000  30.0000  30.0000   0.0000   0.0000   0.0000   7.00    0.0
2019/02/11 09:18:29.000   4280222.4312  -4034414.8688  -2458255.1448   5  12  30.0000  30.0000  30.0000   0.0000   0.0000   0.0000  14.00    0.0
2019/02/11 09:18:32.000   4280222.4312  -4034414.8688  -2458255.1448   5  12  30.0000  30.0000  30.0000   0.0000   0.0000   0.0000   2.00    0.0
2019/02/11 09:18:34.000   4280222.4312  -4034414.8688  -2458255.1448   5  11  30.0000  30.0000  30.0000   0.0000   0.0000   0.0000   4.00    0.0
2019/02/11 09:18:41.000   4280222.4312  -4034414.8688  -2458255.1448   5  11  30.0000  30.0000  30.0000   0.0000   0.0000   0.0000  11.00    0.0
2019/02/11 09:18:42.000   4280222.4312  -4034414.8688  -2458255.1448   5  11  30.0000  30.0000  30.0000   0.0000   0.0000   0.0000  12.00    0.0
2019/02/11 09:18:49.000   4280222.4312  -4034414.8688  -2458255.1448   5  11  30.0000  30.0000  30.0000   0.0000   0.0000   0.0000   4.00    0.0
2019/02/11 09:18:53.000   4280222.4312  -4034414.8688  -2458255.1448   5  11  30.0000  30.0000  30.0000   0.0000   0.0000   0.0000   8.00    0.0
2019/02/11 09:19:01.000   4280222.4312  -4034414.8688  -2458255.1448   5  12  30.0000  30.0000  30.0000   0.0000   0.0000   0.0000   1.00    0.0
2019/02/11 09:19:08.000   4280222.4312  -4034414.8688  -2458255.1448   5  12  30.0000  30.0000  30.0000   0.0000   0.0000   0.0000   8.00    0.0
2019/02/11 09:19:12.000   4280222.4312  -4034414.8688  -2458255.1448   5  12  30.0000  30.0000  30.0000   0.0000   0.0000   0.0000  12.00    0.0
2019/02/11 09:19:18.000   4280222.4312  -4034414.8688  -2458255.1448   5  11  30.0000  30.0000  30.0000   0.0000   0.0000   0.0000   3.00    0.0
2019/02/11 09:19:19.000   4280222.4312  -4034414.8688  -2458255.1448   5  11  30.0000  30.0000  30.0000   0.0000   0.0000   0.0000   4.00    0.0
2019/02/11 09:19:20.000   4280222.4312  -4034414.8688  -2458255.1448   5  11  30.0000  30.0000  30.0000   0.0000   0.0000   0.0000   5.00    0.0
2019/02/11 09:19:24.000   4280222.4312  -4034414.8688  -2458255.1448   5  11  30.0000  30.0000  30.0000   0.0000   0.0000   0.0000   9.00    0.0
2019/02/11 09:19:32.000   4280222.4312  -4034414.8688  -2458255.1448   5  11  30.0000  30.0000  30.0000   0.0000   0.0000   0.0000   2.00    0.0
2019/02/11 09:19:40.000   4280222.4312  -4034414.8688  -2458255.1448   5  11  30.0000  30.0000  30.0000   0.0000   0.0000   0.0000  10.00    0.0
2019/02/11 09:19:41.000   4280222.4312  -4034414.8688  -2458255.1448   5  11  30.0000  30.0000  30.0000   0.0000   0.0000   0.0000  11.00    0.0
2019/02/11 09:19:44.000   4280222.4312  -4034414.8688  -2458255.1448   5  11  30.0000  30.0000  30.0000   0.0000   0.0000   0.0000  14.00    0.0
2019/02/11 09:19:46.000   4280222.4312  -4034414.8688  -2458255.1448   5  11  30.0000  30.0000  30.0000   0.0000   0.0000   0.0000   1.00    0.0
2019/02/11 09:19:47.000   4280222.4312  -4034414.8688  -2458255.1448   5  11  30.0000  30.0000  30.0000   0.0000   0.0000   0.0000   2.00    0.0
2019/02/11 09:19:55.000   4280222.4312  -4034414.8688  -2458255.1448   5  11  30.0000  30.0000  30.0000   0.0000   0.0000   0.0000  10.00    0.0
2019/02/11 09:19:56.000   4280222.4312  -4034414.8688  -2458255.1448   5  11  30.0000  30.0000  30.0000   0.0000   0.0000   0.0000  11.00    0.0
2019/02/11 09:20:10.000   4280222.4312  -4034414.8688  -2458255.1448   5  12  30.0000  30.0000  30.0000   0.0000   0.0000   0.0000  10.00    0.0
2019/02/11 09:20:16.000   4280222.4312  -4034414.8688  -2458255.1448   5  12  30.0000  30.0000  30.0000   0.0000   0.0000   0.0000   1.00    0.0
2019/02/11 09:20:26.000   4280222.4312  -4034414.8688  -2458255.1448   5  12  30.0000  30.0000  30.0000   0.0000   0.0000   0.0000  11.00    0.0
2019/02/11 09:20:30.000   4280222.4312  -4034414.8688  -2458255.1448   5  12  30.0000  30.0000  30.0000   0.0000   0.0000   0.0000  -0.00    0.0
2019/02/11 09:20:38.000   4280222.4312  -4034414.8688  -2458255.1448   5  12  30.0000  30.0000  30.0000   0.0000   0.0000   0.0000   8.00    0.0
2019/02/11 09:20:39.000   4280222.4312  -4034414.8688  -2458255.1448   5  12  30.0000  30.0000  30.0000   0.0000   0.0000   0.0000   9.00    0.0
2019/02/11 09:20:50.000   4280222.4312  -4034414.8688  -2458255.1448   5  11  30.0000  30.0000  30.0000   0.0000   0.0000   0.0000   5.00    0.0
2019/02/11 09:20:51.000   4280222.4312  -4034414.8688  -2458255.1448   5  11  30.0000  30.0000  30.0000   0.0000   0.0000   0.0000   6.00    0.0
2019/02/11 09:20:52.000   4280222.4312  -4034414.8688  -2458255.1448   5  11  30.0000  30.0000  30.0000   0.0000   0.0000   0.0000   7.00    0.0
2019/02/11 09:20:54.000   4280222.4312  -4034414.8688  -2458255.1448   5  11  30.0000  30.0000  30.0000   0.0000   0.0000   0.0000   9.00    0.0
2019/02/11 09:20:55.000   4280222.4312  -4034414.8688  -2458255.1448   5  12  30.0000  30.0000  30.0000   0.0000   0.0000   0.0000  10.00    0.0
2019/02/11 09:21:10.000   4280222.4312  -4034414.8688  -2458255.1448   5  12  30.0000  30.0000  30.0000   0.0000   0.0000   0.0000  10.00    0.0
2019/02/11 09:21:38.000   4280222.4312  -4034414.8688  -2458255.1448   5  12  30.0000  30.0000  30.0000   0.0000   0.0000   0.0000   8.00    0.0
2019/02/11 09:21:45.000   4280222.4312  -4034414.8688  -2458255.1448   5  11  30.0000  30.0000  30.0000   0.0000   0.0000   0.0000  -0.00    0.0
2019/02/11 09:21:49.000   4280222.4312  -4034414.8688  -2458255.1448   5  11  30.0000  30.0000  30.0000   0.0000   0.0000   0.0000   4.00    0.0
2019/02/11 09:21:54.000   4280222.4312  -4034414.8688  -2458255.1448   5  11  30.0000  30.0000  30.0000   0.0000   0.0000   0.0000   9.00    0.0
2019/02/11 09:21:55.000   4280222.4312  -4034414.8688  -2458255.1448   5  11  30.0000  30.0000  30.0000   0.0000   0.0000   0.0000  10.00    0.0
2019/02/11 09:22:26.000   4280222.4312  -4034414.8688  -2458255.1448   5  12  30.0000  30.0000  30.0000   0.0000   0.0000   0.0000  11.00    0.0
2019/02/11 09:22:27.000   4280222.4312  -4034414.8688  -2458255.1448   5  12  30.0000  30.0000  30.0000   0.0000   0.0000   0.0000  12.00    0.0
2019/02/11 09:22:39.000   4280222.4312  -4034414.8688  -2458255.1448   5  12  30.0000  30.0000  30.0000   0.0000   0.0000   0.0000   9.00    0.0
2019/02/11 09:22:42.000   4280222.4312  -4034414.8688  -2458255.1448   5  12  30.0000  30.0000  30.0000   0.0000   0.0000   0.0000  12.00    0.0
2019/02/11 09:22:46.000   4280222.4312  -4034414.8688  -2458255.1448   5  12  30.0000  30.0000  30.0000   0.0000   0.0000   0.0000   1.00    0.0
2019/02/11 09:22:52.000   4280222.4312  -4034414.8688  -2458255.1448   5  12  30.0000  30.0000  30.0000   0.0000   0.0000   0.0000   7.00    0.0
2019/02/11 09:22:55.000   4280222.4312  -4034414.8688  -2458255.1448   5  12  30.0000  30.0000  30.0000   0.0000   0.0000   0.0000  10.00    0.0
2019/02/11 09:23:04.000   4280222.4312  -4034414.8688  -2458255.1448   5  11  30.0000  30.0000  30.0000   0.0000   0.0000   0.0000   4.00    0.0
2019/02/11 09:23:10.000   4280222.4312  -4034414.8688  -2458255.1448   5  12  30.0000  30.0000  30.0000   0.0000   0.0000   0.0000  10.00    0.0
2019/02/11 09:23:11.000   4280222.4312  -4034414.8688  -2458255.1448   5  12  30.0000  30.0000  30.0000   0.0000   0.0000   0.0000  11.00    0.0
2019/02/11 09:23:52.000   4280222.4312  -4034414.8688  -2458255.1448   5  12  30.0000  30.0000  30.0000   0.0000   0.0000   0.0000   7.00    0.0
2019/02/11 09:23:56.000   4280222.4312  -4034414.8688  -2458255.1448   5  12  30.0000  30.0000  30.0000   0.0000   0.0000   0.0000  11.00    0.0
2019/02/11 09:23:57.000   4280222.4312  -4034414.8688  -2458255.1448   5  12  30.0000  30.0000  30.0000   0.0000   0.0000   0.0000  12.00    0.0
2019/02/11 09:24:03.000   4280222.4312  -4034414.8688  -2458255.1448   5  12  30.0000  30.0000  30.0000   0.0000   0.0000   0.0000   3.00    0.0
2019/02/11 09:24:04.000   4280222.4312  -4034414.8688  -2458255.1448   5  12  30.0000  30.0000  30.0000   0.0000   0.0000   0.0000   4.00    0.0
2019/02/11 09:24:05.000   4280222.4312  -4034414.8688  -2458255.1448   5  12  30.0000  30.0000  30.0000   0.0000   0.0000   0.0000   5.00    0.0
2019/02/11 09:24:09.000   4280222.4312  -4034414.8688  -2458255.1448   5  12  30.0000  30.0000  30.0000   0.0000   0.0000   0.0000   9.00    0.0
2019/02/11 09:24:13.000   4280222.4312  -4034414.8688  -2458255.1448   5  11  30.0000  30.0000  30.0000   0.0000   0.0000   0.0000  13.00    0.0
2019/02/11 09:24:15.000   4280222.4312  -4034414.8688  -2458255.1448   5  11  30.0000  30.0000  30.0000   0.0000   0.0000   0.0000  -0.00    0.0
2019/02/11 09:24:20.000   4280222.4312  -4034414.8688  -2458255.1448   5  11  30.0000  30.0000  30.0000   0.0000   0.0000   0.0000   5.00    0.0
2019/02/11 09:24:21.000   4280222.4312  -4034414.8688  -2458255.1448   5  11  30.0000  30.0000  30.0000   0.0000   0.0000   0.0000   6.00    0.0
2019/02/11 09:24:23.000   4280222.4312  -4034414.8688  -2458255.1448   5  11  30.0000  30.0000  30.0000   0.0000   0.0000   0.0000   8.00    0.0
2019/02/11 09:24:27.000   4280222.4312  -4034414.8688  -2458255.1448   5  11  30.0000  30.0000  30.0000   0.0000   0.0000   0.0000  12.00    0.0
2019/02/11 09:24:31.000   4280222.4312  -4034414.8688  -2458255.1448   5  11  30.0000  30.0000  30.0000   0.0000   0.0000   0.0000   1.00    0.0
2019/02/11 09:24:32.000   4280222.4312  -4034414.8688  -2458255.1448   5  11  30.0000  30.0000  30.0000   0.0000   0.0000   0.0000   2.00    0.0
2019/02/11 09:24:53.000   4280222.4312  -4034414.8688  -2458255.1448   5  12  30.0000  30.0000  30.0000   0.0000   0.0000   0.0000   8.00    0.0
2019/02/11 09:25:00.000   4280222.4312  -4034414.8688  -2458255.1448   5   9  30.0000  30.0000  30.0000   0.0000   0.0000   0.0000  -0.00    0.0
2019/02/11 09:25:02.000   4280222.4312  -4034414.8688  -2458255.1448   5   9  30.0000  30.0000  30.0000   0.0000   0.0000   0.0000   2.00    0.0
2019/02/11 09:25:09.000   4280222.4312  -4034414.8688  -2458255.1448   5  11  30.0000  30.0000  30.0000   0.0000   0.0000   0.0000   9.00    0.0
2019/02/11 09:25:11.000   4280222.4312  -4034414.8688  -2458255.1448   5  11  30.0000  30.0000  30.0000   0.0000   0.0000   0.0000  11.00    0.0
2019/02/11 09:25:15.000   4280222.4312  -4034414.8688  -2458255.1448   5  12  30.0000  30.0000  30.0000   0.0000   0.0000   0.0000  -0.00    0.0
2019/02/11 09:25:16.000   4280222.4312  -4034414.8688  -2458255.1448   5  12  30.0000  30.0000  30.0000   0.0000   0.0000   0.0000   1.00    0.0
2019/02/11 09:25:36.000   4280222.4312  -4034414.8688  -2458255.1448   5  11  30.0000  30.0000  30.0000   0.0000   0.0000   0.0000   6.00    0.0
2019/02/11 09:25:37.000   4280222.4312  -4034414.8688  -2458255.1448   5  11  30.0000  30.0000  30.0000   0.0000   0.0000   0.0000   7.00    0.0
2019/02/11 09:26:18.000   4280222.4312  -4034414.8688  -2458255.1448   5  12  30.0000  30.0000  30.0000   0.0000   0.0000   0.0000   3.00    0.0
2019/02/11 09:26:39.000   4280222.4312  -4034414.8688  -2458255.1448   5  12  30.0000  30.0000  30.0000   0.0000   0.0000   0.0000   9.00    0.0
2019/02/11 09:26:41.000   4280222.4312  -4034414.8688  -2458255.1448   5  12  30.0000  30.0000  30.0000   0.0000   0.0000   0.0000  11.00    0.0
2019/02/11 09:26:44.000   4280222.4312  -4034414.8688  -2458255.1448   5  12  30.0000  30.0000  30.0000   0.0000   0.0000   0.0000  14.00    0.0
2019/02/11 09:27:02.000   4280222.4312  -4034414.8688  -2458255.1448   5  12  30.0000  30.0000  30.0000   0.0000   0.0000   0.0000   2.00    0.0
2019/02/11 09:27:07.000   4280222.4312  -4034414.8688  -2458255.1448   5  12  30.0000  30.0000  30.0000   0.0000   0.0000   0.0000   7.00    0.0
2019/02/11 09:27:15.000   4280222.4312  -4034414.8688  -2458255.1448   5  12  30.0000  30.0000  30.0000   0.0000   0.0000   0.0000  -0.00    0.0
2019/02/11 09:27:18.000   4280222.4312  -4034414.8688  -2458255.1448   5  11  30.0000  30.0000  30.0000   0.0000   0.0000   0.0000   3.00    0.0
2019/02/11 09:27:27.000   4280222.4312  -4034414.8688  -2458255.1448   5  12  30.0000  30.0000  30.0000   0.0000   0.0000   0.0000  12.00    0.0
2019/02/11 09:27:34.000   4280222.4312  -4034414.8688  -2458255.1448   5  12  30.0000  30.0000  30.0000   0.0000   0.0000   0.0000   4.00    0.0
2019/02/11 09:27:41.000   4280222.4312  -4034414.8688  -2458255.1448   5  12  30.0000  30.0000  30.0000   0.0000   0.0000   0.0000  11.00    0.0
2019/02/11 09:27:47.000   4280222.4312  -4034414.8688  -2458255.1448   5  12  30.0000  30.0000  30.0000   0.0000   0.0000   0.0000   2.00    0.0
2019/02/11 09:27:49.000   4280222.4312  -4034414.8688  -2458255.1448   5  12  30.0000  30.0000  30.0000   0.0000   0.0000   0.0000   4.00    0.0
2019/02/11 09:28:03.000   4280222.4312  -4034414.8688  -2458255.1448   5  12  30.0000  30.0000  30.0000   0.0000   0.0000   0.0000   3.00    0.0
2019/02/11 09:28:04.000   4280222.4312  -4034414.8688  -2458255.1448   5  12  30.0000  30.0000  30.0000   0.0000   0.0000   0.0000   4.00    0.0
2019/02/11 09:28:29.000   4280222.4312  -4034414.8688  -2458255.1448   5  12  30.0000  30.0000  30.0000   0.0000   0.0000   0.0000  14.00    0.0
2019/02/11 09:28:38.000   4280222.4312  -4034414.8688  -2458255.1448   5  12  30.0000  30.0000  30.0000   0.0000   0.0000   0.0000   8.00    0.0
2019/02/11 09:28:44.000   4280222.4312  -4034414.8688  -2458255.1448   5  12  30.0000  30.0000  30.0000   0.0000   0.0000   0.0000  14.00    0.0
2019/02/11 09:29:01.000   4280222.4312  -4034414.8688  -2458255.1448   5  12  30.0000  30.0000  30.0000   0.0000   0.0000   0.0000   1.00    0.0
2019/02/11 09:29:03.000   4280222.4312  -4034414.8688  -2458255.1448   5  12  30.0000  30.0000  30.0000   0.0000   0.0000   0.0000   3.00    0.0
2019/02/11 09:29:04.000   4280222.4312  -4034414.8688  -2458255.1448   5  12  30.0000  30.0000  30.0000   0.0000   0.0000   0.0000   4.00    0.0
2019/02/11 09:29:05.000   4280222.4312  -4034414.8688  -2458255.1448   5  12  30.0000  30.0000  30.0000   0.0000   0.0000   0.0000   5.00    0.0
2019/02/11 09:29:13.000   4280222.4312  -4034414.8688  -2458255.1448   5  11  30.0000  30.0000  30.0000   0.0000   0.0000   0.0000  13.00    0.0
2019/02/11 09:29:37.000   4280222.4312  -4034414.8688  -2458255.1448   5  12  30.0000  30.0000  30.0000   0.0000   0.0000   0.0000   7.00    0.0
2019/02/11 09:29:52.000   4280222.4312  -4034414.8688  -2458255.1448   5  11  30.0000  30.0000  30.0000   0.0000   0.0000   0.0000   7.00    0.0
2019/02/11 09:29:53.000   4280222.4312  -4034414.8688  -2458255.1448   5  12  30.0000  30.0000  30.0000   0.0000   0.0000   0.0000   8.00    0.0
2019/02/11 09:29:54.000   4280222.4312  -4034414.8688  -2458255.1448   5  12  30.0000  30.0000  30.0000   0.0000   0.0000   0.0000   9.00    0.0
2019/02/11 09:29:56.000   4280222.4312  -4034414.8688  -2458255.1448   5  12  30.0000  30.0000  30.0000   0.0000   0.0000   0.0000  11.00    0.0
2019/02/11 09:29:58.000   4280222.4312  -4034414.8688  -2458255.1448   5  12  30.0000  30.0000  30.0000   0.0000   0.0000   0.0000  13.00    0.0
2019/02/11 09:30:00.000   4280222.4312  -4034414.8688  -2458255.1448   5  12  30.0000  30.0000  30.0000   0.0000   0.0000   0.0000  -0.00    0.0
2019/02/11 09:30:01.000   4280222.4312  -4034414.8688  -2458255.1448   5  12  30.0000  30.0000  30.0000   0.0000   0.0000   0.0000   1.00    0.0
2019/02/11 09:30:03.000   4280222.4312  -4034414.8688  -2458255.1448   5  12  30.0000  30.0000  30.0000   0.0000   0.0000   0.0000   3.00    0.0
2019/02/11 09:30:04.000   4280222.4312  -4034414.8688  -2458255.1448   5  12  30.0000  30.0000  30.0000   0.0000   0.0000   0.0000   4.00    0.0
2019/02/11 09:30:09.000   4280222.4312  -4034414.8688  -2458255.1448   5  11  30.0000  30.0000  30.0000   0.0000   0.0000   0.0000   9.00    0.0
2019/02/11 09:30:12.000   4280222.4312  -4034414.8688  -2458255.1448   5  11  30.0000  30.0000  30.0000   0.0000   0.0000   0.0000  12.00    0.0
2019/02/11 09:30:14.000   4280222.4312  -4034414.8688  -2458255.1448   5  11  30.0000  30.0000  30.0000   0.0000   0.0000   0.0000  14.00    0.0
2019/02/11 09:30:16.000   4280222.4312  -4034414.8688  -2458255.1448   5  11  30.0000  30.0000  30.0000   0.0000   0.0000   0.0000   1.00    0.0
2019/02/11 09:30:18.000   4280222.4312  -4034414.8688  -2458255.1448   5  11  30.0000  30.0000  30.0000   0.0000   0.0000   0.0000   3.00    0.0
2019/02/11 09:30:19.000   4280222.4312  -4034414.8688  -2458255.1448   5  11  30.0000  30.0000  30.0000   0.0000   0.0000   0.0000   4.00    0.0
2019/02/11 09:30:23.000   4280222.4312  -4034414.8688  -2458255.1448   5  12  30.0000  30.0000  30.0000   0.0000   0.0000   0.0000   8.00    0.0
2019/02/11 09:30:26.000   4280222.4312  -4034414.8688  -2458255.1448   5  12  30.0000  30.0000  30.0000   0.0000   0.0000   0.0000  11.00    0.0
2019/02/11 09:30:28.000   4280222.4312  -4034414.8688  -2458255.1448   5  12  30.0000  30.0000  30.0000   0.0000   0.0000   0.0000  13.00    0.0
2019/02/11 09:30:37.000   4280222.4312  -4034414.8688  -2458255.1448   5  12  30.0000  30.0000  30.0000   0.0000   0.0000   0.0000   7.00    0.0
2019/02/11 09:30:40.000   4280222.4312  -4034414.8688  -2458255.1448   5  12  30.0000  30.0000  30.0000   0.0000   0.0000   0.0000  10.00    0.0
2019/02/11 09:30:41.000   4280222.4312  -4034414.8688  -2458255.1448   5  12  30.0000  30.0000  30.0000   0.0000   0.0000   0.0000  11.00    0.0
2019/02/11 09:30:47.000   4280222.4312  -4034414.8688  -2458255.1448   5  12  30.0000  30.0000  30.0000   0.0000   0.0000   0.0000   2.00    0.0
2019/02/11 09:30:52.000   4280222.4312  -4034414.8688  -2458255.1448   5  12  30.0000  30.0000  30.0000   0.0000   0.0000   0.0000   7.00    0.0
2019/02/11 09:30:59.000   4280222.4312  -4034414.8688  -2458255.1448   5  12  30.0000  30.0000  30.0000   0.0000   0.0000   0.0000  14.00    0.0
2019/02/11 09:31:00.000   4280222.4312  -4034414.8688  -2458255.1448   5  12  30.0000  30.0000  30.0000   0.0000   0.0000   0.0000  -0.00    0.0
2019/02/11 09:31:08.000   4280222.4312  -4034414.8688  -2458255.1448   5  12  30.0000  30.0000  30.0000   0.0000   0.0000   0.0000   8.00    0.0
2019/02/11 09:31:12.000   4280222.4312  -4034414.8688  -2458255.1448   5  12  30.0000  30.0000  30.0000   0.0000   0.0000   0.0000  12.00    0.0
2019/02/11 09:31:13.000   4280222.4312  -4034414.8688  -2458255.1448   5  12  30.0000  30.0000  30.0000   0.0000   0.0000   0.0000  13.00    0.0
2019/02/11 09:31:39.000   4280222.4312  -4034414.8688  -2458255.1448   5  12  30.0000  30.0000  30.0000   0.0000   0.0000   0.0000   9.00    0.0
2019/02/11 09:31:42.000   4280222.4312  -4034414.8688  -2458255.1448   5  12  30.0000  30.0000  30.0000   0.0000   0.0000   0.0000  12.00    0.0
2019/02/11 09:31:51.000   4280222.4312  -4034414.8688  -2458255.1448   5  12  30.0000  30.0000  30.0000   0.0000   0.0000   0.0000   6.00    0.0
2019/02/11 09:31:52.000   4280222.4312  -4034414.8688  -2458255.1448   5  12  30.0000  30.0000  30.0000   0.0000   0.0000   0.0000   7.00    0.0
2019/02/11 09:32:11.000   4280222.4312  -4034414.8688  -2458255.1448   5  12  30.0000  30.0000  30.0000   0.0000   0.0000   0.0000  11.00    0.0
2019/02/11 09:32:15.000   4280222.4312  -4034414.8688  -2458255.1448   5  11  30.0000  30.0000  30.0000   0.0000   0.0000   0.0000  -0.00    0.0
2019/02/11 09:32:18.000   4280222.4312  -4034414.8688  -2458255.1448   5  11  30.0000  30.0000  30.0000   0.0000   0.0000   0.0000   3.00    0.0
2019/02/11 09:32:20.000   4280222.4312  -4034414.8688  -2458255.1448   5  11  30.0000  30.0000  30.0000   0.0000   0.0000   0.0000   5.00    0.0
2019/02/11 09:32:25.000   4280222.4312  -4034414.8688  -2458255.1448   5  11  30.0000  30.0000  30.0000   0.0000   0.0000   0.0000  10.00    0.0
2019/02/11 09:32:31.000   4280222.4312  -4034414.8688  -2458255.1448   5  12  30.0000  30.0000  30.0000   0.0000   0.0000   0.0000   1.00    0.0
2019/02/11 09:32:32.000   4280222.4312  -4034414.8688  -2458255.1448   5  12  30.0000  30.0000  30.0000   0.0000   0.0000   0.0000   2.00    0.0
2019/02/11 09:33:18.000   4280222.4312  -4034414.8688  -2458255.1448   5  13  30.0000  30.0000  30.0000   0.0000   0.0000   0.0000   3.00    0.0
2019/02/11 09:33:26.000   4280222.4312  -4034414.8688  -2458255.1448   5  13  30.0000  30.0000  30.0000   0.0000   0.0000   0.0000  11.00    0.0
2019/02/11 09:33:28.000   4280222.4312  -4034414.8688  -2458255.1448   5  13  30.0000  30.0000  30.0000   0.0000   0.0000   0.0000  13.00    0.0
2019/02/11 09:33:32.000   4280222.4312  -4034414.8688  -2458255.1448   5  13  30.0000  30.0000  30.0000   0.0000   0.0000   0.0000   2.00    0.0
2019/02/11 09:33:36.000   4280222.4312  -4034414.8688  -2458255.1448   5  13  30.0000  30.0000  30.0000   0.0000   0.0000   0.0000   6.00    0.0
2019/02/11 09:33:40.000   4280222.4312  -4034414.8688  -2458255.1448   5  13  30.0000  30.0000  30.0000   0.0000   0.0000   0.0000  10.00    0.0
2019/02/11 09:33:42.000   4280222.4312  -4034414.8688  -2458255.1448   5  13  30.0000  30.0000  30.0000   0.0000   0.0000   0.0000  12.00    0.0
2019/02/11 09:33:43.000   4280222.4312  -4034414.8688  -2458255.1448   5  13  30.0000  30.0000  30.0000   0.0000   0.0000   0.0000  13.00    0.0
2019/02/11 09:33:50.000   4280222.4312  -4034414.8688  -2458255.1448   5  13  30.0000  30.0000  30.0000   0.0000   0.0000   0.0000   5.00    0.0
2019/02/11 09:33:54.000   4280222.4312  -4034414.8688  -2458255.1448   5  13  30.0000  30.0000  30.0000   0.0000   0.0000   0.0000   9.00    0.0
2019/02/11 09:34:00.000   4280222.4312  -4034414.8688  -2458255.1448   5  13  30.0000  30.0000  30.0000   0.0000   0.0000   0.0000  -0.00    0.0
2019/02/11 09:34:10.000   4280222.4312  -4034414.8688  -2458255.1448   5  12  30.0000  30.0000  30.0000   0.0000   0.0000   0.0000  10.00    0.0
