% program   : RTKPOST ver.2.4.2
% inp file  : D:\Google Drive\UERJ\_Projeto Final\Python\tcc-guilherme\20190115_Sta91500_Smoothed.19o
% inp file  : D:\Google Drive\UERJ\_Projeto Final\20190115_Marco 91500 IBGE\brdm0150.19p
% obs start : 2019/01/15 09:25:22.0 GPST (week2036 206722.0s)
% obs end   : 2019/01/15 10:25:42.0 GPST (week2036 210342.0s)
% pos mode  : single
% elev mask : 15.0 deg
% ionos opt : off
% tropo opt : off
% ephemeris : broadcast
% navi sys  : gps glonass
%
% (x/y/z-ecef=WGS84,Q=1:fix,2:float,3:sbas,4:dgps,5:single,6:ppp,ns=# of satellites)
%  GPST                      x-ecef(m)      y-ecef(m)      z-ecef(m)   Q  ns   sdx(m)   sdy(m)   sdz(m)  sdxy(m)  sdyz(m)  sdzx(m) age(s)  ratio
2019/01/15 09:25:23.000   4280222.9255  -4034436.3187  -2458290.2214   5  10   7.9560   8.9685   5.0114  -7.2207   2.6953  -3.7265   0.00    0.0
2019/01/15 09:25:24.000   4280236.6556  -4034444.5811  -2458277.0303   5   9   7.9806   9.0933   5.9492  -7.2852   1.5693  -3.4522   0.00    0.0
2019/01/15 09:25:25.000   4280230.8283  -4034437.1192  -2458270.3259   5  10   7.9578   8.9691   5.0117  -7.2226   2.6973  -3.7270   0.00    0.0
2019/01/15 09:25:26.000   4280220.4777  -4034419.7955  -2458272.4654   5  10   7.9588   8.9694   5.0119  -7.2235   2.6983  -3.7272   0.00    0.0
2019/01/15 09:25:27.000   4280213.9779  -4034422.5822  -2458283.3842   5   9   8.4722   9.9269   6.8336  -8.0333   5.2002  -5.2320   0.00    0.0
2019/01/15 09:25:28.000   4280215.4446  -4034430.3242  -2458276.9001   5  10   7.9606   8.9700   5.0122  -7.2253   2.7002  -3.7277   0.00    0.0
2019/01/15 09:25:29.000   4280216.0661  -4034419.7955  -2458279.3099   5   9   8.4731   9.9268   6.8330  -8.0341   5.2000  -5.2309   0.00    0.0
2019/01/15 09:25:30.000   4280231.8226  -4034433.2712  -2458291.9855   5   9   8.4735   9.9268   6.8326  -8.0344   5.1999  -5.2304   0.00    0.0
2019/01/15 09:25:31.000   4280222.5871  -4034424.6929  -2458264.0023   5   9   8.4740   9.9267   6.8323  -8.0348   5.1998  -5.2298   0.00    0.0
2019/01/15 09:25:32.000   4280212.8386  -4034415.8333  -2458267.4933   5   9   8.4745   9.9267   6.8320  -8.0352   5.1997  -5.2293   0.00    0.0
2019/01/15 09:25:33.000   4280215.8320  -4034421.2359  -2458274.5806   5   9   8.4749   9.9266   6.8316  -8.0356   5.1996  -5.2287   0.00    0.0
2019/01/15 09:25:34.000   4280213.9429  -4034417.2766  -2458275.1391   5   9   8.4754   9.9266   6.8313  -8.0359   5.1995  -5.2282   0.00    0.0
2019/01/15 09:25:35.000   4280216.1994  -4034419.6680  -2458277.2556   5   9   8.4758   9.9265   6.8310  -8.0363   5.1994  -5.2276   0.00    0.0
2019/01/15 09:25:36.000   4280222.0869  -4034423.6954  -2458273.9958   5   9   8.4763   9.9265   6.8306  -8.0367   5.1993  -5.2271   0.00    0.0
2019/01/15 09:25:37.000   4280224.2400  -4034425.5849  -2458280.2067   5   9   8.4767   9.9264   6.8303  -8.0370   5.1992  -5.2265   0.00    0.0
2019/01/15 09:25:38.000   4280227.3548  -4034424.7767  -2458280.6798   5  10   7.6083   7.5291   6.8294  -6.3574   5.2543  -5.2577   0.00    0.0
2019/01/15 09:25:39.000   4280230.1593  -4034426.3018  -2458280.5397   5  10   7.6082   7.5285   6.8291  -6.3571   5.2539  -5.2570   0.00    0.0
2019/01/15 09:25:40.000   4280230.2073  -4034426.4658  -2458280.6188   5  10   7.6082   7.5280   6.8287  -6.3569   5.2535  -5.2563   0.00    0.0
2019/01/15 09:25:41.000   4280232.3353  -4034429.7763  -2458281.1810   5  10   7.6082   7.5275   6.8284  -6.3566   5.2531  -5.2556   0.00    0.0
2019/01/15 09:25:42.000   4280232.9645  -4034431.1933  -2458280.4814   5  10   7.6082   7.5269   6.8281  -6.3564   5.2527  -5.2548   0.00    0.0
2019/01/15 09:25:43.000   4280230.8534  -4034427.6525  -2458280.4884   5  10   7.6081   7.5264   6.8277  -6.3561   5.2523  -5.2541   0.00    0.0
2019/01/15 09:25:44.000   4280231.8808  -4034429.3275  -2458280.7022   5  10   7.6081   7.5258   6.8274  -6.3559   5.2519  -5.2534   0.00    0.0
2019/01/15 09:25:45.000   4280232.6634  -4034431.0185  -2458280.1796   5  10   7.6081   7.5253   6.8271  -6.3556   5.2515  -5.2527   0.00    0.0
2019/01/15 09:25:46.000   4280231.4457  -4034429.4048  -2458279.8209   5  10   7.6080   7.5248   6.8267  -6.3554   5.2511  -5.2519   0.00    0.0
2019/01/15 09:25:47.000   4280229.9993  -4034426.9926  -2458279.8342   5  10   7.6080   7.5242   6.8264  -6.3551   5.2506  -5.2512   0.00    0.0
2019/01/15 09:25:48.000   4280230.1717  -4034426.6882  -2458280.3759   5  10   7.6080   7.5237   6.8261  -6.3549   5.2502  -5.2505   0.00    0.0
2019/01/15 09:25:49.000   4280230.8179  -4034427.7993  -2458280.3087   5  10   7.6080   7.5232   6.8258  -6.3546   5.2498  -5.2498   0.00    0.0
2019/01/15 09:27:31.000   4280221.9712  -4034419.6900  -2458272.0704   5  12   7.5143   7.0112   6.6735  -6.1915   5.5068  -5.2588   0.00    0.0
2019/01/15 09:27:32.000   4280221.8987  -4034419.6591  -2458271.9814   5  12   7.5141   7.0105   6.6733  -6.1909   5.5062  -5.2582   0.00    0.0
2019/01/15 09:27:33.000   4280222.0034  -4034419.7185  -2458272.1247   5  12   7.5139   7.0097   6.6731  -6.1903   5.5057  -5.2576   0.00    0.0
2019/01/15 09:27:34.000   4280221.8180  -4034419.5988  -2458271.8273   5  12   7.5136   7.0089   6.6728  -6.1898   5.5051  -5.2569   0.00    0.0
2019/01/15 09:27:35.000   4280221.6669  -4034419.4489  -2458271.6989   5  12   7.5134   7.0081   6.6726  -6.1892   5.5046  -5.2563   0.00    0.0
2019/01/15 09:27:36.000   4280221.8002  -4034419.4891  -2458271.9894   5  12   7.5132   7.0074   6.6724  -6.1886   5.5041  -5.2557   0.00    0.0
2019/01/15 09:27:37.000   4280221.8809  -4034419.3704  -2458272.1280   5  12   7.5130   7.0066   6.6721  -6.1881   5.5035  -5.2551   0.00    0.0
2019/01/15 09:27:38.000   4280221.7813  -4034418.9632  -2458272.1904   5  12   7.5128   7.0058   6.6719  -6.1875   5.5030  -5.2545   0.00    0.0
2019/01/15 09:27:39.000   4280221.6310  -4034418.3837  -2458272.1731   5  11   7.5370   7.0833   6.6870  -6.1352   5.4590  -5.2799   0.00    0.0
2019/01/15 09:27:40.000   4280221.6663  -4034418.3827  -2458272.2624   5  12   7.5123   7.0043   6.6714  -6.1864   5.5019  -5.2532   0.00    0.0
2019/01/15 09:27:41.000   4280221.6970  -4034418.1550  -2458272.3800   5  11   7.5366   7.0818   6.6865  -6.1341   5.4580  -5.2786   0.00    0.0
2019/01/15 09:27:42.000   4280221.5633  -4034417.8806  -2458272.3077   5  11   7.5363   7.0811   6.6862  -6.1335   5.4575  -5.2780   0.00    0.0
2019/01/15 09:27:43.000   4280221.7012  -4034417.8495  -2458272.4360   5  11   7.5361   7.0803   6.6859  -6.1329   5.4570  -5.2773   0.00    0.0
2019/01/15 09:27:44.000   4280221.8308  -4034417.8693  -2458272.5003   5  11   7.5359   7.0796   6.6856  -6.1323   5.4566  -5.2766   0.00    0.0
2019/01/15 09:27:45.000   4280221.9499  -4034417.8506  -2458272.6251   5  11   7.5357   7.0788   6.6854  -6.1318   5.4561  -5.2760   0.00    0.0
2019/01/15 09:27:46.000   4280222.1059  -4034417.4940  -2458272.7925   5  12   7.5110   6.9996   6.6700  -6.1829   5.4986  -5.2495   0.00    0.0
2019/01/15 09:27:47.000   4280222.1569  -4034417.4173  -2458272.9450   5  12   7.5108   6.9988   6.6698  -6.1824   5.4981  -5.2488   0.00    0.0
2019/01/15 09:27:48.000   4280221.8859  -4034417.4880  -2458272.7183   5  11   7.5351   7.0765   6.6845  -6.1300   5.4546  -5.2740   0.00    0.0
2019/01/15 09:27:49.000   4280221.9899  -4034417.5731  -2458272.8207   5  11   7.5349   7.0758   6.6842  -6.1294   5.4541  -5.2733   0.00    0.0
2019/01/15 09:27:50.000   4280222.0389  -4034417.5266  -2458272.7959   5  11   7.5346   7.0750   6.6839  -6.1288   5.4536  -5.2727   0.00    0.0
2019/01/15 09:27:51.000   4280222.1762  -4034417.5308  -2458272.7921   5  11   7.5344   7.0743   6.6837  -6.1283   5.4531  -5.2720   0.00    0.0
2019/01/15 09:27:52.000   4280222.1817  -4034417.4938  -2458272.8645   5  11   7.5342   7.0735   6.6834  -6.1277   5.4526  -5.2713   0.00    0.0
2019/01/15 09:27:53.000   4280222.4933  -4034417.6605  -2458272.9692   5  11   7.5340   7.0727   6.6831  -6.1271   5.4522  -5.2707   0.00    0.0
2019/01/15 09:27:54.000   4280222.4987  -4034417.6316  -2458272.9442   5  11   7.5338   7.0720   6.6828  -6.1265   5.4517  -5.2700   0.00    0.0
2019/01/15 09:27:55.000   4280222.3112  -4034417.5085  -2458272.8900   5  11   7.5336   7.0712   6.6825  -6.1259   5.4512  -5.2694   0.00    0.0
2019/01/15 09:27:56.000   4280222.1718  -4034417.3903  -2458272.7935   5  11   7.5333   7.0705   6.6822  -6.1253   5.4507  -5.2687   0.00    0.0
2019/01/15 09:27:57.000   4280222.3422  -4034417.5647  -2458272.9341   5  11   7.5331   7.0697   6.6819  -6.1247   5.4502  -5.2680   0.00    0.0
2019/01/15 09:27:58.000   4280222.1824  -4034417.4881  -2458272.8882   5  11   7.5329   7.0689   6.6816  -6.1242   5.4497  -5.2674   0.00    0.0
2019/01/15 09:27:59.000   4280222.1684  -4034417.4458  -2458272.9687   5  11   7.5327   7.0682   6.6814  -6.1236   5.4492  -5.2667   0.00    0.0
2019/01/15 09:28:00.000   4280222.0259  -4034417.3341  -2458272.8911   5  11   7.5325   7.0674   6.6811  -6.1230   5.4487  -5.2660   0.00    0.0
2019/01/15 09:28:01.000   4280221.9563  -4034417.2249  -2458272.8940   5  11   7.5323   7.0667   6.6808  -6.1224   5.4482  -5.2653   0.00    0.0
2019/01/15 09:28:02.000   4280221.9883  -4034417.2676  -2458272.9253   5  11   7.5320   7.0659   6.6805  -6.1218   5.4477  -5.2647   0.00    0.0
2019/01/15 09:28:03.000   4280222.3040  -4034417.4296  -2458273.0629   5  11   7.5318   7.0652   6.6802  -6.1212   5.4472  -5.2640   0.00    0.0
2019/01/15 09:28:04.000   4280222.4861  -4034417.7158  -2458273.4236   5  11   7.5316   7.0644   6.6799  -6.1206   5.4467  -5.2633   0.00    0.0
2019/01/15 09:28:05.000   4280222.5720  -4034417.2960  -2458273.8540   5  12   7.5069   6.9849   6.6654  -6.1720   5.4882  -5.2375   0.00    0.0
2019/01/15 09:28:06.000   4280222.4436  -4034417.3639  -2458273.9318   5  12   7.5067   6.9841   6.6651  -6.1715   5.4876  -5.2368   0.00    0.0
2019/01/15 09:28:07.000   4280222.6481  -4034417.7168  -2458273.9970   5  12   7.5064   6.9833   6.6649  -6.1709   5.4871  -5.2362   0.00    0.0
2019/01/15 09:28:08.000   4280222.8192  -4034418.0110  -2458273.9321   5  12   7.5062   6.9825   6.6646  -6.1703   5.4865  -5.2355   0.00    0.0
2019/01/15 09:28:09.000   4280223.2190  -4034418.4649  -2458274.0803   5  12   7.5060   6.9817   6.6644  -6.1697   5.4860  -5.2349   0.00    0.0
2019/01/15 09:28:10.000   4280223.5888  -4034418.8335  -2458274.1715   5  12   7.5058   6.9810   6.6641  -6.1692   5.4854  -5.2343   0.00    0.0
2019/01/15 09:28:11.000   4280223.8828  -4034418.8794  -2458273.9750   5  12   7.5055   6.9802   6.6639  -6.1686   5.4849  -5.2336   0.00    0.0
2019/01/15 09:28:12.000   4280223.8811  -4034418.9087  -2458273.7406   5  12   7.5053   6.9794   6.6636  -6.1680   5.4843  -5.2330   0.00    0.0
2019/01/15 09:28:13.000   4280223.7888  -4034418.8940  -2458273.5866   5  12   7.5051   6.9786   6.6634  -6.1674   5.4838  -5.2324   0.00    0.0
2019/01/15 09:28:14.000   4280223.8333  -4034419.1284  -2458273.6898   5  12   7.5049   6.9779   6.6631  -6.1668   5.4832  -5.2317   0.00    0.0
2019/01/15 09:28:15.000   4280224.2685  -4034419.7900  -2458274.0167   5  12   7.5047   6.9771   6.6629  -6.1663   5.4826  -5.2311   0.00    0.0
2019/01/15 09:28:16.000   4280224.6991  -4034420.1930  -2458274.0372   5  12   7.5044   6.9763   6.6626  -6.1657   5.4821  -5.2304   0.00    0.0
2019/01/15 09:28:17.000   4280225.2594  -4034420.4724  -2458274.2553   5  12   7.5042   6.9755   6.6624  -6.1651   5.4815  -5.2298   0.00    0.0
2019/01/15 09:28:18.000   4280225.3489  -4034420.4641  -2458274.0769   5  12   7.5040   6.9747   6.6621  -6.1645   5.4810  -5.2291   0.00    0.0
2019/01/15 09:28:19.000   4280225.3297  -4034420.5906  -2458273.9719   5  12   7.5038   6.9740   6.6619  -6.1640   5.4804  -5.2285   0.00    0.0
2019/01/15 09:28:20.000   4280224.8625  -4034420.4737  -2458273.8296   5  12   7.5035   6.9732   6.6616  -6.1634   5.4799  -5.2279   0.00    0.0
2019/01/15 09:28:21.000   4280224.4283  -4034420.3366  -2458273.6738   5  12   7.5033   6.9724   6.6613  -6.1628   5.4793  -5.2272   0.00    0.0
2019/01/15 09:28:22.000   4280223.8724  -4034420.0724  -2458273.5206   5  12   7.5031   6.9716   6.6611  -6.1622   5.4787  -5.2266   0.00    0.0
2019/01/15 09:28:23.000   4280223.8083  -4034419.9024  -2458273.4336   5  12   7.5029   6.9709   6.6608  -6.1616   5.4782  -5.2259   0.00    0.0
2019/01/15 09:28:24.000   4280224.3893  -4034420.1643  -2458273.7974   5  12   7.5026   6.9701   6.6606  -6.1611   5.4776  -5.2253   0.00    0.0
2019/01/15 09:28:25.000   4280225.0176  -4034420.3856  -2458274.1023   5  12   7.5024   6.9693   6.6603  -6.1605   5.4771  -5.2246   0.00    0.0
2019/01/15 09:28:26.000   4280225.4766  -4034420.7184  -2458274.3641   5  12   7.5022   6.9685   6.6601  -6.1599   5.4765  -5.2240   0.00    0.0
2019/01/15 09:28:27.000   4280225.6473  -4034420.9497  -2458274.5149   5  12   7.5020   6.9677   6.6598  -6.1593   5.4759  -5.2233   0.00    0.0
2019/01/15 09:28:28.000   4280225.8077  -4034421.2248  -2458274.7190   5  12   7.5017   6.9670   6.6595  -6.1587   5.4754  -5.2227   0.00    0.0
2019/01/15 09:28:29.000   4280225.9992  -4034421.3808  -2458274.8848   5  12   7.5015   6.9662   6.6593  -6.1582   5.4748  -5.2220   0.00    0.0
2019/01/15 09:28:30.000   4280226.3517  -4034421.7589  -2458275.0330   5  12   7.5013   6.9654   6.6590  -6.1576   5.4743  -5.2214   0.00    0.0
2019/01/15 09:28:31.000   4280226.7567  -4034421.8821  -2458275.0346   5  12   7.5011   6.9646   6.6588  -6.1570   5.4737  -5.2207   0.00    0.0
2019/01/15 09:28:32.000   4280226.7205  -4034421.6269  -2458275.0607   5  12   7.5008   6.9638   6.6585  -6.1564   5.4731  -5.2201   0.00    0.0
2019/01/15 09:28:33.000   4280226.6438  -4034421.4242  -2458275.0358   5  12   7.5006   6.9631   6.6582  -6.1558   5.4726  -5.2195   0.00    0.0
2019/01/15 09:28:34.000   4280226.5328  -4034421.2742  -2458275.0830   5  12   7.5004   6.9623   6.6580  -6.1553   5.4720  -5.2188   0.00    0.0
2019/01/15 09:28:35.000   4280226.4801  -4034421.1052  -2458275.0510   5  12   7.5001   6.9615   6.6577  -6.1547   5.4714  -5.2181   0.00    0.0
2019/01/15 09:28:36.000   4280226.7196  -4034421.1564  -2458275.0499   5  12   7.4999   6.9607   6.6575  -6.1541   5.4709  -5.2175   0.00    0.0
2019/01/15 09:28:37.000   4280226.8201  -4034421.0946  -2458274.9579   5  12   7.4997   6.9600   6.6572  -6.1535   5.4703  -5.2168   0.00    0.0
2019/01/15 09:28:38.000   4280226.6816  -4034420.8816  -2458274.7354   5  12   7.4995   6.9592   6.6569  -6.1529   5.4698  -5.2162   0.00    0.0
2019/01/15 09:28:39.000   4280226.5576  -4034420.7526  -2458274.6438   5  12   7.4992   6.9584   6.6567  -6.1524   5.4692  -5.2155   0.00    0.0
2019/01/15 09:28:40.000   4280226.6760  -4034420.9285  -2458274.6523   5  12   7.4990   6.9576   6.6564  -6.1518   5.4686  -5.2149   0.00    0.0
2019/01/15 09:28:41.000   4280226.8218  -4034421.0555  -2458274.5420   5  12   7.4988   6.9568   6.6561  -6.1512   5.4681  -5.2142   0.00    0.0
2019/01/15 09:28:42.000   4280227.0569  -4034421.1652  -2458274.5086   5  12   7.4985   6.9561   6.6559  -6.1506   5.4675  -5.2136   0.00    0.0
2019/01/15 09:28:43.000   4280227.1213  -4034420.9518  -2458274.4423   5  12   7.4983   6.9553   6.6556  -6.1500   5.4669  -5.2129   0.00    0.0
2019/01/15 09:28:44.000   4280227.0145  -4034420.7929  -2458274.5801   5  12   7.4981   6.9545   6.6553  -6.1494   5.4664  -5.2123   0.00    0.0
2019/01/15 09:28:45.000   4280226.8195  -4034420.6100  -2458274.6468   5  12   7.4979   6.9537   6.6551  -6.1489   5.4658  -5.2116   0.00    0.0
2019/01/15 09:28:46.000   4280226.4451  -4034420.1697  -2458274.5332   5  12   7.4976   6.9529   6.6548  -6.1483   5.4652  -5.2110   0.00    0.0
2019/01/15 09:28:47.000   4280226.1911  -4034419.8576  -2458274.2423   5  12   7.4974   6.9522   6.6545  -6.1477   5.4647  -5.2103   0.00    0.0
2019/01/15 09:28:48.000   4280226.1742  -4034419.8395  -2458273.9197   5  12   7.4972   6.9514   6.6543  -6.1471   5.4641  -5.2096   0.00    0.0
2019/01/15 09:28:49.000   4280225.9806  -4034419.8442  -2458273.7850   5  12   7.4969   6.9506   6.6540  -6.1465   5.4635  -5.2090   0.00    0.0
2019/01/15 09:28:50.000   4280225.7651  -4034419.7238  -2458273.8721   5  12   7.4967   6.9498   6.6537  -6.1459   5.4630  -5.2083   0.00    0.0
2019/01/15 09:28:51.000   4280225.9529  -4034419.7110  -2458273.9033   5  12   7.4965   6.9490   6.6535  -6.1454   5.4624  -5.2077   0.00    0.0
2019/01/15 09:28:52.000   4280226.2945  -4034419.8820  -2458274.3038   5  12   7.4963   6.9483   6.6532  -6.1448   5.4618  -5.2070   0.00    0.0
2019/01/15 09:28:53.000   4280226.7980  -4034420.2031  -2458274.7955   5  12   7.4960   6.9475   6.6529  -6.1442   5.4612  -5.2064   0.00    0.0
2019/01/15 09:28:54.000   4280227.1859  -4034420.4871  -2458275.1590   5  12   7.4958   6.9467   6.6526  -6.1436   5.4607  -5.2057   0.00    0.0
2019/01/15 09:28:55.000   4280227.0967  -4034420.4429  -2458275.1894   5  12   7.4956   6.9459   6.6524  -6.1430   5.4601  -5.2050   0.00    0.0
2019/01/15 09:28:56.000   4280226.7291  -4034420.3848  -2458274.9702   5  12   7.4953   6.9451   6.6521  -6.1424   5.4595  -5.2044   0.00    0.0
2019/01/15 09:28:57.000   4280226.3306  -4034420.4169  -2458274.8115   5  12   7.4951   6.9444   6.6518  -6.1418   5.4590  -5.2037   0.00    0.0
2019/01/15 09:28:58.000   4280226.0136  -4034420.4732  -2458274.8544   5  12   7.4949   6.9436   6.6515  -6.1413   5.4584  -5.2031   0.00    0.0
2019/01/15 09:28:59.000   4280225.6558  -4034420.3885  -2458274.8059   5  12   7.4946   6.9428   6.6513  -6.1407   5.4578  -5.2024   0.00    0.0
2019/01/15 09:29:00.000   4280225.3979  -4034420.2565  -2458274.8209   5  12   7.4944   6.9420   6.6510  -6.1401   5.4573  -5.2017   0.00    0.0
2019/01/15 09:29:01.000   4280225.5738  -4034420.1894  -2458274.9593   5  12   7.4942   6.9412   6.6507  -6.1395   5.4567  -5.2011   0.00    0.0
2019/01/15 09:29:02.000   4280225.8606  -4034420.1117  -2458275.0242   5  12   7.4939   6.9405   6.6505  -6.1389   5.4561  -5.2004   0.00    0.0
2019/01/15 09:29:03.000   4280226.4231  -4034420.3853  -2458275.0547   5  12   7.4937   6.9397   6.6502  -6.1383   5.4555  -5.1997   0.00    0.0
2019/01/15 09:29:04.000   4280226.5949  -4034420.7771  -2458275.1878   5  12   7.4935   6.9389   6.6499  -6.1377   5.4550  -5.1991   0.00    0.0
2019/01/15 09:29:05.000   4280226.5194  -4034420.9031  -2458275.1259   5  12   7.4932   6.9381   6.6496  -6.1372   5.4544  -5.1984   0.00    0.0
2019/01/15 09:29:06.000   4280226.2152  -4034420.7505  -2458274.8024   5  12   7.4930   6.9373   6.6493  -6.1366   5.4538  -5.1977   0.00    0.0
2019/01/15 09:29:07.000   4280226.0123  -4034420.8549  -2458274.6958   5  12   7.4928   6.9366   6.6491  -6.1360   5.4532  -5.1971   0.00    0.0
2019/01/15 09:29:08.000   4280225.8229  -4034420.8373  -2458274.5578   5  12   7.4925   6.9358   6.6488  -6.1354   5.4527  -5.1964   0.00    0.0
2019/01/15 09:29:09.000   4280225.6214  -4034420.7757  -2458274.3930   5  12   7.4923   6.9350   6.6485  -6.1348   5.4521  -5.1957   0.00    0.0
2019/01/15 09:29:10.000   4280225.2755  -4034420.5744  -2458274.2467   5  12   7.4921   6.9342   6.6482  -6.1342   5.4515  -5.1951   0.00    0.0
2019/01/15 09:29:11.000   4280224.8663  -4034420.2601  -2458273.8698   5  12   7.4918   6.9334   6.6480  -6.1336   5.4509  -5.1944   0.00    0.0
2019/01/15 09:29:12.000   4280224.5819  -4034420.0461  -2458273.6797   5  12   7.4916   6.9327   6.6477  -6.1330   5.4504  -5.1937   0.00    0.0
2019/01/15 09:29:13.000   4280224.1730  -4034419.6960  -2458273.3246   5  12   7.4914   6.9319   6.6474  -6.1324   5.4498  -5.1931   0.00    0.0
2019/01/15 09:29:14.000   4280223.8393  -4034419.5101  -2458272.9866   5  12   7.4911   6.9311   6.6471  -6.1319   5.4492  -5.1924   0.00    0.0
2019/01/15 09:29:15.000   4280223.9077  -4034419.4516  -2458272.8067   5  12   7.4909   6.9303   6.6468  -6.1313   5.4486  -5.1917   0.00    0.0
2019/01/15 09:29:16.000   4280224.4092  -4034419.7138  -2458272.7416   5  12   7.4907   6.9295   6.6465  -6.1307   5.4481  -5.1911   0.00    0.0
2019/01/15 09:29:17.000   4280224.6604  -4034419.7964  -2458272.5343   5  12   7.4904   6.9288   6.6463  -6.1301   5.4475  -5.1904   0.00    0.0
2019/01/15 09:29:18.000   4280224.4288  -4034419.6648  -2458272.3056   5  12   7.4902   6.9280   6.6460  -6.1295   5.4469  -5.1897   0.00    0.0
2019/01/15 09:29:19.000   4280224.1260  -4034419.3728  -2458271.9661   5  12   7.4900   6.9272   6.6457  -6.1289   5.4463  -5.1890   0.00    0.0
2019/01/15 09:29:20.000   4280224.0896  -4034419.3254  -2458271.7001   5  12   7.4897   6.9264   6.6454  -6.1283   5.4457  -5.1884   0.00    0.0
2019/01/15 09:29:21.000   4280223.9905  -4034419.1385  -2458271.5421   5  12   7.4895   6.9256   6.6451  -6.1277   5.4452  -5.1877   0.00    0.0
2019/01/15 09:29:22.000   4280223.5398  -4034418.4449  -2458271.1507   5  12   7.4893   6.9249   6.6448  -6.1271   5.4446  -5.1870   0.00    0.0
2019/01/15 09:29:23.000   4280222.8843  -4034417.7150  -2458270.7183   5  12   7.4890   6.9241   6.6446  -6.1266   5.4440  -5.1864   0.00    0.0
2019/01/15 09:29:24.000   4280222.7601  -4034417.5606  -2458270.6400   5  12   7.4888   6.9233   6.6443  -6.1260   5.4434  -5.1857   0.00    0.0
2019/01/15 09:29:25.000   4280222.9307  -4034417.8204  -2458270.6058   5  12   7.4886   6.9225   6.6440  -6.1254   5.4428  -5.1850   0.00    0.0
2019/01/15 09:29:26.000   4280223.0582  -4034418.1411  -2458270.8115   5  12   7.4883   6.9217   6.6437  -6.1248   5.4423  -5.1843   0.00    0.0
2019/01/15 09:29:27.000   4280223.0673  -4034418.3136  -2458270.8849   5  12   7.4881   6.9209   6.6434  -6.1242   5.4417  -5.1837   0.00    0.0
2019/01/15 09:29:28.000   4280222.9836  -4034418.2029  -2458270.6692   5  12   7.4878   6.9202   6.6431  -6.1236   5.4411  -5.1830   0.00    0.0
2019/01/15 09:29:29.000   4280222.8468  -4034418.1885  -2458270.4764   5  12   7.4876   6.9194   6.6428  -6.1230   5.4405  -5.1823   0.00    0.0
2019/01/15 09:29:30.000   4280222.6345  -4034418.1565  -2458270.2197   5  12   7.4874   6.9186   6.6425  -6.1224   5.4399  -5.1816   0.00    0.0
2019/01/15 09:29:31.000   4280222.4559  -4034417.9379  -2458269.9410   5  12   7.4871   6.9178   6.6423  -6.1218   5.4394  -5.1810   0.00    0.0
2019/01/15 09:29:32.000   4280222.2217  -4034417.5923  -2458269.4917   5  12   7.4869   6.9170   6.6420  -6.1212   5.4388  -5.1803   0.00    0.0
2019/01/15 09:29:33.000   4280222.2492  -4034417.4612  -2458269.2150   5  12   7.4867   6.9163   6.6417  -6.1206   5.4382  -5.1796   0.00    0.0
2019/01/15 09:29:34.000   4280222.1294  -4034417.3210  -2458269.1507   5  12   7.4864   6.9155   6.6414  -6.1200   5.4376  -5.1789   0.00    0.0
2019/01/15 09:29:35.000   4280221.6800  -4034417.0429  -2458269.0371   5  12   7.4862   6.9147   6.6411  -6.1195   5.4370  -5.1782   0.00    0.0
2019/01/15 09:29:36.000   4280221.2192  -4034416.8480  -2458268.8865   5  12   7.4859   6.9139   6.6408  -6.1189   5.4364  -5.1776   0.00    0.0
2019/01/15 09:29:37.000   4280221.0818  -4034416.8504  -2458268.8443   5  12   7.4857   6.9131   6.6405  -6.1183   5.4359  -5.1769   0.00    0.0
2019/01/15 09:29:38.000   4280220.9440  -4034416.9589  -2458268.9061   5  12   7.4855   6.9124   6.6402  -6.1177   5.4353  -5.1762   0.00    0.0
2019/01/15 09:29:39.000   4280221.1218  -4034417.2621  -2458269.0221   5  12   7.4852   6.9116   6.6399  -6.1171   5.4347  -5.1755   0.00    0.0
2019/01/15 09:29:40.000   4280221.3995  -4034417.3907  -2458268.9396   5  12   7.4850   6.9108   6.6396  -6.1165   5.4341  -5.1748   0.00    0.0
2019/01/15 09:29:41.000   4280221.6138  -4034417.2545  -2458268.5912   5  12   7.4847   6.9100   6.6393  -6.1159   5.4335  -5.1742   0.00    0.0
2019/01/15 09:29:42.000   4280221.7640  -4034417.2071  -2458268.5755   5  12   7.4845   6.9092   6.6390  -6.1153   5.4329  -5.1735   0.00    0.0
2019/01/15 09:29:43.000   4280221.8249  -4034417.2938  -2458268.8613   5  12   7.4843   6.9084   6.6387  -6.1147   5.4323  -5.1728   0.00    0.0
2019/01/15 09:29:44.000   4280221.8914  -4034417.4951  -2458269.0741   5  12   7.4840   6.9077   6.6385  -6.1141   5.4318  -5.1721   0.00    0.0
2019/01/15 09:29:45.000   4280222.1187  -4034418.2280  -2458269.6281   5  12   7.4838   6.9069   6.6382  -6.1135   5.4312  -5.1714   0.00    0.0
2019/01/15 09:29:46.000   4280222.3516  -4034418.7536  -2458270.0115   5  12   7.4836   6.9061   6.6379  -6.1129   5.4306  -5.1707   0.00    0.0
2019/01/15 09:29:47.000   4280222.7695  -4034419.1295  -2458270.0647   5  12   7.4833   6.9053   6.6376  -6.1123   5.4300  -5.1701   0.00    0.0
2019/01/15 09:29:48.000   4280222.8976  -4034419.2122  -2458269.8858   5  12   7.4831   6.9045   6.6373  -6.1117   5.4294  -5.1694   0.00    0.0
2019/01/15 09:29:49.000   4280223.0105  -4034419.2679  -2458269.5562   5  12   7.4828   6.9038   6.6370  -6.1111   5.4288  -5.1687   0.00    0.0
2019/01/15 09:29:50.000   4280222.7173  -4034419.1253  -2458269.3277   5  12   7.4826   6.9030   6.6367  -6.1105   5.4282  -5.1680   0.00    0.0
2019/01/15 09:29:51.000   4280222.7714  -4034419.0176  -2458269.4428   5  12   7.4823   6.9022   6.6364  -6.1099   5.4276  -5.1673   0.00    0.0
2019/01/15 09:29:52.000   4280222.8914  -4034418.7850  -2458269.2376   5  12   7.4821   6.9014   6.6361  -6.1094   5.4270  -5.1666   0.00    0.0
2019/01/15 09:29:53.000   4280222.8997  -4034418.6257  -2458268.8708   5  12   7.4819   6.9006   6.6358  -6.1088   5.4265  -5.1659   0.00    0.0
2019/01/15 09:29:54.000   4280222.4664  -4034418.2318  -2458268.4135   5  12   7.4816   6.8998   6.6355  -6.1082   5.4259  -5.1653   0.00    0.0
2019/01/15 09:29:55.000   4280222.3037  -4034418.0605  -2458268.0936   5  12   7.4814   6.8991   6.6352  -6.1076   5.4253  -5.1646   0.00    0.0
2019/01/15 09:29:56.000   4280222.5425  -4034418.3983  -2458268.3221   5  12   7.4811   6.8983   6.6349  -6.1070   5.4247  -5.1639   0.00    0.0
2019/01/15 09:29:57.000   4280222.6751  -4034418.7444  -2458268.6599   5  12   7.4809   6.8975   6.6346  -6.1064   5.4241  -5.1632   0.00    0.0
2019/01/15 09:29:58.000   4280222.6609  -4034418.9069  -2458268.6754   5  12   7.4807   6.8967   6.6343  -6.1058   5.4235  -5.1625   0.00    0.0
2019/01/15 09:29:59.000   4280222.9292  -4034419.3482  -2458268.8392   5  12   7.4804   6.8959   6.6340  -6.1052   5.4229  -5.1618   0.00    0.0
2019/01/15 09:30:00.000   4280223.1586  -4034419.7113  -2458268.9154   5  12   7.4802   6.8951   6.6337  -6.1046   5.4223  -5.1611   0.00    0.0
2019/01/15 09:30:01.000   4280223.1217  -4034419.6463  -2458268.6778   5  12   7.4799   6.8944   6.6334  -6.1040   5.4217  -5.1604   0.00    0.0
2019/01/15 09:30:02.000   4280222.9349  -4034419.3825  -2458268.6077   5  12   7.4797   6.8936   6.6331  -6.1034   5.4211  -5.1597   0.00    0.0
2019/01/15 09:30:03.000   4280222.8656  -4034419.0984  -2458268.6842   5  12   7.4794   6.8928   6.6328  -6.1028   5.4205  -5.1590   0.00    0.0
2019/01/15 09:30:04.000   4280222.9043  -4034418.8793  -2458268.5215   5  12   7.4792   6.8920   6.6324  -6.1022   5.4199  -5.1583   0.00    0.0
2019/01/15 09:30:05.000   4280223.2455  -4034419.1919  -2458268.6395   5  12   7.4790   6.8912   6.6321  -6.1016   5.4194  -5.1577   0.00    0.0
2019/01/15 09:30:06.000   4280223.5279  -4034419.4827  -2458268.7022   5  12   7.4787   6.8904   6.6318  -6.1010   5.4188  -5.1570   0.00    0.0
2019/01/15 09:30:07.000   4280223.7765  -4034419.7064  -2458268.7278   5  12   7.4785   6.8897   6.6315  -6.1004   5.4182  -5.1563   0.00    0.0
2019/01/15 09:30:08.000   4280223.8894  -4034419.7752  -2458268.5384   5  12   7.4782   6.8889   6.6312  -6.0998   5.4176  -5.1556   0.00    0.0
2019/01/15 09:30:09.000   4280223.8485  -4034419.7614  -2458268.3272   5  12   7.4780   6.8881   6.6309  -6.0992   5.4170  -5.1549   0.00    0.0
2019/01/15 09:30:10.000   4280223.8849  -4034419.9555  -2458268.1611   5  12   7.4777   6.8873   6.6306  -6.0986   5.4164  -5.1542   0.00    0.0
2019/01/15 09:30:11.000   4280225.8366  -4034421.5094  -2458268.7517   5  11   8.8568   7.6382   6.9526  -7.2711   6.0203  -6.0407   0.00    0.0
2019/01/15 09:30:12.000   4280226.4430  -4034421.9520  -2458268.8294   5  11   8.8565   7.6374   6.9524  -7.2705   6.0198  -6.0402   0.00    0.0
2019/01/15 09:30:13.000   4280226.8583  -4034422.2141  -2458268.7442   5  11   8.8562   7.6365   6.9522  -7.2698   6.0193  -6.0397   0.00    0.0
2019/01/15 09:30:14.000   4280227.0130  -4034422.4306  -2458268.6039   5  11   8.8558   7.6357   6.9520  -7.2692   6.0188  -6.0392   0.00    0.0
2019/01/15 09:30:15.000   4280227.2974  -4034422.8310  -2458268.6521   5  11   8.8555   7.6349   6.9518  -7.2686   6.0183  -6.0387   0.00    0.0
2019/01/15 09:30:16.000   4280227.6868  -4034423.3309  -2458268.9446   5  11   8.8552   7.6341   6.9516  -7.2679   6.0178  -6.0382   0.00    0.0
2019/01/15 09:30:17.000   4280228.0552  -4034423.6905  -2458269.1044   5  11   8.8548   7.6333   6.9514  -7.2673   6.0173  -6.0377   0.00    0.0
2019/01/15 09:30:18.000   4280229.6368  -4034424.6559  -2458269.6753   5  12   7.4758   6.8811   6.6281  -6.0938   5.4116  -5.1486   0.00    0.0
2019/01/15 09:30:19.000   4280229.9655  -4034424.7615  -2458269.6945   5  12   7.4755   6.8803   6.6278  -6.0932   5.4110  -5.1479   0.00    0.0
2019/01/15 09:30:20.000   4280230.4617  -4034424.9870  -2458269.6896   5  12   7.4753   6.8795   6.6275  -6.0926   5.4104  -5.1472   0.00    0.0
2019/01/15 09:30:21.000   4280231.0050  -4034425.2782  -2458269.7901   5  12   7.4750   6.8787   6.6272  -6.0920   5.4098  -5.1465   0.00    0.0
2019/01/15 09:30:22.000   4280231.1244  -4034425.3158  -2458269.7138   5  12   7.4748   6.8779   6.6269  -6.0914   5.4092  -5.1458   0.00    0.0
2019/01/15 09:30:23.000   4280231.0554  -4034425.3854  -2458269.5411   5  12   7.4745   6.8771   6.6266  -6.0908   5.4086  -5.1451   0.00    0.0
2019/01/15 09:30:24.000   4280231.1529  -4034425.4985  -2458269.3805   5  12   7.4743   6.8764   6.6263  -6.0902   5.4080  -5.1444   0.00    0.0
2019/01/15 09:30:25.000   4280231.0436  -4034425.4026  -2458269.2843   5  12   7.4741   6.8756   6.6259  -6.0896   5.4074  -5.1437   0.00    0.0
2019/01/15 09:30:26.000   4280230.7157  -4034425.2631  -2458269.0268   5  12   7.4738   6.8748   6.6256  -6.0890   5.4068  -5.1430   0.00    0.0
2019/01/15 09:30:27.000   4280230.3039  -4034424.9985  -2458268.6652   5  12   7.4736   6.8740   6.6253  -6.0884   5.4062  -5.1423   0.00    0.0
2019/01/15 09:30:28.000   4280230.0049  -4034424.8307  -2458268.2611   5  12   7.4733   6.8732   6.6250  -6.0878   5.4056  -5.1416   0.00    0.0
2019/01/15 09:30:29.000   4280229.5518  -4034424.3799  -2458267.9871   5  12   7.4731   6.8724   6.6247  -6.0872   5.4050  -5.1409   0.00    0.0
2019/01/15 09:30:30.000   4280229.0958  -4034424.0619  -2458267.8347   5  12   7.4728   6.8717   6.6244  -6.0866   5.4044  -5.1402   0.00    0.0
2019/01/15 09:30:31.000   4280229.0629  -4034423.8818  -2458267.9106   5  12   7.4726   6.8709   6.6240  -6.0860   5.4038  -5.1395   0.00    0.0
2019/01/15 09:30:32.000   4280229.1061  -4034423.5981  -2458267.9167   5  12   7.4723   6.8701   6.6237  -6.0854   5.4032  -5.1388   0.00    0.0
2019/01/15 09:30:33.000   4280229.0437  -4034423.4835  -2458267.7574   5  12   7.4721   6.8693   6.6234  -6.0848   5.4026  -5.1381   0.00    0.0
2019/01/15 09:30:34.000   4280229.1333  -4034423.5804  -2458267.8217   5  12   7.4718   6.8685   6.6231  -6.0842   5.4020  -5.1374   0.00    0.0
2019/01/15 09:30:35.000   4280228.9770  -4034423.4294  -2458267.6388   5  12   7.4716   6.8677   6.6228  -6.0836   5.4014  -5.1367   0.00    0.0
2019/01/15 09:30:36.000   4280228.8609  -4034423.5047  -2458267.8124   5  12   7.4713   6.8670   6.6225  -6.0830   5.4008  -5.1360   0.00    0.0
2019/01/15 09:30:37.000   4280228.9657  -4034423.8063  -2458267.9909   5  12   7.4711   6.8662   6.6221  -6.0824   5.4002  -5.1352   0.00    0.0
2019/01/15 09:30:38.000   4280229.2049  -4034424.1621  -2458268.4048   5  12   7.4708   6.8654   6.6218  -6.0818   5.3996  -5.1345   0.00    0.0
2019/01/15 09:30:39.000   4280229.4913  -4034424.5056  -2458268.5595   5  12   7.4706   6.8646   6.6215  -6.0812   5.3990  -5.1338   0.00    0.0
2019/01/15 09:30:40.000   4280229.6262  -4034424.4605  -2458268.4599   5  12   7.4703   6.8638   6.6212  -6.0805   5.3984  -5.1331   0.00    0.0
2019/01/15 09:30:41.000   4280229.2558  -4034424.3158  -2458268.0876   5  12   7.4701   6.8630   6.6208  -6.0799   5.3978  -5.1324   0.00    0.0
2019/01/15 09:30:42.000   4280228.5584  -4034423.9443  -2458267.5729   5  12   7.4698   6.8622   6.6205  -6.0793   5.3972  -5.1317   0.00    0.0
2019/01/15 09:30:43.000   4280228.2969  -4034423.7555  -2458267.2616   5  12   7.4696   6.8615   6.6202  -6.0787   5.3965  -5.1310   0.00    0.0
2019/01/15 09:30:44.000   4280228.3557  -4034423.7155  -2458267.2587   5  12   7.4693   6.8607   6.6199  -6.0781   5.3959  -5.1303   0.00    0.0
2019/01/15 09:30:45.000   4280228.2184  -4034423.7692  -2458267.5118   5  12   7.4691   6.8599   6.6196  -6.0775   5.3953  -5.1296   0.00    0.0
2019/01/15 09:30:46.000   4280228.1456  -4034423.8723  -2458267.9751   5  12   7.4688   6.8591   6.6192  -6.0769   5.3947  -5.1289   0.00    0.0
2019/01/15 09:30:47.000   4280227.7015  -4034423.7037  -2458268.1095   5  12   7.4686   6.8583   6.6189  -6.0763   5.3941  -5.1281   0.00    0.0
2019/01/15 09:30:48.000   4280227.3534  -4034423.4747  -2458268.1283   5  12   7.4683   6.8575   6.6186  -6.0757   5.3935  -5.1274   0.00    0.0
2019/01/15 09:30:49.000   4280227.3680  -4034423.5264  -2458268.2430   5  12   7.4681   6.8568   6.6183  -6.0751   5.3929  -5.1267   0.00    0.0
2019/01/15 09:30:50.000   4280227.5333  -4034423.6595  -2458268.3779   5  12   7.4678   6.8560   6.6179  -6.0745   5.3923  -5.1260   0.00    0.0
2019/01/15 09:30:51.000   4280227.5120  -4034423.8427  -2458268.3723   5  12   7.4676   6.8552   6.6176  -6.0739   5.3917  -5.1253   0.00    0.0
2019/01/15 09:30:52.000   4280227.5947  -4034423.9584  -2458268.3572   5  12   7.4673   6.8544   6.6173  -6.0733   5.3911  -5.1246   0.00    0.0
2019/01/15 09:30:53.000   4280227.6507  -4034424.0919  -2458268.6427   5  12   7.4671   6.8536   6.6170  -6.0727   5.3905  -5.1239   0.00    0.0
2019/01/15 09:30:54.000   4280227.5424  -4034424.0740  -2458268.7839   5  12   7.4668   6.8528   6.6166  -6.0721   5.3899  -5.1232   0.00    0.0
2019/01/15 09:30:55.000   4280227.3565  -4034424.0565  -2458268.9440   5  12   7.4666   6.8521   6.6163  -6.0715   5.3892  -5.1224   0.00    0.0
2019/01/15 09:30:56.000   4280227.3393  -4034424.1554  -2458268.9661   5  12   7.4663   6.8513   6.6160  -6.0709   5.3886  -5.1217   0.00    0.0
2019/01/15 09:30:57.000   4280227.3232  -4034424.0822  -2458269.0265   5  12   7.4661   6.8505   6.6156  -6.0703   5.3880  -5.1210   0.00    0.0
2019/01/15 09:30:58.000   4280227.2578  -4034424.0520  -2458268.9269   5  12   7.4658   6.8497   6.6153  -6.0697   5.3874  -5.1203   0.00    0.0
2019/01/15 09:30:59.000   4280227.5201  -4034424.3065  -2458269.0509   5  12   7.4656   6.8489   6.6150  -6.0690   5.3868  -5.1196   0.00    0.0
2019/01/15 09:31:00.000   4280227.6245  -4034424.5091  -2458269.3916   5  12   7.4653   6.8481   6.6146  -6.0684   5.3862  -5.1189   0.00    0.0
2019/01/15 09:31:01.000   4280227.5309  -4034424.3728  -2458269.5041   5  12   7.4651   6.8473   6.6143  -6.0678   5.3856  -5.1181   0.00    0.0
2019/01/15 09:31:02.000   4280227.2014  -4034423.9046  -2458269.3465   5  12   7.4648   6.8466   6.6140  -6.0672   5.3850  -5.1174   0.00    0.0
2019/01/15 09:31:03.000   4280226.8027  -4034423.2347  -2458269.1172   5  12   7.4646   6.8458   6.6137  -6.0666   5.3844  -5.1167   0.00    0.0
2019/01/15 09:31:04.000   4280226.5802  -4034423.0307  -2458269.0175   5  12   7.4643   6.8450   6.6133  -6.0660   5.3837  -5.1160   0.00    0.0
2019/01/15 09:31:05.000   4280226.7254  -4034423.2356  -2458268.9163   5  12   7.4641   6.8442   6.6130  -6.0654   5.3831  -5.1153   0.00    0.0
2019/01/15 09:31:06.000   4280227.1495  -4034423.7659  -2458269.2819   5  12   7.4638   6.8434   6.6127  -6.0648   5.3825  -5.1145   0.00    0.0
2019/01/15 09:31:07.000   4280227.3445  -4034424.1661  -2458269.6785   5  12   7.4636   6.8426   6.6123  -6.0642   5.3819  -5.1138   0.00    0.0
2019/01/15 09:31:08.000   4280227.3097  -4034424.2033  -2458269.7403   5  12   7.4633   6.8419   6.6120  -6.0636   5.3813  -5.1131   0.00    0.0
2019/01/15 09:31:09.000   4280227.3274  -4034424.1945  -2458269.7027   5  12   7.4630   6.8411   6.6117  -6.0630   5.3807  -5.1124   0.00    0.0
2019/01/15 09:31:10.000   4280227.3515  -4034424.1410  -2458269.6566   5  12   7.4628   6.8403   6.6113  -6.0624   5.3801  -5.1117   0.00    0.0
2019/01/15 09:31:11.000   4280227.4328  -4034424.1906  -2458269.5933   5  12   7.4625   6.8395   6.6110  -6.0617   5.3795  -5.1109   0.00    0.0
2019/01/15 09:31:12.000   4280227.5957  -4034424.1087  -2458269.5375   5  12   7.4623   6.8387   6.6106  -6.0611   5.3788  -5.1102   0.00    0.0
2019/01/15 09:31:13.000   4280227.7172  -4034424.0249  -2458269.6250   5  12   7.4620   6.8379   6.6103  -6.0605   5.3782  -5.1095   0.00    0.0
2019/01/15 09:31:14.000   4280227.5616  -4034423.8046  -2458269.5123   5  12   7.4618   6.8372   6.6100  -6.0599   5.3776  -5.1088   0.00    0.0
2019/01/15 09:31:15.000   4280227.5625  -4034423.6961  -2458269.6351   5  12   7.4615   6.8364   6.6096  -6.0593   5.3770  -5.1080   0.00    0.0
2019/01/15 09:31:16.000   4280227.6833  -4034423.6188  -2458269.8514   5  12   7.4613   6.8356   6.6093  -6.0587   5.3764  -5.1073   0.00    0.0
2019/01/15 09:31:17.000   4280228.1352  -4034423.9010  -2458270.4281   5  12   7.4610   6.8348   6.6090  -6.0581   5.3758  -5.1066   0.00    0.0
2019/01/15 09:31:18.000   4280228.4524  -4034424.2074  -2458270.8739   5  12   7.4608   6.8340   6.6086  -6.0575   5.3751  -5.1059   0.00    0.0
2019/01/15 09:31:19.000   4280228.8572  -4034424.6406  -2458271.3792   5  12   7.4605   6.8332   6.6083  -6.0569   5.3745  -5.1051   0.00    0.0
2019/01/15 09:31:20.000   4280228.8657  -4034424.8233  -2458271.5795   5  12   7.4602   6.8324   6.6079  -6.0563   5.3739  -5.1044   0.00    0.0
2019/01/15 09:31:21.000   4280228.5921  -4034424.7736  -2458271.4054   5  12   7.4600   6.8317   6.6076  -6.0556   5.3733  -5.1037   0.00    0.0
2019/01/15 09:31:22.000   4280228.5795  -4034424.6790  -2458270.8972   5  12   7.4597   6.8309   6.6073  -6.0550   5.3727  -5.1030   0.00    0.0
2019/01/15 09:31:23.000   4280228.6829  -4034424.8548  -2458270.7693   5  12   7.4595   6.8301   6.6069  -6.0544   5.3720  -5.1022   0.00    0.0
2019/01/15 09:31:24.000   4280228.7606  -4034424.9269  -2458270.4879   5  12   7.4592   6.8293   6.6066  -6.0538   5.3714  -5.1015   0.00    0.0
2019/01/15 09:31:25.000   4280228.7789  -4034424.8640  -2458270.4547   5  12   7.4590   6.8285   6.6062  -6.0532   5.3708  -5.1008   0.00    0.0
2019/01/15 09:31:26.000   4280228.8912  -4034424.9533  -2458270.8293   5  12   7.4587   6.8277   6.6059  -6.0526   5.3702  -5.1001   0.00    0.0
2019/01/15 09:31:27.000   4280228.6583  -4034424.7621  -2458271.2499   5  12   7.4585   6.8269   6.6056  -6.0520   5.3696  -5.0993   0.00    0.0
2019/01/15 09:31:28.000   4280228.4904  -4034424.7489  -2458271.6573   5  12   7.4582   6.8262   6.6052  -6.0514   5.3690  -5.0986   0.00    0.0
2019/01/15 09:31:29.000   4280228.2659  -4034424.8468  -2458271.9355   5  12   7.4579   6.8254   6.6049  -6.0508   5.3683  -5.0979   0.00    0.0
2019/01/15 09:31:30.000   4280227.8286  -4034424.6967  -2458272.1276   5  12   7.4577   6.8246   6.6045  -6.0501   5.3677  -5.0971   0.00    0.0
2019/01/15 09:31:31.000   4280227.5030  -4034424.4577  -2458272.3001   5  12   7.4574   6.8238   6.6042  -6.0495   5.3671  -5.0964   0.00    0.0
2019/01/15 09:31:32.000   4280227.2523  -4034424.4599  -2458272.4138   5  12   7.4572   6.8230   6.6038  -6.0489   5.3665  -5.0957   0.00    0.0
2019/01/15 09:31:33.000   4280227.1339  -4034424.5358  -2458272.4896   5  12   7.4569   6.8222   6.6035  -6.0483   5.3658  -5.0949   0.00    0.0
2019/01/15 09:31:34.000   4280227.1469  -4034424.5838  -2458272.6423   5  12   7.4567   6.8215   6.6032  -6.0477   5.3652  -5.0942   0.00    0.0
2019/01/15 09:31:35.000   4280227.1414  -4034424.5111  -2458272.7424   5  12   7.4564   6.8207   6.6028  -6.0471   5.3646  -5.0935   0.00    0.0
2019/01/15 09:31:36.000   4280227.2758  -4034424.5628  -2458272.8263   5  12   7.4561   6.8199   6.6025  -6.0465   5.3640  -5.0927   0.00    0.0
2019/01/15 09:31:37.000   4280227.0355  -4034424.2617  -2458272.3979   5  12   7.4559   6.8191   6.6021  -6.0459   5.3634  -5.0920   0.00    0.0
2019/01/15 09:31:38.000   4280226.9190  -4034424.1808  -2458272.2371   5  12   7.4556   6.8183   6.6018  -6.0452   5.3627  -5.0913   0.00    0.0
2019/01/15 09:31:39.000   4280226.7694  -4034424.0634  -2458272.1886   5  12   7.4554   6.8175   6.6014  -6.0446   5.3621  -5.0905   0.00    0.0
2019/01/15 09:31:40.000   4280226.5415  -4034423.7685  -2458272.3509   5  12   7.4551   6.8167   6.6011  -6.0440   5.3615  -5.0898   0.00    0.0
2019/01/15 09:31:41.000   4280226.3325  -4034423.6489  -2458272.4141   5  12   7.4549   6.8160   6.6007  -6.0434   5.3609  -5.0891   0.00    0.0
2019/01/15 09:31:42.000   4280226.4729  -4034423.9164  -2458272.4691   5  12   7.4546   6.8152   6.6004  -6.0428   5.3602  -5.0883   0.00    0.0
2019/01/15 09:31:43.000   4280226.2319  -4034423.7916  -2458272.0935   5  12   7.4543   6.8144   6.6000  -6.0422   5.3596  -5.0876   0.00    0.0
2019/01/15 09:31:44.000   4280225.9409  -4034423.5028  -2458271.9270   5  12   7.4541   6.8136   6.5997  -6.0416   5.3590  -5.0869   0.00    0.0
2019/01/15 09:31:45.000   4280225.9436  -4034423.4002  -2458272.0789   5  12   7.4538   6.8128   6.5993  -6.0409   5.3584  -5.0861   0.00    0.0
2019/01/15 09:31:46.000   4280225.8685  -4034423.2836  -2458272.4350   5  12   7.4536   6.8120   6.5990  -6.0403   5.3577  -5.0854   0.00    0.0
2019/01/15 09:31:47.000   4280225.9568  -4034423.2755  -2458272.8248   5  12   7.4533   6.8112   6.5986  -6.0397   5.3571  -5.0847   0.00    0.0
2019/01/15 09:31:48.000   4280225.8785  -4034423.3362  -2458273.0492   5  12   7.4530   6.8105   6.5983  -6.0391   5.3565  -5.0839   0.00    0.0
2019/01/15 09:31:49.000   4280225.9425  -4034423.3924  -2458273.0579   5  12   7.4528   6.8097   6.5979  -6.0385   5.3559  -5.0832   0.00    0.0
2019/01/15 09:31:50.000   4280225.9169  -4034423.3235  -2458272.8782   5  12   7.4525   6.8089   6.5976  -6.0379   5.3552  -5.0824   0.00    0.0
2019/01/15 09:31:51.000   4280225.4197  -4034422.9077  -2458272.1958   5  12   7.4523   6.8081   6.5972  -6.0373   5.3546  -5.0817   0.00    0.0
2019/01/15 09:31:52.000   4280225.2104  -4034422.5918  -2458271.7978   5  12   7.4520   6.8073   6.5969  -6.0366   5.3540  -5.0810   0.00    0.0
2019/01/15 09:31:53.000   4280225.2983  -4034422.4529  -2458271.7155   5  12   7.4517   6.8065   6.5965  -6.0360   5.3534  -5.0802   0.00    0.0
2019/01/15 09:31:54.000   4280225.3025  -4034422.2411  -2458271.7512   5  12   7.4515   6.8058   6.5962  -6.0354   5.3527  -5.0795   0.00    0.0
2019/01/15 09:31:55.000   4280225.1571  -4034422.2290  -2458271.9522   5  12   7.4512   6.8050   6.5958  -6.0348   5.3521  -5.0787   0.00    0.0
2019/01/15 09:31:56.000   4280224.8465  -4034422.3218  -2458271.9975   5  12   7.4510   6.8042   6.5954  -6.0342   5.3515  -5.0780   0.00    0.0
2019/01/15 09:31:57.000   4280224.8551  -4034422.5191  -2458272.1473   5  12   7.4507   6.8034   6.5951  -6.0336   5.3508  -5.0773   0.00    0.0
2019/01/15 09:31:58.000   4280224.9890  -4034422.7430  -2458272.5251   5  12   7.4504   6.8026   6.5947  -6.0330   5.3502  -5.0765   0.00    0.0
2019/01/15 09:31:59.000   4280224.8937  -4034422.8264  -2458272.5057   5  12   7.4502   6.8018   6.5944  -6.0323   5.3496  -5.0758   0.00    0.0
2019/01/15 09:32:00.000   4280224.5643  -4034422.5264  -2458272.1390   5  12   7.4499   6.8010   6.5940  -6.0317   5.3490  -5.0750   0.00    0.0
2019/01/15 09:32:01.000   4280224.2268  -4034422.1244  -2458271.8127   5  12   7.4497   6.8003   6.5937  -6.0311   5.3483  -5.0743   0.00    0.0
2019/01/15 09:32:02.000   4280223.9450  -4034421.8572  -2458271.5799   5  12   7.4494   6.7995   6.5933  -6.0305   5.3477  -5.0735   0.00    0.0
2019/01/15 09:32:03.000   4280223.8319  -4034421.7652  -2458271.3147   5  12   7.4491   6.7987   6.5929  -6.0299   5.3471  -5.0728   0.00    0.0
2019/01/15 09:32:04.000   4280223.6614  -4034421.6743  -2458271.0188   5  12   7.4489   6.7979   6.5926  -6.0293   5.3464  -5.0721   0.00    0.0
2019/01/15 09:32:05.000   4280223.5488  -4034421.5750  -2458270.8649   5  12   7.4486   6.7971   6.5922  -6.0286   5.3458  -5.0713   0.00    0.0
2019/01/15 09:32:06.000   4280223.3063  -4034421.3870  -2458271.0337   5  12   7.4483   6.7963   6.5919  -6.0280   5.3452  -5.0706   0.00    0.0
2019/01/15 09:32:07.000   4280223.3399  -4034421.4216  -2458271.2593   5  12   7.4481   6.7955   6.5915  -6.0274   5.3445  -5.0698   0.00    0.0
2019/01/15 09:32:08.000   4280223.4730  -4034421.3111  -2458271.1527   5  12   7.4478   6.7948   6.5911  -6.0268   5.3439  -5.0691   0.00    0.0
2019/01/15 09:32:09.000   4280223.4549  -4034421.2711  -2458271.0272   5  12   7.4476   6.7940   6.5908  -6.0262   5.3433  -5.0683   0.00    0.0
2019/01/15 09:32:10.000   4280223.3037  -4034421.1941  -2458271.0708   5  12   7.4473   6.7932   6.5904  -6.0255   5.3426  -5.0676   0.00    0.0
2019/01/15 09:32:11.000   4280223.3991  -4034421.3952  -2458271.3302   5  12   7.4470   6.7924   6.5901  -6.0249   5.3420  -5.0668   0.00    0.0
2019/01/15 09:32:12.000   4280223.5452  -4034421.5067  -2458271.4259   5  12   7.4468   6.7916   6.5897  -6.0243   5.3414  -5.0661   0.00    0.0
2019/01/15 09:32:13.000   4280223.7792  -4034421.7114  -2458271.5087   5  12   7.4465   6.7908   6.5893  -6.0237   5.3408  -5.0653   0.00    0.0
2019/01/15 09:32:14.000   4280224.0180  -4034421.9789  -2458271.4688   5  12   7.4462   6.7900   6.5890  -6.0231   5.3401  -5.0646   0.00    0.0
2019/01/15 09:32:15.000   4280224.3593  -4034422.2814  -2458271.5084   5  12   7.4460   6.7893   6.5886  -6.0225   5.3395  -5.0638   0.00    0.0
2019/01/15 09:32:16.000   4280224.4127  -4034422.2863  -2458271.1900   5  12   7.4457   6.7885   6.5883  -6.0218   5.3388  -5.0631   0.00    0.0
2019/01/15 09:32:17.000   4280224.3692  -4034422.1732  -2458270.8567   5  12   7.4455   6.7877   6.5879  -6.0212   5.3382  -5.0623   0.00    0.0
2019/01/15 09:32:18.000   4280224.3063  -4034422.0038  -2458270.5029   5  12   7.4452   6.7869   6.5875  -6.0206   5.3376  -5.0616   0.00    0.0
2019/01/15 09:32:19.000   4280224.2268  -4034421.8945  -2458270.4152   5  12   7.4449   6.7861   6.5872  -6.0200   5.3369  -5.0608   0.00    0.0
2019/01/15 09:32:20.000   4280224.3306  -4034422.1600  -2458270.4044   5  12   7.4447   6.7853   6.5868  -6.0194   5.3363  -5.0601   0.00    0.0
2019/01/15 09:32:21.000   4280224.7473  -4034422.6162  -2458270.5646   5  12   7.4444   6.7845   6.5864  -6.0187   5.3357  -5.0593   0.00    0.0
2019/01/15 09:32:22.000   4280225.2327  -4034422.8639  -2458271.0830   5  12   7.4441   6.7838   6.5861  -6.0181   5.3350  -5.0586   0.00    0.0
2019/01/15 09:32:23.000   4280225.6693  -4034422.8964  -2458271.5405   5  12   7.4439   6.7830   6.5857  -6.0175   5.3344  -5.0578   0.00    0.0
2019/01/15 09:32:24.000   4280225.9318  -4034422.7407  -2458271.6935   5  12   7.4436   6.7822   6.5853  -6.0169   5.3338  -5.0571   0.00    0.0
2019/01/15 09:32:25.000   4280226.1462  -4034422.7572  -2458271.7824   5  12   7.4433   6.7814   6.5850  -6.0163   5.3331  -5.0563   0.00    0.0
2019/01/15 09:32:26.000   4280226.0076  -4034422.7679  -2458271.6808   5  12   7.4431   6.7806   6.5846  -6.0156   5.3325  -5.0556   0.00    0.0
2019/01/15 09:32:27.000   4280225.7678  -4034422.7641  -2458271.7187   5  12   7.4428   6.7798   6.5842  -6.0150   5.3319  -5.0548   0.00    0.0
2019/01/15 09:32:28.000   4280225.5270  -4034422.8663  -2458271.6839   5  12   7.4426   6.7790   6.5839  -6.0144   5.3312  -5.0541   0.00    0.0
2019/01/15 09:32:29.000   4280225.6209  -4034422.9923  -2458271.5669   5  11   7.4871   6.8786   8.5436  -6.0928   5.8983  -5.4761   0.00    0.0
2019/01/15 09:32:30.000   4280225.8132  -4034423.2394  -2458271.5221   5  11   7.4865   6.8775   8.5414  -6.0918   5.8964  -5.4739   0.00    0.0
2019/01/15 09:32:31.000   4280225.9287  -4034423.4507  -2458271.6307   5  11   7.4859   6.8763   8.5393  -6.0908   5.8944  -5.4716   0.00    0.0
2019/01/15 09:32:32.000   4280225.7543  -4034423.5174  -2458271.7988   5  11   7.4854   6.8751   8.5372  -6.0898   5.8925  -5.4693   0.00    0.0
2019/01/15 09:32:33.000   4280225.4603  -4034423.3977  -2458271.6848   5  11   7.4848   6.8739   8.5350  -6.0887   5.8905  -5.4670   0.00    0.0
2019/01/15 09:32:34.000   4280225.2509  -4034423.2997  -2458271.6121   5  11   7.4843   6.8728   8.5329  -6.0877   5.8886  -5.4648   0.00    0.0
2019/01/15 09:32:35.000   4280225.0576  -4034423.1202  -2458271.6079   5  11   7.4837   6.8716   8.5308  -6.0867   5.8867  -5.4625   0.00    0.0
2019/01/15 09:32:36.000   4280225.0300  -4034422.8750  -2458271.8229   5  11   7.4832   6.8704   8.5287  -6.0856   5.8847  -5.4602   0.00    0.0
2019/01/15 09:32:37.000   4280224.9340  -4034422.6308  -2458271.9376   5  11   7.4826   6.8693   8.5265  -6.0846   5.8828  -5.4580   0.00    0.0
2019/01/15 09:32:38.000   4280224.7510  -4034422.3822  -2458272.0929   5  11   7.4820   6.8681   8.5244  -6.0836   5.8808  -5.4557   0.00    0.0
2019/01/15 09:32:39.000   4280224.7210  -4034422.2508  -2458272.1790   5  11   7.4815   6.8669   8.5223  -6.0826   5.8789  -5.4534   0.00    0.0
2019/01/15 09:32:40.000   4280224.7554  -4034422.1014  -2458272.2386   5  11   7.4809   6.8658   8.5201  -6.0815   5.8770  -5.4512   0.00    0.0
2019/01/15 09:32:41.000   4280224.9325  -4034422.1677  -2458272.2880   5  11   7.4804   6.8646   8.5180  -6.0805   5.8750  -5.4489   0.00    0.0
2019/01/15 09:32:42.000   4280225.1995  -4034422.2723  -2458272.4312   5  11   7.4798   6.8634   8.5159  -6.0795   5.8731  -5.4467   0.00    0.0
2019/01/15 09:32:43.000   4280225.4580  -4034422.4077  -2458272.4233   5  11   7.4793   6.8623   8.5138  -6.0785   5.8711  -5.4444   0.00    0.0
2019/01/15 09:32:44.000   4280225.8887  -4034422.7157  -2458272.3310   5  11   7.4787   6.8611   8.5116  -6.0775   5.8692  -5.4421   0.00    0.0
2019/01/15 09:32:45.000   4280226.4260  -4034423.2460  -2458272.6531   5  11   7.4782   6.8600   8.5095  -6.0765   5.8673  -5.4399   0.00    0.0
2019/01/15 09:32:46.000   4280226.4852  -4034423.5207  -2458272.8847   5  11   7.4776   6.8588   8.5074  -6.0754   5.8653  -5.4376   0.00    0.0
2019/01/15 09:32:47.000   4280226.2987  -4034423.5250  -2458273.0114   5  11   7.4771   6.8576   8.5053  -6.0744   5.8634  -5.4354   0.00    0.0
2019/01/15 09:32:48.000   4280226.2143  -4034423.3622  -2458273.3245   5  11   7.4766   6.8565   8.5032  -6.0734   5.8615  -5.4331   0.00    0.0
2019/01/15 09:32:49.000   4280226.2153  -4034423.3829  -2458273.6748   5  11   7.4760   6.8553   8.5010  -6.0724   5.8595  -5.4308   0.00    0.0
2019/01/15 09:32:50.000   4280222.9207  -4034418.6021  -2458250.8562   5  12   7.4367   6.7618   6.5756  -6.0007   5.3171  -5.0374   0.00    0.0
2019/01/15 09:32:51.000   4280223.3686  -4034419.0306  -2458252.7480   5  12   7.4364   6.7610   6.5753  -6.0001   5.3165  -5.0366   0.00    0.0
2019/01/15 09:32:52.000   4280224.9916  -4034420.9157  -2458260.7868   5  12   7.4362   6.7602   6.5749  -5.9995   5.3158  -5.0358   0.00    0.0
2019/01/15 09:32:53.000   4280225.9995  -4034422.1471  -2458265.6820   5  12   7.4359   6.7594   6.5745  -5.9988   5.3152  -5.0351   0.00    0.0
2019/01/15 09:32:54.000   4280226.2356  -4034422.8741  -2458270.1722   5  12   7.4356   6.7586   6.5741  -5.9982   5.3145  -5.0343   0.00    0.0
2019/01/15 09:32:55.000   4280226.1742  -4034423.2088  -2458273.1532   5  12   7.4354   6.7578   6.5737  -5.9976   5.3139  -5.0335   0.00    0.0
2019/01/15 09:32:56.000   4280226.0026  -4034423.5165  -2458276.6039   5  12   7.4351   6.7570   6.5734  -5.9970   5.3133  -5.0328   0.00    0.0
2019/01/15 09:32:57.000   4280225.3978  -4034422.7850  -2458274.6036   5  12   7.4348   6.7562   6.5730  -5.9964   5.3126  -5.0320   0.00    0.0
2019/01/15 09:32:58.000   4280224.2009  -4034421.6333  -2458270.3166   5  12   7.4345   6.7555   6.5726  -5.9957   5.3120  -5.0312   0.00    0.0
2019/01/15 09:32:59.000   4280223.2423  -4034420.7538  -2458266.9580   5  12   7.4343   6.7547   6.5722  -5.9951   5.3113  -5.0305   0.00    0.0
2019/01/15 09:33:00.000   4280223.1404  -4034420.7556  -2458267.3678   5  12   7.4340   6.7539   6.5718  -5.9945   5.3107  -5.0297   0.00    0.0
2019/01/15 09:33:01.000   4280223.1038  -4034420.8275  -2458268.0196   5  12   7.4337   6.7531   6.5715  -5.9939   5.3100  -5.0289   0.00    0.0
2019/01/15 09:33:02.000   4280223.1658  -4034420.8656  -2458268.1250   5  12   7.4335   6.7523   6.5711  -5.9932   5.3094  -5.0282   0.00    0.0
2019/01/15 09:33:03.000   4280223.2094  -4034420.6854  -2458267.3842   5  12   7.4332   6.7515   6.5707  -5.9926   5.3087  -5.0274   0.00    0.0
2019/01/15 09:33:04.000   4280223.0823  -4034420.4980  -2458266.9599   5  12   7.4329   6.7507   6.5703  -5.9920   5.3081  -5.0266   0.00    0.0
2019/01/15 09:33:05.000   4280222.8324  -4034420.2084  -2458266.6990   5  12   7.4327   6.7500   6.5699  -5.9914   5.3074  -5.0259   0.00    0.0
2019/01/15 09:33:06.000   4280222.5009  -4034419.9213  -2458266.6086   5  12   7.4324   6.7492   6.5695  -5.9907   5.3068  -5.0251   0.00    0.0
2019/01/15 09:33:07.000   4280222.2699  -4034419.6974  -2458266.5974   5  12   7.4321   6.7484   6.5691  -5.9901   5.3061  -5.0243   0.00    0.0
2019/01/15 09:33:08.000   4280222.1084  -4034419.4959  -2458266.5366   5  12   7.4319   6.7476   6.5688  -5.9895   5.3055  -5.0236   0.00    0.0
2019/01/15 09:33:09.000   4280222.0075  -4034419.4999  -2458266.4728   5  12   7.4316   6.7468   6.5684  -5.9889   5.3048  -5.0228   0.00    0.0
2019/01/15 09:33:10.000   4280222.1244  -4034419.7075  -2458266.5416   5  12   7.4313   6.7460   6.5680  -5.9882   5.3042  -5.0220   0.00    0.0
2019/01/15 09:33:11.000   4280222.2898  -4034419.9149  -2458266.7177   5  12   7.4310   6.7452   6.5676  -5.9876   5.3035  -5.0213   0.00    0.0
2019/01/15 09:33:12.000   4280222.3409  -4034419.9862  -2458266.7560   5  12   7.4308   6.7445   6.5672  -5.9870   5.3029  -5.0205   0.00    0.0
2019/01/15 09:33:13.000   4280221.9701  -4034419.7818  -2458266.5347   5  12   7.4305   6.7437   6.5668  -5.9863   5.3022  -5.0197   0.00    0.0
2019/01/15 09:33:14.000   4280221.5442  -4034419.5111  -2458266.5038   5  12   7.4302   6.7429   6.5664  -5.9857   5.3016  -5.0189   0.00    0.0
2019/01/15 09:33:15.000   4280221.3437  -4034419.4886  -2458266.4031   5  12   7.4300   6.7421   6.5661  -5.9851   5.3009  -5.0182   0.00    0.0
2019/01/15 09:33:16.000   4280221.1030  -4034419.3835  -2458266.5243   5  12   7.4297   6.7413   6.5657  -5.9845   5.3003  -5.0174   0.00    0.0
2019/01/15 09:33:17.000   4280221.0109  -4034419.3650  -2458266.8445   5  12   7.4294   6.7405   6.5653  -5.9838   5.2996  -5.0166   0.00    0.0
2019/01/15 09:33:18.000   4280220.9394  -4034419.4684  -2458267.0065   5  12   7.4292   6.7397   6.5649  -5.9832   5.2990  -5.0158   0.00    0.0
2019/01/15 09:33:19.000   4280221.0249  -4034419.7826  -2458267.3165   5  12   7.4289   6.7390   6.5645  -5.9826   5.2983  -5.0151   0.00    0.0
2019/01/15 09:33:20.000   4280221.3126  -4034420.1923  -2458267.7526   5  12   7.4286   6.7382   6.5641  -5.9820   5.2977  -5.0143   0.00    0.0
2019/01/15 09:33:21.000   4280221.3957  -4034420.5138  -2458268.0287   5  12   7.4283   6.7374   6.5637  -5.9813   5.2970  -5.0135   0.00    0.0
2019/01/15 09:33:22.000   4280221.4196  -4034420.7441  -2458267.9903   5  12   7.4281   6.7366   6.5633  -5.9807   5.2964  -5.0127   0.00    0.0
2019/01/15 09:33:23.000   4280221.5085  -4034421.0470  -2458267.9826   5  12   7.4278   6.7358   6.5629  -5.9801   5.2957  -5.0120   0.00    0.0
2019/01/15 09:33:24.000   4280221.6220  -4034421.1068  -2458268.0137   5  12   7.4275   6.7350   6.5625  -5.9795   5.2951  -5.0112   0.00    0.0
2019/01/15 09:33:25.000   4280221.5991  -4034421.1012  -2458267.9116   5  12   7.4272   6.7342   6.5621  -5.9788   5.2944  -5.0104   0.00    0.0
2019/01/15 09:33:26.000   4280221.1832  -4034420.8997  -2458267.8164   5  12   7.4270   6.7335   6.5618  -5.9782   5.2938  -5.0096   0.00    0.0
2019/01/15 09:33:27.000   4280220.8808  -4034420.7881  -2458267.6158   5  12   7.4267   6.7327   6.5614  -5.9776   5.2931  -5.0089   0.00    0.0
2019/01/15 09:33:28.000   4280221.0980  -4034420.9694  -2458267.5578   5  12   7.4264   6.7319   6.5610  -5.9769   5.2925  -5.0081   0.00    0.0
2019/01/15 09:33:29.000   4280221.3666  -4034421.3289  -2458267.7100   5  12   7.4262   6.7311   6.5606  -5.9763   5.2918  -5.0073   0.00    0.0
2019/01/15 09:33:30.000   4280221.6406  -4034421.6894  -2458267.7998   5  12   7.4259   6.7303   6.5602  -5.9757   5.2912  -5.0065   0.00    0.0
2019/01/15 09:33:31.000   4280221.9713  -4034421.8673  -2458267.9061   5  12   7.4256   6.7295   6.5598  -5.9751   5.2905  -5.0057   0.00    0.0
2019/01/15 09:33:32.000   4280222.3078  -4034422.0034  -2458268.2859   5  12   7.4253   6.7287   6.5594  -5.9744   5.2898  -5.0050   0.00    0.0
2019/01/15 09:33:33.000   4280222.4942  -4034421.9839  -2458268.3847   5  12   7.4251   6.7280   6.5590  -5.9738   5.2892  -5.0042   0.00    0.0
2019/01/15 09:33:34.000   4280222.9775  -4034422.2149  -2458268.6532   5  12   7.4248   6.7272   6.5586  -5.9732   5.2885  -5.0034   0.00    0.0
2019/01/15 09:33:35.000   4280223.3189  -4034422.4086  -2458268.4912   5  12   7.4245   6.7264   6.5582  -5.9725   5.2879  -5.0026   0.00    0.0
2019/01/15 09:33:36.000   4280223.1704  -4034422.3618  -2458268.2211   5  12   7.4242   6.7256   6.5578  -5.9719   5.2872  -5.0018   0.00    0.0
2019/01/15 09:33:37.000   4280223.1833  -4034422.4519  -2458268.0108   5  12   7.4240   6.7248   6.5574  -5.9713   5.2866  -5.0011   0.00    0.0
2019/01/15 09:33:38.000   4280222.9906  -4034422.5268  -2458267.8206   5  12   7.4237   6.7240   6.5570  -5.9706   5.2859  -5.0003   0.00    0.0
2019/01/15 09:33:39.000   4280222.8045  -4034422.5668  -2458267.6947   5  12   7.4234   6.7232   6.5566  -5.9700   5.2853  -4.9995   0.00    0.0
2019/01/15 09:33:40.000   4280222.4715  -4034422.5311  -2458267.6322   5  12   7.4232   6.7225   6.5562  -5.9694   5.2846  -4.9987   0.00    0.0
2019/01/15 09:33:41.000   4280222.3924  -4034422.5626  -2458267.6816   5  12   7.4229   6.7217   6.5558  -5.9688   5.2839  -4.9979   0.00    0.0
2019/01/15 09:33:42.000   4280222.5309  -4034422.8405  -2458267.7576   5  12   7.4226   6.7209   6.5554  -5.9681   5.2833  -4.9971   0.00    0.0
2019/01/15 09:33:43.000   4280222.8975  -4034423.4189  -2458267.9517   5  12   7.4223   6.7201   6.5550  -5.9675   5.2826  -4.9964   0.00    0.0
2019/01/15 09:33:44.000   4280223.2956  -4034423.8292  -2458268.2218   5  12   7.4221   6.7193   6.5546  -5.9669   5.2820  -4.9956   0.00    0.0
2019/01/15 09:33:45.000   4280223.5827  -4034424.1275  -2458268.6344   5  12   7.4218   6.7185   6.5542  -5.9662   5.2813  -4.9948   0.00    0.0
2019/01/15 09:33:46.000   4280223.3628  -4034424.0583  -2458269.0614   5  12   7.4215   6.7177   6.5538  -5.9656   5.2806  -4.9940   0.00    0.0
2019/01/15 09:33:47.000   4280223.1106  -4034423.8128  -2458269.5191   5  12   7.4212   6.7170   6.5534  -5.9650   5.2800  -4.9932   0.00    0.0
2019/01/15 09:33:48.000   4280223.0595  -4034423.6635  -2458269.7314   5  12   7.4210   6.7162   6.5530  -5.9643   5.2793  -4.9924   0.00    0.0
2019/01/15 09:33:49.000   4280223.1138  -4034423.7202  -2458269.7946   5  12   7.4207   6.7154   6.5526  -5.9637   5.2787  -4.9917   0.00    0.0
2019/01/15 09:33:50.000   4280223.1692  -4034423.5788  -2458269.4928   5  12   7.4204   6.7146   6.5522  -5.9631   5.2780  -4.9909   0.00    0.0
2019/01/15 09:33:51.000   4280223.5086  -4034423.7180  -2458269.3733   5  12   7.4201   6.7138   6.5518  -5.9625   5.2773  -4.9901   0.00    0.0
