% program   : RTKPOST ver.2.4.2
% inp file  : D:\Google Drive\UERJ\_Projeto Final\Python\tcc-guilherme\20190115_Sta91500.19o
% inp file  : D:\Google Drive\UERJ\_Projeto Final\20190115_Marco 91500 IBGE\riod0151.19o
% inp file  : D:\Google Drive\UERJ\_Projeto Final\20190115_Marco 91500 IBGE\brdm0150.19p
% obs start : 2019/01/15 09:25:22.0 GPST (week2036 206722.0s)
% obs end   : 2019/01/15 10:25:42.0 GPST (week2036 210342.0s)
% pos mode  : dgps
% freqs     : L1
% solution  : forward
% elev mask : 15.0 deg
% dynamics  : off
% tidecorr  : off
% ionos opt : broadcast
% tropo opt : saastamoinen
% ephemeris : broadcast
% navi sys  : gps glonass galileo
% antenna1  :                       ( 0.0000  0.0000  0.0000)
% antenna2  :                       ( 0.0000  0.0000  0.0080)
% ref pos   :  4280294.8840  -4034431.2298  -2458141.3831
%
% (x/y/z-ecef=WGS84,Q=1:fix,2:float,3:sbas,4:dgps,5:single,6:ppp,ns=# of satellites)
%  GPST                      x-ecef(m)      y-ecef(m)      z-ecef(m)   Q  ns   sdx(m)   sdy(m)   sdz(m)  sdxy(m)  sdyz(m)  sdzx(m) age(s)  ratio
2019/01/15 09:25:24.000   4280234.5439  -4034439.0520  -2458271.3001   4   9   1.0446   1.1207   0.9311  -0.8929   0.3338  -0.5415   9.00    0.0
2019/01/15 09:25:25.000   4280226.1210  -4034431.8229  -2458266.2361   4   8   1.1239   1.2239   1.3497  -1.0007   0.7695  -0.8356  10.00    0.0
2019/01/15 09:25:29.000   4280216.1534  -4034413.2040  -2458276.3964   4   7   1.2863   1.2814   1.3618  -1.1130   0.7209  -0.7603  14.00    0.0
2019/01/15 09:25:31.000   4280216.5520  -4034415.1079  -2458243.5706   4   8   1.2836   1.2804   1.0776  -1.1113   0.7423  -0.8002   1.00    0.0
2019/01/15 09:25:32.000   4280209.3202  -4034407.5032  -2458259.6912   4   7   1.2860   1.2810   1.3604  -1.1127   0.7203  -0.7592   2.00    0.0
2019/01/15 09:25:36.000   4280233.3727  -4034430.3759  -2458266.9113   4   8   1.1236   1.2236   1.3461  -1.0005   0.7678  -0.8321   6.00    0.0
2019/01/15 09:25:37.000   4280234.0016  -4034431.9823  -2458279.7382   4   7   1.2864   1.2812   1.3589  -1.1131   0.7196  -0.7578   7.00    0.0
2019/01/15 09:25:41.000   4280230.5775  -4034431.5134  -2458287.5227   4   8   1.1648   1.0193   1.3328  -0.9028   0.8474  -0.8450  11.00    0.0
2019/01/15 09:25:42.000   4280228.2049  -4034423.8096  -2458276.0430   4   8   1.1649   1.0193   1.3326  -0.9028   0.8472  -0.8447  12.00    0.0
2019/01/15 09:25:43.000   4280216.8187  -4034414.3885  -2458271.8436   4   9   1.1626   1.0036   1.0752  -0.8957   0.7597  -0.8102  13.00    0.0
2019/01/15 09:25:44.000   4280226.5592  -4034430.7596  -2458280.4721   4   8   1.1649   1.0193   1.3322  -0.9028   0.8468  -0.8441  14.00    0.0
2019/01/15 09:25:47.000   4280224.6543  -4034423.4928  -2458274.9416   4  10   1.0093   0.9664   1.0494  -0.8040   0.7171  -0.7227   2.00    0.0
2019/01/15 09:25:48.000   4280222.1036  -4034423.1385  -2458279.3139   4   8   1.1643   1.0187   1.3306  -0.9022   0.8457  -0.8426   3.00    0.0
2019/01/15 09:25:49.000   4280226.8938  -4034422.5614  -2458276.7967   4  10   1.0093   0.9663   1.0490  -0.8040   0.7169  -0.7223   4.00    0.0
2019/01/15 09:25:50.000   4280220.4854  -4034412.5141  -2458264.7312   4  10   1.1521   1.0014   1.3257  -0.9129   0.8443  -0.8509   5.00    0.0
2019/01/15 09:25:52.000   4280231.0292  -4034418.9558  -2458271.1143   4  10   1.1520   1.0013   1.3252  -0.9128   0.8439  -0.8503   7.00    0.0
2019/01/15 09:25:54.000   4280228.7961  -4034420.8389  -2458276.8749   4  12   1.0023   0.9274   1.0398  -0.7881   0.7400  -0.7315   9.00    0.0
2019/01/15 09:25:55.000   4280213.5090  -4034405.6440  -2458269.5095   4  12   1.0023   0.9273   1.0396  -0.7880   0.7399  -0.7313  10.00    0.0
2019/01/15 09:25:56.000   4280219.0884  -4034408.9707  -2458259.4179   4  12   1.0023   0.9273   1.0395  -0.7880   0.7398  -0.7311  11.00    0.0
2019/01/15 09:25:57.000   4280226.9921  -4034411.1467  -2458272.4101   4  11   1.1459   0.9925   1.0523  -0.9041   0.7779  -0.7910  12.00    0.0
2019/01/15 09:26:02.000   4280210.7576  -4034405.3507  -2458248.6969   4  10   1.1516   1.0004   1.3222  -0.9121   0.8415  -0.8473   2.00    0.0
2019/01/15 09:26:03.000   4280221.4591  -4034411.8490  -2458272.8813   4  10   1.1516   1.0004   1.3219  -0.9120   0.8413  -0.8470   3.00    0.0
2019/01/15 09:26:04.000   4280219.7033  -4034413.1597  -2458257.0559   4  11   1.1457   0.9920   1.0511  -0.9037   0.7771  -0.7899   4.00    0.0
2019/01/15 09:26:05.000   4280221.7275  -4034410.8602  -2458261.3542   4  11   1.1457   0.9919   1.0509  -0.9037   0.7770  -0.7898   5.00    0.0
2019/01/15 09:26:10.000   4280216.5445  -4034416.2866  -2458273.9015   4  12   1.0019   0.9265   1.0371  -0.7872   0.7378  -0.7284  10.00    0.0
2019/01/15 09:26:15.000   4280224.3180  -4034416.8933  -2458259.1650   4  11   1.0426   0.9556   1.3142  -0.8290   0.8568  -0.8736   0.00    0.0
2019/01/15 09:26:16.000   4280224.7928  -4034420.2571  -2458267.3548   4  11   1.1456   0.9915   1.0493  -0.9033   0.7760  -0.7884   1.00    0.0
2019/01/15 09:26:17.000   4280224.3310  -4034414.6655  -2458264.6090   4  12   1.0016   0.9259   1.0358  -0.7866   0.7368  -0.7270   2.00    0.0
2019/01/15 09:26:18.000   4280221.3043  -4034417.3548  -2458264.7003   4  12   1.0016   0.9259   1.0356  -0.7866   0.7367  -0.7268   3.00    0.0
2019/01/15 09:26:22.000   4280213.5104  -4034413.2920  -2458277.7832   4  12   1.0016   0.9257   1.0350  -0.7864   0.7362  -0.7261   7.00    0.0
2019/01/15 09:26:29.000   4280223.7968  -4034424.5136  -2458262.8471   4  12   1.0017   0.9255   1.0340  -0.7862   0.7354  -0.7249  14.00    0.0
2019/01/15 09:26:32.000   4280231.0777  -4034425.7624  -2458268.0613   4  12   1.0013   0.9251   1.0333  -0.7858   0.7348  -0.7241   2.00    0.0
2019/01/15 09:26:34.000   4280226.1131  -4034418.8656  -2458266.2090   4  11   1.0408   0.9536   1.3090  -0.8266   0.8521  -0.8674   4.00    0.0
2019/01/15 09:26:36.000   4280228.1148  -4034423.9974  -2458264.6032   4  12   1.0013   0.9249   1.0327  -0.7856   0.7343  -0.7234   6.00    0.0
2019/01/15 09:26:37.000   4280230.2316  -4034428.8066  -2458273.6043   4  12   1.0013   0.9249   1.0325  -0.7856   0.7342  -0.7232   7.00    0.0
2019/01/15 09:26:40.000   4280237.4843  -4034430.6378  -2458288.1887   4  12   1.0013   0.9248   1.0321  -0.7855   0.7339  -0.7227  10.00    0.0
2019/01/15 09:26:41.000   4280217.9701  -4034416.6086  -2458256.8161   4  11   1.1459   0.9907   1.0459  -0.9028   0.7738  -0.7854  11.00    0.0
2019/01/15 09:26:46.000   4280239.4456  -4034428.6807  -2458283.7712   4  11   1.1457   0.9903   1.0450  -0.9024   0.7732  -0.7846   1.00    0.0
2019/01/15 09:26:47.000   4280233.7962  -4034429.1042  -2458277.4807   4  11   1.1457   0.9903   1.0448  -0.9024   0.7731  -0.7845   2.00    0.0
2019/01/15 09:26:54.000   4280239.9346  -4034434.3427  -2458282.8135   4  11   1.1458   0.9901   1.0439  -0.9023   0.7726  -0.7837   9.00    0.0
2019/01/15 09:26:57.000   4280225.0219  -4034418.4077  -2458268.7773   4  11   1.1460   0.9901   1.0436  -0.9023   0.7724  -0.7835  12.00    0.0
2019/01/15 09:27:01.000   4280220.5017  -4034413.8257  -2458267.0365   4  11   1.1457   0.9897   1.0428  -0.9020   0.7719  -0.7828   1.00    0.0
2019/01/15 09:27:02.000   4280217.7971  -4034419.6270  -2458260.9952   4  11   1.1457   0.9897   1.0427  -0.9020   0.7718  -0.7826   2.00    0.0
2019/01/15 09:27:04.000   4280212.7016  -4034411.3852  -2458252.9073   4  12   1.0007   0.9234   1.0280  -0.7841   0.7306  -0.7181   4.00    0.0
2019/01/15 09:27:05.000   4280225.3700  -4034427.1629  -2458274.3267   4  11   1.1458   0.9896   1.0423  -0.9019   0.7715  -0.7823   5.00    0.0
2019/01/15 09:27:09.000   4280210.4962  -4034410.3542  -2458262.3405   4  12   1.0008   0.9232   1.0273  -0.7839   0.7301  -0.7173   9.00    0.0
2019/01/15 09:27:13.000   4280221.3673  -4034413.4759  -2458254.0072   4  12   1.0008   0.9231   1.0267  -0.7839   0.7296  -0.7166  13.00    0.0
2019/01/15 09:27:14.000   4280218.5617  -4034417.7327  -2458266.4496   4  12   1.0009   0.9231   1.0266  -0.7838   0.7295  -0.7165  14.00    0.0
2019/01/15 09:27:18.000   4280232.1219  -4034420.0988  -2458272.6518   4  12   1.0005   0.9226   1.0257  -0.7834   0.7288  -0.7155   3.00    0.0
2019/01/15 09:27:20.000   4280210.3891  -4034403.7506  -2458265.5225   4  11   1.0367   0.9488   1.2965  -0.8209   0.8408  -0.8525   5.00    0.0
2019/01/15 09:27:23.000   4280211.6382  -4034407.6520  -2458265.9171   4  12   1.0005   0.9225   1.0249  -0.7832   0.7283  -0.7147   8.00    0.0
2019/01/15 09:27:27.000   4280216.8969  -4034411.1155  -2458258.3669   4  12   1.0006   0.9224   1.0244  -0.7831   0.7278  -0.7140  12.00    0.0
2019/01/15 09:27:40.000   4280225.4570  -4034415.5318  -2458280.5057   4  10   1.1610   0.9904   1.0421  -0.8948   0.7647  -0.7897  10.00    0.0
2019/01/15 09:27:44.000   4280236.3476  -4034424.8887  -2458275.6305   4  11   1.0005   0.9376   1.0223  -0.7827   0.7216  -0.7109  14.00    0.0
2019/01/15 09:27:47.000   4280229.6362  -4034414.8327  -2458284.7780   4  10   1.1608   0.9900   1.0409  -0.8945   0.7640  -0.7887   2.00    0.0
2019/01/15 09:27:49.000   4280230.5079  -4034427.3407  -2458279.3660   4  11   1.0002   0.9371   1.0212  -0.7823   0.7208  -0.7098   4.00    0.0
2019/01/15 09:27:50.000   4280221.4510  -4034414.2937  -2458267.8618   4  10   1.1608   0.9899   1.0405  -0.8944   0.7637  -0.7883   5.00    0.0
2019/01/15 09:27:52.000   4280223.7341  -4034420.3389  -2458273.3800   4   9   1.1610   1.0004   1.0536  -0.8934   0.7475  -0.7894   7.00    0.0
2019/01/15 09:27:53.000   4280239.4446  -4034431.1702  -2458272.3377   4  10   1.1609   0.9899   1.0401  -0.8944   0.7635  -0.7880   8.00    0.0
2019/01/15 09:27:54.000   4280224.5887  -4034418.4386  -2458268.2039   4  10   1.1610   0.9899   1.0400  -0.8944   0.7635  -0.7879   9.00    0.0
2019/01/15 09:27:55.000   4280226.8782  -4034421.7940  -2458276.2468   4  10   1.1610   0.9899   1.0399  -0.8944   0.7634  -0.7878  10.00    0.0
2019/01/15 09:27:57.000   4280219.8404  -4034419.7742  -2458274.9033   4  10   1.1611   0.9899   1.0396  -0.8944   0.7633  -0.7876  12.00    0.0
2019/01/15 09:28:01.000   4280219.8209  -4034410.2862  -2458276.1083   4  10   1.1608   0.9895   1.0389  -0.8941   0.7627  -0.7868   1.00    0.0
2019/01/15 09:28:02.000   4280228.4253  -4034422.7951  -2458274.4770   4  11   1.0000   0.9366   1.0191  -0.7818   0.7193  -0.7074   2.00    0.0
2019/01/15 09:28:04.000   4280232.6328  -4034422.4257  -2458279.4419   5  11  30.0000  30.0000  30.0000   0.0000   0.0000   0.0000   4.00    0.0
2019/01/15 09:28:05.000   4280213.1229  -4034414.7763  -2458263.0833   5  12  30.0000  30.0000  30.0000   0.0000   0.0000   0.0000   5.00    0.0
2019/01/15 09:28:08.000   4280213.5384  -4034411.9862  -2458265.6975   5  12  30.0000  30.0000  30.0000   0.0000   0.0000   0.0000   8.00    0.0
2019/01/15 09:28:20.000   4280224.8654  -4034424.4777  -2458259.2087   5  12  30.0000  30.0000  30.0000   0.0000   0.0000   0.0000   5.00    0.0
2019/01/15 09:28:23.000   4280226.1955  -4034417.4663  -2458258.4804   5  12  30.0000  30.0000  30.0000   0.0000   0.0000   0.0000   8.00    0.0
2019/01/15 09:28:26.000   4280234.7911  -4034430.7843  -2458272.1819   5  12  30.0000  30.0000  30.0000   0.0000   0.0000   0.0000  11.00    0.0
2019/01/15 09:28:32.000   4280205.1160  -4034401.3885  -2458260.0157   5  12  30.0000  30.0000  30.0000   0.0000   0.0000   0.0000   2.00    0.0
2019/01/15 09:28:36.000   4280228.3790  -4034418.5219  -2458272.4044   5  12  30.0000  30.0000  30.0000   0.0000   0.0000   0.0000   6.00    0.0
2019/01/15 09:28:39.000   4280232.4287  -4034424.9866  -2458276.8214   5  12  30.0000  30.0000  30.0000   0.0000   0.0000   0.0000   9.00    0.0
2019/01/15 09:28:43.000   4280234.8714  -4034421.6094  -2458275.9938   5  12  30.0000  30.0000  30.0000   0.0000   0.0000   0.0000  13.00    0.0
2019/01/15 09:28:47.000   4280224.1081  -4034418.3893  -2458272.1197   5  12  30.0000  30.0000  30.0000   0.0000   0.0000   0.0000   2.00    0.0
2019/01/15 09:28:51.000   4280224.0734  -4034413.9921  -2458274.5941   5  12  30.0000  30.0000  30.0000   0.0000   0.0000   0.0000   6.00    0.0
2019/01/15 09:28:54.000   4280244.3065  -4034433.5615  -2458297.0946   5  12  30.0000  30.0000  30.0000   0.0000   0.0000   0.0000   9.00    0.0
2019/01/15 09:28:55.000   4280206.1506  -4034405.4912  -2458276.4833   5  12  30.0000  30.0000  30.0000   0.0000   0.0000   0.0000  10.00    0.0
2019/01/15 09:28:56.000   4280217.8175  -4034422.3950  -2458275.5157   5  12  30.0000  30.0000  30.0000   0.0000   0.0000   0.0000  11.00    0.0
2019/01/15 09:28:57.000   4280215.6002  -4034422.5291  -2458271.6220   5  12  30.0000  30.0000  30.0000   0.0000   0.0000   0.0000  12.00    0.0
2019/01/15 09:28:58.000   4280224.7567  -4034425.4928  -2458276.2236   5  12  30.0000  30.0000  30.0000   0.0000   0.0000   0.0000  13.00    0.0
2019/01/15 09:29:00.000   4280219.2612  -4034416.5296  -2458269.2459   5  12  30.0000  30.0000  30.0000   0.0000   0.0000   0.0000   0.00    0.0
2019/01/15 09:29:02.000   4280206.6892  -4034401.9528  -2458268.7290   5  12  30.0000  30.0000  30.0000   0.0000   0.0000   0.0000   2.00    0.0
2019/01/15 09:29:42.000   4280223.8618  -4034419.4463  -2458271.4334   5  12  30.0000  30.0000  30.0000   0.0000   0.0000   0.0000  12.00    0.0
2019/01/15 09:29:43.000   4280214.7522  -4034413.5574  -2458268.4101   5  12  30.0000  30.0000  30.0000   0.0000   0.0000   0.0000  13.00    0.0
2019/01/15 09:29:44.000   4280215.4431  -4034411.0849  -2458258.8841   5  12  30.0000  30.0000  30.0000   0.0000   0.0000   0.0000  14.00    0.0
2019/01/15 09:29:53.000   4280222.0641  -4034419.1759  -2458257.1307   5  12  30.0000  30.0000  30.0000   0.0000   0.0000   0.0000   8.00    0.0
2019/01/15 09:29:55.000   4280226.3136  -4034410.9892  -2458253.8108   5  12  30.0000  30.0000  30.0000   0.0000   0.0000   0.0000  10.00    0.0
2019/01/15 09:29:59.000   4280231.7975  -4034431.1362  -2458271.1418   5  12  30.0000  30.0000  30.0000   0.0000   0.0000   0.0000  14.00    0.0
2019/01/15 09:30:00.000   4280219.7386  -4034420.6206  -2458259.5699   5  12  30.0000  30.0000  30.0000   0.0000   0.0000   0.0000   0.00    0.0
2019/01/15 09:30:01.000   4280223.3661  -4034413.1197  -2458254.4876   5  12  30.0000  30.0000  30.0000   0.0000   0.0000   0.0000   1.00    0.0
2019/01/15 09:30:03.000   4280225.7726  -4034419.7026  -2458275.5418   5  12  30.0000  30.0000  30.0000   0.0000   0.0000   0.0000   3.00    0.0
2019/01/15 09:30:04.000   4280222.3089  -4034415.1501  -2458255.3723   5  12  30.0000  30.0000  30.0000   0.0000   0.0000   0.0000   4.00    0.0
2019/01/15 09:30:14.000   4280225.2318  -4034417.1088  -2458251.3351   5  11  30.0000  30.0000  30.0000   0.0000   0.0000   0.0000  14.00    0.0
2019/01/15 09:30:15.000   4280224.6104  -4034423.9726  -2458269.0993   5  11  30.0000  30.0000  30.0000   0.0000   0.0000   0.0000   0.00    0.0
2019/01/15 09:30:18.000   4280221.3008  -4034419.6654  -2458262.8915   5  12  30.0000  30.0000  30.0000   0.0000   0.0000   0.0000   3.00    0.0
2019/01/15 09:30:22.000   4280220.6945  -4034419.3021  -2458262.0125   5  12  30.0000  30.0000  30.0000   0.0000   0.0000   0.0000   7.00    0.0
2019/01/15 09:30:25.000   4280211.2931  -4034408.1302  -2458255.1563   5  12  30.0000  30.0000  30.0000   0.0000   0.0000   0.0000  10.00    0.0
2019/01/15 09:30:26.000   4280211.7202  -4034412.8784  -2458251.4254   5  12  30.0000  30.0000  30.0000   0.0000   0.0000   0.0000  11.00    0.0
2019/01/15 09:30:27.000   4280214.3645  -4034415.2989  -2458263.2617   5  12  30.0000  30.0000  30.0000   0.0000   0.0000   0.0000  12.00    0.0
2019/01/15 09:30:29.000   4280216.5639  -4034405.0767  -2458268.7822   5  12  30.0000  30.0000  30.0000   0.0000   0.0000   0.0000  14.00    0.0
2019/01/15 09:30:31.000   4280225.8758  -4034420.9717  -2458269.4119   5  12  30.0000  30.0000  30.0000   0.0000   0.0000   0.0000   1.00    0.0
2019/01/15 09:30:33.000   4280218.1361  -4034414.7961  -2458264.9166   5  12  30.0000  30.0000  30.0000   0.0000   0.0000   0.0000   3.00    0.0
2019/01/15 09:30:40.000   4280212.5105  -4034394.4859  -2458254.3878   5  12  30.0000  30.0000  30.0000   0.0000   0.0000   0.0000  10.00    0.0
2019/01/15 09:30:44.000   4280216.4089  -4034404.6794  -2458263.8804   5  12  30.0000  30.0000  30.0000   0.0000   0.0000   0.0000  14.00    0.0
2019/01/15 09:30:46.000   4280211.0434  -4034414.7998  -2458267.1446   5  12  30.0000  30.0000  30.0000   0.0000   0.0000   0.0000   1.00    0.0
2019/01/15 09:30:50.000   4280216.3402  -4034415.6220  -2458280.3353   5  12  30.0000  30.0000  30.0000   0.0000   0.0000   0.0000   5.00    0.0
2019/01/15 09:30:53.000   4280217.6627  -4034413.9400  -2458282.3007   5  12  30.0000  30.0000  30.0000   0.0000   0.0000   0.0000   8.00    0.0
2019/01/15 09:30:54.000   4280223.1293  -4034413.7100  -2458275.1377   5  12  30.0000  30.0000  30.0000   0.0000   0.0000   0.0000   9.00    0.0
2019/01/15 09:30:55.000   4280201.9284  -4034403.8684  -2458264.4167   5  12  30.0000  30.0000  30.0000   0.0000   0.0000   0.0000  10.00    0.0
2019/01/15 09:31:01.000   4280229.2196  -4034420.1694  -2458278.5401   5  12  30.0000  30.0000  30.0000   0.0000   0.0000   0.0000   1.00    0.0
2019/01/15 09:31:05.000   4280213.1225  -4034406.0930  -2458245.1846   5  12  30.0000  30.0000  30.0000   0.0000   0.0000   0.0000   5.00    0.0
2019/01/15 09:31:06.000   4280225.8575  -4034418.8949  -2458270.8761   5  12  30.0000  30.0000  30.0000   0.0000   0.0000   0.0000   6.00    0.0
2019/01/15 09:31:29.000   4280221.2162  -4034421.9573  -2458274.3697   5  12  30.0000  30.0000  30.0000   0.0000   0.0000   0.0000  14.00    0.0
2019/01/15 09:32:01.000   4280213.8886  -4034415.8457  -2458254.6869   5  12  30.0000  30.0000  30.0000   0.0000   0.0000   0.0000   1.00    0.0
2019/01/15 09:32:11.000   4280227.3119  -4034434.4856  -2458273.8646   5  12  30.0000  30.0000  30.0000   0.0000   0.0000   0.0000  11.00    0.0
2019/01/15 09:32:18.000   4280226.1730  -4034429.6065  -2458263.4933   5  12  30.0000  30.0000  30.0000   0.0000   0.0000   0.0000   3.00    0.0
2019/01/15 09:32:19.000   4280218.9707  -4034414.1667  -2458258.8445   5  12  30.0000  30.0000  30.0000   0.0000   0.0000   0.0000   4.00    0.0
2019/01/15 09:32:21.000   4280225.2873  -4034424.2784  -2458266.3156   5  12  30.0000  30.0000  30.0000   0.0000   0.0000   0.0000   6.00    0.0
2019/01/15 09:32:26.000   4280220.3349  -4034418.7929  -2458262.9847   5  12  30.0000  30.0000  30.0000   0.0000   0.0000   0.0000  11.00    0.0
2019/01/15 09:32:27.000   4280229.6732  -4034422.0236  -2458270.2030   5  12  30.0000  30.0000  30.0000   0.0000   0.0000   0.0000  12.00    0.0
2019/01/15 09:32:28.000   4280229.0676  -4034430.4105  -2458265.3774   5  12  30.0000  30.0000  30.0000   0.0000   0.0000   0.0000  13.00    0.0
2019/01/15 09:32:29.000   4280222.7680  -4034424.7512  -2458258.3727   5  11  30.0000  30.0000  30.0000   0.0000   0.0000   0.0000  14.00    0.0
2019/01/15 09:32:32.000   4280214.4148  -4034408.2153  -2458263.4664   5  11  30.0000  30.0000  30.0000   0.0000   0.0000   0.0000   2.00    0.0
2019/01/15 09:32:33.000   4280224.1043  -4034417.8777  -2458271.8700   5  11  30.0000  30.0000  30.0000   0.0000   0.0000   0.0000   3.00    0.0
2019/01/15 09:32:35.000   4280219.4001  -4034406.1945  -2458266.3751   5  11  30.0000  30.0000  30.0000   0.0000   0.0000   0.0000   5.00    0.0
2019/01/15 09:32:36.000   4280225.4251  -4034415.4350  -2458280.6286   5  11  30.0000  30.0000  30.0000   0.0000   0.0000   0.0000   6.00    0.0
2019/01/15 09:32:46.000   4280219.6230  -4034424.4896  -2458281.2671   5  11  30.0000  30.0000  30.0000   0.0000   0.0000   0.0000   1.00    0.0
2019/01/15 09:32:54.000   4280200.2477  -4034410.2988  -2458256.2592   5  12  30.0000  30.0000  30.0000   0.0000   0.0000   0.0000   9.00    0.0
2019/01/15 09:33:05.000   4280209.4988  -4034404.9377  -2458239.9501   5  12  30.0000  30.0000  30.0000   0.0000   0.0000   0.0000   5.00    0.0
2019/01/15 09:33:06.000   4280209.1903  -4034408.3602  -2458237.9081   5  12  30.0000  30.0000  30.0000   0.0000   0.0000   0.0000   6.00    0.0
2019/01/15 09:33:09.000   4280210.4688  -4034411.8099  -2458259.8089   5  12  30.0000  30.0000  30.0000   0.0000   0.0000   0.0000   9.00    0.0
2019/01/15 09:33:10.000   4280221.5932  -4034421.8029  -2458274.1583   5  12  30.0000  30.0000  30.0000   0.0000   0.0000   0.0000  10.00    0.0
2019/01/15 09:33:17.000   4280219.5977  -4034419.4792  -2458272.8054   5  12  30.0000  30.0000  30.0000   0.0000   0.0000   0.0000   2.00    0.0
2019/01/15 09:33:37.000   4280213.8398  -4034419.3186  -2458255.9874   5  12  30.0000  30.0000  30.0000   0.0000   0.0000   0.0000   7.00    0.0
2019/01/15 09:33:51.000   4280214.3831  -4034402.3059  -2458254.2033   5  12  30.0000  30.0000  30.0000   0.0000   0.0000   0.0000   6.00    0.0
2019/01/15 09:33:59.000   4280219.8285  -4034404.2064  -2458276.6905   5  12  30.0000  30.0000  30.0000   0.0000   0.0000   0.0000  14.00    0.0
2019/01/15 09:34:03.000   4280188.3812  -4034381.7873  -2458236.1089   5  12  30.0000  30.0000  30.0000   0.0000   0.0000   0.0000   3.00    0.0
2019/01/15 09:34:30.000   4280217.2943  -4034423.1553  -2458274.9738   5  11  30.0000  30.0000  30.0000   0.0000   0.0000   0.0000   0.00    0.0
2019/01/15 09:34:32.000   4280209.4359  -4034395.2184  -2458255.0393   5  11  30.0000  30.0000  30.0000   0.0000   0.0000   0.0000   2.00    0.0
2019/01/15 09:34:34.000   4280222.9534  -4034422.7056  -2458264.2490   5  11  30.0000  30.0000  30.0000   0.0000   0.0000   0.0000   4.00    0.0
2019/01/15 09:34:46.000   4280216.6892  -4034402.5879  -2458269.4009   5  12  30.0000  30.0000  30.0000   0.0000   0.0000   0.0000   1.00    0.0
2019/01/15 09:34:47.000   4280229.7927  -4034419.3086  -2458272.6114   5  12  30.0000  30.0000  30.0000   0.0000   0.0000   0.0000   2.00    0.0
2019/01/15 09:34:51.000   4280216.8760  -4034400.0096  -2458272.0763   5  12  30.0000  30.0000  30.0000   0.0000   0.0000   0.0000   6.00    0.0
2019/01/15 09:34:53.000   4280217.2239  -4034412.6468  -2458272.3818   5  12  30.0000  30.0000  30.0000   0.0000   0.0000   0.0000   8.00    0.0
2019/01/15 09:34:54.000   4280211.9012  -4034412.3363  -2458270.0370   5  12  30.0000  30.0000  30.0000   0.0000   0.0000   0.0000   9.00    0.0
2019/01/15 09:34:55.000   4280211.2239  -4034409.2901  -2458272.6771   5  12  30.0000  30.0000  30.0000   0.0000   0.0000   0.0000  10.00    0.0
2019/01/15 09:35:06.000   4280217.3960  -4034419.0013  -2458268.7313   5  12  30.0000  30.0000  30.0000   0.0000   0.0000   0.0000   6.00    0.0
2019/01/15 09:35:07.000   4280223.8635  -4034425.2727  -2458270.5631   5  12  30.0000  30.0000  30.0000   0.0000   0.0000   0.0000   7.00    0.0
2019/01/15 09:35:09.000   4280203.8605  -4034410.0714  -2458249.6681   5  12  30.0000  30.0000  30.0000   0.0000   0.0000   0.0000   9.00    0.0
2019/01/15 09:35:21.000   4280229.4451  -4034424.9320  -2458269.3623   5  12  30.0000  30.0000  30.0000   0.0000   0.0000   0.0000   6.00    0.0
2019/01/15 09:35:26.000   4280234.6772  -4034425.3112  -2458271.6355   5  12  30.0000  30.0000  30.0000   0.0000   0.0000   0.0000  11.00    0.0
2019/01/15 09:35:39.000   4280220.2910  -4034407.6268  -2458258.7631   5  12  30.0000  30.0000  30.0000   0.0000   0.0000   0.0000   9.00    0.0
2019/01/15 09:35:46.000   4280213.3527  -4034404.6955  -2458263.0176   5  12  30.0000  30.0000  30.0000   0.0000   0.0000   0.0000   1.00    0.0
2019/01/15 09:35:48.000   4280216.7832  -4034411.7093  -2458271.4256   5  12  30.0000  30.0000  30.0000   0.0000   0.0000   0.0000   3.00    0.0
2019/01/15 09:36:26.000   4280205.9955  -4034386.3147  -2458256.5365   5  12  30.0000  30.0000  30.0000   0.0000   0.0000   0.0000  11.00    0.0
2019/01/15 09:36:33.000   4280208.3879  -4034423.4941  -2458279.4363   5  12  30.0000  30.0000  30.0000   0.0000   0.0000   0.0000   3.00    0.0
2019/01/15 09:36:34.000   4280205.0596  -4034410.1738  -2458271.5926   5  12  30.0000  30.0000  30.0000   0.0000   0.0000   0.0000   4.00    0.0
2019/01/15 09:36:38.000   4280226.6004  -4034423.6909  -2458272.4614   5  12  30.0000  30.0000  30.0000   0.0000   0.0000   0.0000   8.00    0.0
2019/01/15 09:36:43.000   4280227.8262  -4034421.5782  -2458264.2268   5  12  30.0000  30.0000  30.0000   0.0000   0.0000   0.0000  13.00    0.0
2019/01/15 09:37:16.000   4280222.1612  -4034424.1913  -2458278.1030   5  12  30.0000  30.0000  30.0000   0.0000   0.0000   0.0000   1.00    0.0
2019/01/15 09:37:18.000   4280221.5532  -4034422.2628  -2458277.4805   5  12  30.0000  30.0000  30.0000   0.0000   0.0000   0.0000   3.00    0.0
2019/01/15 09:37:19.000   4280221.0917  -4034410.5126  -2458271.4769   5  12  30.0000  30.0000  30.0000   0.0000   0.0000   0.0000   4.00    0.0
2019/01/15 09:37:24.000   4280225.8163  -4034434.5851  -2458269.7110   5  12  30.0000  30.0000  30.0000   0.0000   0.0000   0.0000   9.00    0.0
2019/01/15 09:37:29.000   4280237.1883  -4034424.1243  -2458282.6794   5  12  30.0000  30.0000  30.0000   0.0000   0.0000   0.0000  14.00    0.0
2019/01/15 09:37:33.000   4280229.1136  -4034429.8461  -2458269.0758   5  12  30.0000  30.0000  30.0000   0.0000   0.0000   0.0000   3.00    0.0
2019/01/15 09:37:35.000   4280227.9911  -4034416.5457  -2458269.6653   5  12  30.0000  30.0000  30.0000   0.0000   0.0000   0.0000   5.00    0.0
2019/01/15 09:37:36.000   4280230.3865  -4034419.6983  -2458270.5198   5  12  30.0000  30.0000  30.0000   0.0000   0.0000   0.0000   6.00    0.0
2019/01/15 09:37:37.000   4280225.0740  -4034424.9701  -2458269.1684   5  12  30.0000  30.0000  30.0000   0.0000   0.0000   0.0000   7.00    0.0
2019/01/15 09:37:41.000   4280229.8785  -4034417.9414  -2458272.7000   5  12  30.0000  30.0000  30.0000   0.0000   0.0000   0.0000  11.00    0.0
2019/01/15 09:37:42.000   4280225.0312  -4034416.4841  -2458265.9996   5  12  30.0000  30.0000  30.0000   0.0000   0.0000   0.0000  12.00    0.0
2019/01/15 09:37:44.000   4280228.9421  -4034414.9287  -2458258.6660   5  12  30.0000  30.0000  30.0000   0.0000   0.0000   0.0000  14.00    0.0
2019/01/15 09:37:45.000   4280227.1087  -4034417.4621  -2458266.0052   5  12  30.0000  30.0000  30.0000   0.0000   0.0000   0.0000   0.00    0.0
2019/01/15 09:37:47.000   4280218.6838  -4034416.4310  -2458266.3161   5  12  30.0000  30.0000  30.0000   0.0000   0.0000   0.0000   2.00    0.0
2019/01/15 09:37:52.000   4280227.0924  -4034418.0795  -2458258.0004   5  12  30.0000  30.0000  30.0000   0.0000   0.0000   0.0000   7.00    0.0
2019/01/15 09:38:17.000   4280222.8361  -4034420.6406  -2458269.7213   5  12  30.0000  30.0000  30.0000   0.0000   0.0000   0.0000   2.00    0.0
2019/01/15 09:38:20.000   4280227.6617  -4034422.8461  -2458264.1309   5  12  30.0000  30.0000  30.0000   0.0000   0.0000   0.0000   5.00    0.0
2019/01/15 09:38:22.000   4280234.2811  -4034419.6558  -2458273.3552   5  12  30.0000  30.0000  30.0000   0.0000   0.0000   0.0000   7.00    0.0
2019/01/15 09:38:28.000   4280225.4968  -4034424.1389  -2458263.1015   5  12  30.0000  30.0000  30.0000   0.0000   0.0000   0.0000  13.00    0.0
2019/01/15 09:38:33.000   4280207.6994  -4034413.1608  -2458257.8753   5  12  30.0000  30.0000  30.0000   0.0000   0.0000   0.0000   3.00    0.0
2019/01/15 09:38:36.000   4280225.7857  -4034421.4665  -2458267.6851   5  12  30.0000  30.0000  30.0000   0.0000   0.0000   0.0000   6.00    0.0
2019/01/15 09:38:39.000   4280211.6971  -4034414.9957  -2458279.1523   5  12  30.0000  30.0000  30.0000   0.0000   0.0000   0.0000   9.00    0.0
2019/01/15 09:38:43.000   4280216.3419  -4034409.8183  -2458275.4356   5  12  30.0000  30.0000  30.0000   0.0000   0.0000   0.0000  13.00    0.0
2019/01/15 09:38:46.000   4280231.2907  -4034423.5873  -2458279.1072   5  12  30.0000  30.0000  30.0000   0.0000   0.0000   0.0000   1.00    0.0
2019/01/15 09:38:49.000   4280231.5455  -4034424.4994  -2458276.9284   5  12  30.0000  30.0000  30.0000   0.0000   0.0000   0.0000   4.00    0.0
2019/01/15 09:38:58.000   4280215.6282  -4034417.9023  -2458274.3148   5  12  30.0000  30.0000  30.0000   0.0000   0.0000   0.0000  13.00    0.0
2019/01/15 09:39:02.000   4280218.5860  -4034416.3187  -2458266.2668   5  12  30.0000  30.0000  30.0000   0.0000   0.0000   0.0000   2.00    0.0
2019/01/15 09:39:09.000   4280226.2258  -4034422.0842  -2458272.2610   5  12  30.0000  30.0000  30.0000   0.0000   0.0000   0.0000   9.00    0.0
2019/01/15 09:39:12.000   4280234.8664  -4034420.9932  -2458272.6796   5  12  30.0000  30.0000  30.0000   0.0000   0.0000   0.0000  12.00    0.0
2019/01/15 09:39:13.000   4280220.7404  -4034402.4143  -2458255.5010   5  12  30.0000  30.0000  30.0000   0.0000   0.0000   0.0000  13.00    0.0
2019/01/15 09:39:21.000   4280207.8463  -4034418.6400  -2458269.6953   5  12  30.0000  30.0000  30.0000   0.0000   0.0000   0.0000   6.00    0.0
2019/01/15 09:39:30.000   4280227.2473  -4034410.5194  -2458282.4137   5  12  30.0000  30.0000  30.0000   0.0000   0.0000   0.0000   0.00    0.0
2019/01/15 09:39:43.000   4280213.3976  -4034410.4071  -2458272.2990   5  12  30.0000  30.0000  30.0000   0.0000   0.0000   0.0000  13.00    0.0
2019/01/15 09:40:18.000   4280207.5713  -4034404.1634  -2458266.5074   5  12  30.0000  30.0000  30.0000   0.0000   0.0000   0.0000   3.00    0.0
2019/01/15 09:40:23.000   4280217.2076  -4034412.2956  -2458277.1668   5  12  30.0000  30.0000  30.0000   0.0000   0.0000   0.0000   8.00    0.0
2019/01/15 09:40:36.000   4280213.0673  -4034411.2758  -2458262.2412   5  12  30.0000  30.0000  30.0000   0.0000   0.0000   0.0000   6.00    0.0
2019/01/15 09:40:42.000   4280218.7270  -4034418.6053  -2458275.1879   5  12  30.0000  30.0000  30.0000   0.0000   0.0000   0.0000  12.00    0.0
2019/01/15 09:40:47.000   4280219.7296  -4034410.9192  -2458267.2013   5  12  30.0000  30.0000  30.0000   0.0000   0.0000   0.0000   2.00    0.0
2019/01/15 09:40:55.000   4280231.7848  -4034426.5370  -2458272.3777   5  12  30.0000  30.0000  30.0000   0.0000   0.0000   0.0000  10.00    0.0
2019/01/15 09:40:56.000   4280228.5328  -4034425.2564  -2458276.0262   5  12  30.0000  30.0000  30.0000   0.0000   0.0000   0.0000  11.00    0.0
2019/01/15 09:41:00.000   4280214.7153  -4034409.5638  -2458261.2121   5  12  30.0000  30.0000  30.0000   0.0000   0.0000   0.0000   0.00    0.0
2019/01/15 09:41:01.000   4280211.4083  -4034404.3299  -2458250.3787   5  12  30.0000  30.0000  30.0000   0.0000   0.0000   0.0000   1.00    0.0
2019/01/15 09:41:02.000   4280212.7200  -4034409.9573  -2458272.9916   5  12  30.0000  30.0000  30.0000   0.0000   0.0000   0.0000   2.00    0.0
2019/01/15 09:41:11.000   4280238.3791  -4034423.5448  -2458269.1325   5  12  30.0000  30.0000  30.0000   0.0000   0.0000   0.0000  11.00    0.0
2019/01/15 09:41:12.000   4280219.6036  -4034409.8498  -2458250.2127   5  12  30.0000  30.0000  30.0000   0.0000   0.0000   0.0000  12.00    0.0
2019/01/15 09:41:16.000   4280223.0514  -4034419.7314  -2458265.8383   5  12  30.0000  30.0000  30.0000   0.0000   0.0000   0.0000   1.00    0.0
2019/01/15 09:41:17.000   4280223.8736  -4034420.8893  -2458273.3773   5  12  30.0000  30.0000  30.0000   0.0000   0.0000   0.0000   2.00    0.0
2019/01/15 09:41:18.000   4280229.4420  -4034430.1114  -2458277.9706   5  12  30.0000  30.0000  30.0000   0.0000   0.0000   0.0000   3.00    0.0
2019/01/15 09:41:19.000   4280219.0046  -4034427.8425  -2458269.3087   5  12  30.0000  30.0000  30.0000   0.0000   0.0000   0.0000   4.00    0.0
2019/01/15 09:41:20.000   4280220.1783  -4034426.1221  -2458274.8520   5  12  30.0000  30.0000  30.0000   0.0000   0.0000   0.0000   5.00    0.0
2019/01/15 09:41:27.000   4280220.8677  -4034420.4902  -2458276.2704   5  12  30.0000  30.0000  30.0000   0.0000   0.0000   0.0000  12.00    0.0
2019/01/15 09:41:31.000   4280233.0578  -4034432.1536  -2458277.0113   5  12  30.0000  30.0000  30.0000   0.0000   0.0000   0.0000   1.00    0.0
2019/01/15 09:41:32.000   4280227.0072  -4034419.0655  -2458273.4679   5  12  30.0000  30.0000  30.0000   0.0000   0.0000   0.0000   2.00    0.0
2019/01/15 09:41:38.000   4280221.0418  -4034417.8033  -2458277.2137   5  12  30.0000  30.0000  30.0000   0.0000   0.0000   0.0000   8.00    0.0
2019/01/15 09:41:40.000   4280212.0004  -4034410.7664  -2458266.6269   5  12  30.0000  30.0000  30.0000   0.0000   0.0000   0.0000  10.00    0.0
2019/01/15 09:41:41.000   4280227.9841  -4034418.6843  -2458271.1469   5  12  30.0000  30.0000  30.0000   0.0000   0.0000   0.0000  11.00    0.0
2019/01/15 09:41:43.000   4280218.1141  -4034413.6313  -2458265.2809   5  12  30.0000  30.0000  30.0000   0.0000   0.0000   0.0000  13.00    0.0
2019/01/15 09:41:50.000   4280224.8617  -4034419.7309  -2458267.2011   5  12  30.0000  30.0000  30.0000   0.0000   0.0000   0.0000   5.00    0.0
2019/01/15 09:41:51.000   4280212.8495  -4034406.6233  -2458250.4486   5  12  30.0000  30.0000  30.0000   0.0000   0.0000   0.0000   6.00    0.0
2019/01/15 09:41:54.000   4280219.5026  -4034416.4431  -2458264.0173   5  12  30.0000  30.0000  30.0000   0.0000   0.0000   0.0000   9.00    0.0
2019/01/15 09:42:00.000   4280238.5988  -4034421.6245  -2458271.5027   5  12  30.0000  30.0000  30.0000   0.0000   0.0000   0.0000   0.00    0.0
2019/01/15 09:42:01.000   4280208.1442  -4034406.1238  -2458259.4413   5  12  30.0000  30.0000  30.0000   0.0000   0.0000   0.0000   1.00    0.0
2019/01/15 09:42:05.000   4280210.3218  -4034410.6932  -2458259.8403   5  12  30.0000  30.0000  30.0000   0.0000   0.0000   0.0000   5.00    0.0
2019/01/15 09:42:09.000   4280213.4929  -4034419.9231  -2458264.3101   5  12  30.0000  30.0000  30.0000   0.0000   0.0000   0.0000   9.00    0.0
2019/01/15 09:42:31.000   4280222.5086  -4034418.0443  -2458267.4466   5  12  30.0000  30.0000  30.0000   0.0000   0.0000   0.0000   1.00    0.0
2019/01/15 09:42:32.000   4280231.2608  -4034429.6716  -2458289.2459   5  12  30.0000  30.0000  30.0000   0.0000   0.0000   0.0000   2.00    0.0
2019/01/15 09:42:36.000   4280211.1870  -4034409.8595  -2458259.4815   5  12  30.0000  30.0000  30.0000   0.0000   0.0000   0.0000   6.00    0.0
2019/01/15 09:42:37.000   4280218.4175  -4034415.5835  -2458277.9672   5  12  30.0000  30.0000  30.0000   0.0000   0.0000   0.0000   7.00    0.0
2019/01/15 09:42:38.000   4280218.5343  -4034419.0502  -2458272.1297   5  12  30.0000  30.0000  30.0000   0.0000   0.0000   0.0000   8.00    0.0
2019/01/15 09:42:43.000   4280214.4500  -4034425.0755  -2458277.6398   5  12  30.0000  30.0000  30.0000   0.0000   0.0000   0.0000  13.00    0.0
2019/01/15 09:42:46.000   4280228.1019  -4034422.4813  -2458276.1712   5  12  30.0000  30.0000  30.0000   0.0000   0.0000   0.0000   1.00    0.0
2019/01/15 09:42:52.000   4280223.3226  -4034416.1039  -2458269.7144   5  12  30.0000  30.0000  30.0000   0.0000   0.0000   0.0000   7.00    0.0
2019/01/15 09:42:59.000   4280222.3755  -4034406.1321  -2458264.0577   5  12  30.0000  30.0000  30.0000   0.0000   0.0000   0.0000  14.00    0.0
2019/01/15 09:43:00.000   4280223.5639  -4034415.8805  -2458274.2261   5  12  30.0000  30.0000  30.0000   0.0000   0.0000   0.0000   0.00    0.0
2019/01/15 09:43:05.000   4280215.6686  -4034416.1847  -2458267.2058   5  12  30.0000  30.0000  30.0000   0.0000   0.0000   0.0000   5.00    0.0
2019/01/15 09:43:06.000   4280233.3984  -4034425.4674  -2458271.4726   5  12  30.0000  30.0000  30.0000   0.0000   0.0000   0.0000   6.00    0.0
2019/01/15 09:43:10.000   4280222.1263  -4034413.8492  -2458264.2638   5  12  30.0000  30.0000  30.0000   0.0000   0.0000   0.0000  10.00    0.0
2019/01/15 09:43:12.000   4280223.9718  -4034418.7507  -2458273.7067   5  12  30.0000  30.0000  30.0000   0.0000   0.0000   0.0000  12.00    0.0
2019/01/15 09:43:21.000   4280211.9559  -4034408.8203  -2458258.9933   5  12  30.0000  30.0000  30.0000   0.0000   0.0000   0.0000   6.00    0.0
2019/01/15 09:43:22.000   4280219.5458  -4034413.0647  -2458264.3868   5  12  30.0000  30.0000  30.0000   0.0000   0.0000   0.0000   7.00    0.0
2019/01/15 09:43:25.000   4280206.1711  -4034405.3809  -2458261.4964   5  12  30.0000  30.0000  30.0000   0.0000   0.0000   0.0000  10.00    0.0
2019/01/15 09:43:28.000   4280203.3658  -4034399.2891  -2458256.9110   5  12  30.0000  30.0000  30.0000   0.0000   0.0000   0.0000  13.00    0.0
2019/01/15 09:43:31.000   4280217.5846  -4034415.5241  -2458254.2285   5  12  30.0000  30.0000  30.0000   0.0000   0.0000   0.0000   1.00    0.0
2019/01/15 09:43:32.000   4280233.0624  -4034416.9361  -2458259.7673   5  12  30.0000  30.0000  30.0000   0.0000   0.0000   0.0000   2.00    0.0
2019/01/15 09:43:33.000   4280222.7595  -4034405.3805  -2458254.4328   5  12  30.0000  30.0000  30.0000   0.0000   0.0000   0.0000   3.00    0.0
2019/01/15 09:43:38.000   4280215.2163  -4034395.6369  -2458260.6229   5  12  30.0000  30.0000  30.0000   0.0000   0.0000   0.0000   8.00    0.0
2019/01/15 09:43:39.000   4280212.6737  -4034402.4840  -2458259.3182   5  12  30.0000  30.0000  30.0000   0.0000   0.0000   0.0000   9.00    0.0
2019/01/15 09:43:40.000   4280209.1768  -4034410.1428  -2458269.1118   5  12  30.0000  30.0000  30.0000   0.0000   0.0000   0.0000  10.00    0.0
2019/01/15 09:43:41.000   4280217.3501  -4034405.2816  -2458264.4137   5  12  30.0000  30.0000  30.0000   0.0000   0.0000   0.0000  11.00    0.0
2019/01/15 09:43:46.000   4280215.9891  -4034400.3799  -2458256.9395   5  12  30.0000  30.0000  30.0000   0.0000   0.0000   0.0000   1.00    0.0
2019/01/15 09:43:48.000   4280223.0909  -4034405.8572  -2458265.5325   5  12  30.0000  30.0000  30.0000   0.0000   0.0000   0.0000   3.00    0.0
2019/01/15 09:43:49.000   4280229.7966  -4034423.8349  -2458267.1602   5  12  30.0000  30.0000  30.0000   0.0000   0.0000   0.0000   4.00    0.0
2019/01/15 09:43:51.000   4280218.7188  -4034411.3722  -2458256.5851   5  12  30.0000  30.0000  30.0000   0.0000   0.0000   0.0000   6.00    0.0
2019/01/15 09:43:54.000   4280210.3386  -4034398.2953  -2458253.5815   5  12  30.0000  30.0000  30.0000   0.0000   0.0000   0.0000   9.00    0.0
2019/01/15 09:43:55.000   4280210.3122  -4034404.0265  -2458261.9046   5  12  30.0000  30.0000  30.0000   0.0000   0.0000   0.0000  10.00    0.0
2019/01/15 09:43:56.000   4280205.4340  -4034397.4116  -2458259.1785   5  12  30.0000  30.0000  30.0000   0.0000   0.0000   0.0000  11.00    0.0
2019/01/15 09:43:58.000   4280216.1078  -4034417.0552  -2458264.4659   5  12  30.0000  30.0000  30.0000   0.0000   0.0000   0.0000  13.00    0.0
2019/01/15 09:44:07.000   4280216.4944  -4034419.9731  -2458265.3083   5  10  30.0000  30.0000  30.0000   0.0000   0.0000   0.0000   7.00    0.0
2019/01/15 09:44:13.000   4280201.0092  -4034405.2670  -2458256.9988   5  11  30.0000  30.0000  30.0000   0.0000   0.0000   0.0000  13.00    0.0
2019/01/15 09:44:24.000   4280228.9374  -4034418.1492  -2458283.1582   5  12  30.0000  30.0000  30.0000   0.0000   0.0000   0.0000   9.00    0.0
2019/01/15 09:44:40.000   4280220.8622  -4034422.6204  -2458272.8043   5  12  30.0000  30.0000  30.0000   0.0000   0.0000   0.0000  10.00    0.0
2019/01/15 09:44:41.000   4280213.7418  -4034413.6176  -2458262.6000   5  12  30.0000  30.0000  30.0000   0.0000   0.0000   0.0000  11.00    0.0
2019/01/15 09:44:49.000   4280232.0465  -4034421.5656  -2458267.1158   5  12  30.0000  30.0000  30.0000   0.0000   0.0000   0.0000   4.00    0.0
2019/01/15 09:44:51.000   4280226.4926  -4034419.3819  -2458259.6756   5  12  30.0000  30.0000  30.0000   0.0000   0.0000   0.0000   6.00    0.0
2019/01/15 09:45:02.000   4280225.2395  -4034407.8570  -2458260.8739   5  12  30.0000  30.0000  30.0000   0.0000   0.0000   0.0000   2.00    0.0
2019/01/15 09:45:07.000   4280222.9212  -4034415.2736  -2458256.2997   5  12  30.0000  30.0000  30.0000   0.0000   0.0000   0.0000   7.00    0.0
2019/01/15 09:45:12.000   4280232.1642  -4034424.6973  -2458264.8774   5  12  30.0000  30.0000  30.0000   0.0000   0.0000   0.0000  12.00    0.0
2019/01/15 09:45:13.000   4280221.1579  -4034412.0162  -2458257.9657   5  12  30.0000  30.0000  30.0000   0.0000   0.0000   0.0000  13.00    0.0
2019/01/15 09:45:26.000   4280224.8650  -4034411.2224  -2458256.9104   5  12  30.0000  30.0000  30.0000   0.0000   0.0000   0.0000  11.00    0.0
2019/01/15 09:45:31.000   4280222.9684  -4034415.1102  -2458256.4225   5  12  30.0000  30.0000  30.0000   0.0000   0.0000   0.0000   1.00    0.0
2019/01/15 09:45:32.000   4280216.9895  -4034411.3220  -2458255.4538   5  12  30.0000  30.0000  30.0000   0.0000   0.0000   0.0000   2.00    0.0
2019/01/15 09:45:34.000   4280212.9337  -4034413.3030  -2458263.7704   5  12  30.0000  30.0000  30.0000   0.0000   0.0000   0.0000   4.00    0.0
2019/01/15 09:45:40.000   4280213.5613  -4034419.3280  -2458264.9591   5  12  30.0000  30.0000  30.0000   0.0000   0.0000   0.0000  10.00    0.0
2019/01/15 09:45:47.000   4280220.9854  -4034420.3705  -2458269.6893   5  12  30.0000  30.0000  30.0000   0.0000   0.0000   0.0000   2.00    0.0
2019/01/15 09:45:51.000   4280214.5304  -4034415.1565  -2458253.6876   5  12  30.0000  30.0000  30.0000   0.0000   0.0000   0.0000   6.00    0.0
2019/01/15 09:46:31.000   4280218.2762  -4034416.8220  -2458273.3196   5  12  30.0000  30.0000  30.0000   0.0000   0.0000   0.0000   1.00    0.0
2019/01/15 09:46:37.000   4280217.5875  -4034421.5440  -2458281.5655   5  12  30.0000  30.0000  30.0000   0.0000   0.0000   0.0000   7.00    0.0
2019/01/15 09:46:38.000   4280216.9433  -4034419.8798  -2458272.7687   5  12  30.0000  30.0000  30.0000   0.0000   0.0000   0.0000   8.00    0.0
2019/01/15 09:46:39.000   4280231.8482  -4034431.5353  -2458278.3713   5  12  30.0000  30.0000  30.0000   0.0000   0.0000   0.0000   9.00    0.0
2019/01/15 09:46:44.000   4280228.3833  -4034432.0234  -2458271.9463   5  12  30.0000  30.0000  30.0000   0.0000   0.0000   0.0000  14.00    0.0
2019/01/15 09:46:50.000   4280217.3622  -4034404.6191  -2458263.5502   5  12  30.0000  30.0000  30.0000   0.0000   0.0000   0.0000   5.00    0.0
2019/01/15 09:46:51.000   4280224.8355  -4034420.3769  -2458274.4362   5  12  30.0000  30.0000  30.0000   0.0000   0.0000   0.0000   6.00    0.0
2019/01/15 09:46:52.000   4280235.0851  -4034419.9898  -2458274.5811   5  12  30.0000  30.0000  30.0000   0.0000   0.0000   0.0000   7.00    0.0
2019/01/15 09:46:56.000   4280228.3160  -4034416.5143  -2458262.9880   5  12  30.0000  30.0000  30.0000   0.0000   0.0000   0.0000  11.00    0.0
2019/01/15 09:47:00.000   4280223.6812  -4034418.4057  -2458265.6003   5  12  30.0000  30.0000  30.0000   0.0000   0.0000   0.0000   0.00    0.0
2019/01/15 09:47:02.000   4280224.0586  -4034421.4420  -2458261.3851   5  12  30.0000  30.0000  30.0000   0.0000   0.0000   0.0000   2.00    0.0
2019/01/15 09:47:15.000   4280216.6570  -4034419.3807  -2458271.7444   5  12  30.0000  30.0000  30.0000   0.0000   0.0000   0.0000   0.00    0.0
2019/01/15 09:47:24.000   4280211.9789  -4034417.0254  -2458266.5691   5  12  30.0000  30.0000  30.0000   0.0000   0.0000   0.0000   9.00    0.0
2019/01/15 09:47:27.000   4280220.1534  -4034422.2232  -2458259.0508   5  12  30.0000  30.0000  30.0000   0.0000   0.0000   0.0000  12.00    0.0
2019/01/15 09:47:29.000   4280211.0201  -4034413.4103  -2458261.5662   5  12  30.0000  30.0000  30.0000   0.0000   0.0000   0.0000  14.00    0.0
2019/01/15 09:47:35.000   4280217.8983  -4034415.6835  -2458274.3756   5  12  30.0000  30.0000  30.0000   0.0000   0.0000   0.0000   5.00    0.0
2019/01/15 09:47:36.000   4280210.1576  -4034409.9948  -2458272.5341   5  12  30.0000  30.0000  30.0000   0.0000   0.0000   0.0000   6.00    0.0
2019/01/15 09:47:39.000   4280213.3217  -4034416.5418  -2458257.9696   5  12  30.0000  30.0000  30.0000   0.0000   0.0000   0.0000   9.00    0.0
2019/01/15 09:47:42.000   4280216.3214  -4034416.9084  -2458258.4334   5  12  30.0000  30.0000  30.0000   0.0000   0.0000   0.0000  12.00    0.0
2019/01/15 09:47:43.000   4280214.0578  -4034412.6270  -2458256.3013   5  12  30.0000  30.0000  30.0000   0.0000   0.0000   0.0000  13.00    0.0
2019/01/15 09:47:45.000   4280208.9256  -4034407.1189  -2458255.6054   5  12  30.0000  30.0000  30.0000   0.0000   0.0000   0.0000   0.00    0.0
2019/01/15 09:47:49.000   4280220.8363  -4034423.2916  -2458268.0195   5  12  30.0000  30.0000  30.0000   0.0000   0.0000   0.0000   4.00    0.0
2019/01/15 09:47:50.000   4280226.5210  -4034426.4600  -2458269.7148   5  12  30.0000  30.0000  30.0000   0.0000   0.0000   0.0000   5.00    0.0
2019/01/15 09:47:52.000   4280216.3283  -4034408.7381  -2458266.6834   5  12  30.0000  30.0000  30.0000   0.0000   0.0000   0.0000   7.00    0.0
2019/01/15 09:47:53.000   4280212.7208  -4034400.1410  -2458262.7685   5  12  30.0000  30.0000  30.0000   0.0000   0.0000   0.0000   8.00    0.0
2019/01/15 09:47:56.000   4280220.5359  -4034408.1541  -2458256.5274   5  12  30.0000  30.0000  30.0000   0.0000   0.0000   0.0000  11.00    0.0
2019/01/15 09:47:57.000   4280214.4902  -4034410.4232  -2458260.8622   5  12  30.0000  30.0000  30.0000   0.0000   0.0000   0.0000  12.00    0.0
2019/01/15 09:47:58.000   4280234.9492  -4034415.2433  -2458266.2896   5  12  30.0000  30.0000  30.0000   0.0000   0.0000   0.0000  13.00    0.0
2019/01/15 09:48:00.000   4280223.1726  -4034413.0315  -2458258.2590   4  12   1.0767   0.9166   0.8720  -0.7977   0.6366  -0.5525   0.00    0.0
2019/01/15 09:48:02.000   4280217.5578  -4034400.5480  -2458254.6859   5  12  30.0000  30.0000  30.0000   0.0000   0.0000   0.0000   2.00    0.0
2019/01/15 09:48:08.000   4280217.3515  -4034415.1935  -2458273.1381   5  12  30.0000  30.0000  30.0000   0.0000   0.0000   0.0000   8.00    0.0
2019/01/15 09:48:09.000   4280224.8687  -4034419.2682  -2458264.7108   5  12  30.0000  30.0000  30.0000   0.0000   0.0000   0.0000   9.00    0.0
2019/01/15 09:48:26.000   4280209.0372  -4034412.7199  -2458260.0178   5  12  30.0000  30.0000  30.0000   0.0000   0.0000   0.0000  11.00    0.0
2019/01/15 09:48:29.000   4280225.9310  -4034424.1730  -2458265.7538   5  12  30.0000  30.0000  30.0000   0.0000   0.0000   0.0000  14.00    0.0
2019/01/15 09:48:32.000   4280227.8881  -4034417.8847  -2458268.6150   5  12  30.0000  30.0000  30.0000   0.0000   0.0000   0.0000   2.00    0.0
2019/01/15 09:48:33.000   4280225.8960  -4034414.8983  -2458267.7534   5  12  30.0000  30.0000  30.0000   0.0000   0.0000   0.0000   3.00    0.0
2019/01/15 09:48:37.000   4280220.9328  -4034418.4071  -2458267.8589   5  12  30.0000  30.0000  30.0000   0.0000   0.0000   0.0000   7.00    0.0
2019/01/15 09:48:39.000   4280223.2505  -4034419.8036  -2458261.2901   5  12  30.0000  30.0000  30.0000   0.0000   0.0000   0.0000   9.00    0.0
2019/01/15 09:48:45.000   4280209.6201  -4034405.8346  -2458265.3289   5  11  30.0000  30.0000  30.0000   0.0000   0.0000   0.0000   0.00    0.0
2019/01/15 09:48:51.000   4280224.4567  -4034400.0966  -2458253.3434   5  11  30.0000  30.0000  30.0000   0.0000   0.0000   0.0000   6.00    0.0
2019/01/15 09:48:53.000   4280229.5540  -4034403.3421  -2458264.8495   5  11  30.0000  30.0000  30.0000   0.0000   0.0000   0.0000   8.00    0.0
2019/01/15 09:48:59.000   4280212.5835  -4034410.9770  -2458258.2715   5  11  30.0000  30.0000  30.0000   0.0000   0.0000   0.0000  14.00    0.0
2019/01/15 09:49:00.000   4280199.0152  -4034399.7251  -2458249.4021   5  11  30.0000  30.0000  30.0000   0.0000   0.0000   0.0000   0.00    0.0
2019/01/15 09:49:01.000   4280199.3011  -4034398.2905  -2458251.7537   5  11  30.0000  30.0000  30.0000   0.0000   0.0000   0.0000   1.00    0.0
2019/01/15 09:49:02.000   4280218.4982  -4034410.1557  -2458259.4686   5  11  30.0000  30.0000  30.0000   0.0000   0.0000   0.0000   2.00    0.0
2019/01/15 09:49:05.000   4280232.4103  -4034418.7895  -2458258.2469   5  11  30.0000  30.0000  30.0000   0.0000   0.0000   0.0000   5.00    0.0
2019/01/15 09:49:06.000   4280232.1512  -4034412.6642  -2458260.7614   5  11  30.0000  30.0000  30.0000   0.0000   0.0000   0.0000   6.00    0.0
2019/01/15 09:49:07.000   4280238.1334  -4034424.1461  -2458261.7798   5  11  30.0000  30.0000  30.0000   0.0000   0.0000   0.0000   7.00    0.0
2019/01/15 09:49:11.000   4280226.6073  -4034418.8386  -2458272.3558   5  11  30.0000  30.0000  30.0000   0.0000   0.0000   0.0000  11.00    0.0
2019/01/15 09:49:13.000   4280232.4814  -4034410.7891  -2458264.5850   5  11  30.0000  30.0000  30.0000   0.0000   0.0000   0.0000  13.00    0.0
2019/01/15 09:49:17.000   4280218.2938  -4034420.9153  -2458270.4473   5  11  30.0000  30.0000  30.0000   0.0000   0.0000   0.0000   2.00    0.0
2019/01/15 09:49:23.000   4280212.5099  -4034416.8271  -2458271.0609   5  11  30.0000  30.0000  30.0000   0.0000   0.0000   0.0000   8.00    0.0
2019/01/15 09:49:24.000   4280209.0282  -4034415.4690  -2458272.3824   5  11  30.0000  30.0000  30.0000   0.0000   0.0000   0.0000   9.00    0.0
2019/01/15 09:49:26.000   4280212.5220  -4034417.6219  -2458267.2909   5  11  30.0000  30.0000  30.0000   0.0000   0.0000   0.0000  11.00    0.0
2019/01/15 09:49:27.000   4280203.7671  -4034400.5608  -2458250.3831   5  11  30.0000  30.0000  30.0000   0.0000   0.0000   0.0000  12.00    0.0
2019/01/15 09:49:28.000   4280216.6551  -4034412.8166  -2458270.9819   5  11  30.0000  30.0000  30.0000   0.0000   0.0000   0.0000  13.00    0.0
2019/01/15 09:49:29.000   4280207.2210  -4034404.1511  -2458271.1707   5  11  30.0000  30.0000  30.0000   0.0000   0.0000   0.0000  14.00    0.0
2019/01/15 09:49:33.000   4280219.7714  -4034416.7411  -2458270.5904   5  11  30.0000  30.0000  30.0000   0.0000   0.0000   0.0000   3.00    0.0
2019/01/15 09:49:34.000   4280228.4032  -4034419.4187  -2458269.3715   5  11  30.0000  30.0000  30.0000   0.0000   0.0000   0.0000   4.00    0.0
2019/01/15 09:49:41.000   4280220.5032  -4034405.5623  -2458266.2347   5  11  30.0000  30.0000  30.0000   0.0000   0.0000   0.0000  11.00    0.0
2019/01/15 09:49:45.000   4280218.4719  -4034402.3673  -2458260.1117   5  11  30.0000  30.0000  30.0000   0.0000   0.0000   0.0000   0.00    0.0
2019/01/15 09:49:47.000   4280209.7660  -4034401.6168  -2458258.5238   5  11  30.0000  30.0000  30.0000   0.0000   0.0000   0.0000   2.00    0.0
2019/01/15 09:49:49.000   4280208.6516  -4034402.8296  -2458258.0013   5  11  30.0000  30.0000  30.0000   0.0000   0.0000   0.0000   4.00    0.0
2019/01/15 09:49:50.000   4280228.8219  -4034415.4835  -2458259.7317   5  11  30.0000  30.0000  30.0000   0.0000   0.0000   0.0000   5.00    0.0
2019/01/15 09:49:52.000   4280220.0608  -4034411.3424  -2458257.2964   5  11  30.0000  30.0000  30.0000   0.0000   0.0000   0.0000   7.00    0.0
2019/01/15 09:49:54.000   4280217.7975  -4034408.8800  -2458271.2433   5  11  30.0000  30.0000  30.0000   0.0000   0.0000   0.0000   9.00    0.0
2019/01/15 09:49:56.000   4280213.5479  -4034401.3750  -2458249.2379   5  11  30.0000  30.0000  30.0000   0.0000   0.0000   0.0000  11.00    0.0
2019/01/15 09:49:57.000   4280216.7138  -4034415.9644  -2458262.0085   5  11  30.0000  30.0000  30.0000   0.0000   0.0000   0.0000  12.00    0.0
2019/01/15 09:49:59.000   4280218.8162  -4034409.6228  -2458269.6372   5  11  30.0000  30.0000  30.0000   0.0000   0.0000   0.0000  14.00    0.0
2019/01/15 09:50:01.000   4280215.6351  -4034411.4998  -2458253.4344   5  11  30.0000  30.0000  30.0000   0.0000   0.0000   0.0000   1.00    0.0
2019/01/15 09:50:02.000   4280224.2886  -4034416.6823  -2458260.8576   5  11  30.0000  30.0000  30.0000   0.0000   0.0000   0.0000   2.00    0.0
2019/01/15 09:50:13.000   4280221.7443  -4034414.7497  -2458262.9317   5  11  30.0000  30.0000  30.0000   0.0000   0.0000   0.0000  13.00    0.0
2019/01/15 09:50:15.000   4280221.0061  -4034413.1347  -2458256.3489   5  11  30.0000  30.0000  30.0000   0.0000   0.0000   0.0000   0.00    0.0
2019/01/15 09:50:16.000   4280210.9184  -4034402.2291  -2458258.0984   5  11  30.0000  30.0000  30.0000   0.0000   0.0000   0.0000   1.00    0.0
2019/01/15 09:50:17.000   4280217.0753  -4034405.4128  -2458261.4795   5  11  30.0000  30.0000  30.0000   0.0000   0.0000   0.0000   2.00    0.0
2019/01/15 09:50:25.000   4280219.3466  -4034400.7165  -2458270.5936   5  11  30.0000  30.0000  30.0000   0.0000   0.0000   0.0000  10.00    0.0
2019/01/15 09:50:29.000   4280205.7287  -4034401.9558  -2458265.1179   5  11  30.0000  30.0000  30.0000   0.0000   0.0000   0.0000  14.00    0.0
2019/01/15 09:50:31.000   4280216.8738  -4034404.9278  -2458257.8338   5  11  30.0000  30.0000  30.0000   0.0000   0.0000   0.0000   1.00    0.0
2019/01/15 09:50:40.000   4280224.0777  -4034407.9495  -2458248.2725   5  11  30.0000  30.0000  30.0000   0.0000   0.0000   0.0000  10.00    0.0
2019/01/15 09:50:41.000   4280223.0940  -4034409.5495  -2458258.6823   5  11  30.0000  30.0000  30.0000   0.0000   0.0000   0.0000  11.00    0.0
2019/01/15 09:50:47.000   4280222.1657  -4034415.0794  -2458249.7755   5  11  30.0000  30.0000  30.0000   0.0000   0.0000   0.0000   2.00    0.0
2019/01/15 09:50:51.000   4280233.8948  -4034419.2877  -2458271.5524   5  11  30.0000  30.0000  30.0000   0.0000   0.0000   0.0000   6.00    0.0
2019/01/15 09:50:52.000   4280227.5469  -4034426.3425  -2458272.8090   5  11  30.0000  30.0000  30.0000   0.0000   0.0000   0.0000   7.00    0.0
2019/01/15 09:50:53.000   4280224.6582  -4034414.3088  -2458276.4868   5  11  30.0000  30.0000  30.0000   0.0000   0.0000   0.0000   8.00    0.0
2019/01/15 09:50:54.000   4280217.1278  -4034415.1714  -2458266.2952   5  11  30.0000  30.0000  30.0000   0.0000   0.0000   0.0000   9.00    0.0
2019/01/15 09:51:10.000   4280225.9101  -4034429.9856  -2458263.4901   5  11  30.0000  30.0000  30.0000   0.0000   0.0000   0.0000  10.00    0.0
2019/01/15 09:51:14.000   4280250.9698  -4034448.4610  -2458275.8035   5  11  30.0000  30.0000  30.0000   0.0000   0.0000   0.0000  14.00    0.0
2019/01/15 09:51:18.000   4280218.5930  -4034425.7906  -2458287.0381   5  11  30.0000  30.0000  30.0000   0.0000   0.0000   0.0000   3.00    0.0
2019/01/15 09:51:20.000   4280225.9810  -4034417.3132  -2458266.7942   5  11  30.0000  30.0000  30.0000   0.0000   0.0000   0.0000   5.00    0.0
2019/01/15 09:51:21.000   4280238.7206  -4034432.3625  -2458269.7887   5  11  30.0000  30.0000  30.0000   0.0000   0.0000   0.0000   6.00    0.0
2019/01/15 09:51:28.000   4280235.7155  -4034425.9155  -2458260.8205   5  11  30.0000  30.0000  30.0000   0.0000   0.0000   0.0000  13.00    0.0
2019/01/15 09:51:30.000   4280220.4743  -4034416.1376  -2458258.1087   5  11  30.0000  30.0000  30.0000   0.0000   0.0000   0.0000   0.00    0.0
2019/01/15 09:51:36.000   4280241.0958  -4034433.4885  -2458264.3737   5  11  30.0000  30.0000  30.0000   0.0000   0.0000   0.0000   6.00    0.0
2019/01/15 09:51:39.000   4280231.5972  -4034418.9227  -2458265.5064   5  11  30.0000  30.0000  30.0000   0.0000   0.0000   0.0000   9.00    0.0
2019/01/15 09:51:45.000   4280232.7009  -4034425.8523  -2458266.2710   5  11  30.0000  30.0000  30.0000   0.0000   0.0000   0.0000   0.00    0.0
2019/01/15 09:51:47.000   4280213.3838  -4034400.6797  -2458250.1902   5  11  30.0000  30.0000  30.0000   0.0000   0.0000   0.0000   2.00    0.0
2019/01/15 09:51:48.000   4280205.6401  -4034393.8537  -2458245.7442   5  11  30.0000  30.0000  30.0000   0.0000   0.0000   0.0000   3.00    0.0
2019/01/15 09:51:53.000   4280204.7429  -4034402.8833  -2458271.1233   5  11  30.0000  30.0000  30.0000   0.0000   0.0000   0.0000   8.00    0.0
2019/01/15 09:51:57.000   4280201.8792  -4034385.1965  -2458260.8711   5  11  30.0000  30.0000  30.0000   0.0000   0.0000   0.0000  12.00    0.0
2019/01/15 09:51:58.000   4280209.1525  -4034395.6991  -2458267.1545   5  11  30.0000  30.0000  30.0000   0.0000   0.0000   0.0000  13.00    0.0
2019/01/15 09:51:59.000   4280222.7424  -4034411.5329  -2458271.5310   5  11  30.0000  30.0000  30.0000   0.0000   0.0000   0.0000  14.00    0.0
2019/01/15 09:52:00.000   4280204.1538  -4034404.3782  -2458265.2849   5  11  30.0000  30.0000  30.0000   0.0000   0.0000   0.0000   0.00    0.0
2019/01/15 09:52:08.000   4280200.6901  -4034400.1475  -2458270.8306   5  11  30.0000  30.0000  30.0000   0.0000   0.0000   0.0000   8.00    0.0
2019/01/15 09:52:13.000   4280221.1496  -4034409.9902  -2458265.2558   5  11  30.0000  30.0000  30.0000   0.0000   0.0000   0.0000  13.00    0.0
2019/01/15 09:52:14.000   4280213.6160  -4034403.9012  -2458265.8018   5  11  30.0000  30.0000  30.0000   0.0000   0.0000   0.0000  14.00    0.0
2019/01/15 09:52:16.000   4280220.9014  -4034414.6680  -2458272.5458   5  11  30.0000  30.0000  30.0000   0.0000   0.0000   0.0000   1.00    0.0
2019/01/15 09:52:25.000   4280217.7537  -4034415.9021  -2458260.6581   5  11  30.0000  30.0000  30.0000   0.0000   0.0000   0.0000  10.00    0.0
2019/01/15 09:52:26.000   4280225.7393  -4034407.2718  -2458260.2357   5  11  30.0000  30.0000  30.0000   0.0000   0.0000   0.0000  11.00    0.0
2019/01/15 09:52:27.000   4280218.7362  -4034411.9476  -2458268.1064   5  11  30.0000  30.0000  30.0000   0.0000   0.0000   0.0000  12.00    0.0
2019/01/15 09:52:30.000   4280224.0355  -4034417.2128  -2458271.7037   5  11  30.0000  30.0000  30.0000   0.0000   0.0000   0.0000   0.00    0.0
2019/01/15 09:52:31.000   4280212.3930  -4034408.5578  -2458260.5668   5  11  30.0000  30.0000  30.0000   0.0000   0.0000   0.0000   1.00    0.0
2019/01/15 09:52:32.000   4280205.7400  -4034399.3706  -2458254.7032   5  11  30.0000  30.0000  30.0000   0.0000   0.0000   0.0000   2.00    0.0
2019/01/15 09:52:36.000   4280216.7509  -4034416.1586  -2458255.0570   5  11  30.0000  30.0000  30.0000   0.0000   0.0000   0.0000   6.00    0.0
2019/01/15 09:52:37.000   4280219.3483  -4034414.3002  -2458261.8483   5  11  30.0000  30.0000  30.0000   0.0000   0.0000   0.0000   7.00    0.0
2019/01/15 09:52:39.000   4280223.1016  -4034423.2477  -2458269.3251   5  11  30.0000  30.0000  30.0000   0.0000   0.0000   0.0000   9.00    0.0
2019/01/15 09:52:40.000   4280216.5811  -4034417.1071  -2458268.3632   5  11  30.0000  30.0000  30.0000   0.0000   0.0000   0.0000  10.00    0.0
2019/01/15 09:52:41.000   4280213.6356  -4034410.6522  -2458270.6072   5  11  30.0000  30.0000  30.0000   0.0000   0.0000   0.0000  11.00    0.0
2019/01/15 09:52:42.000   4280219.8789  -4034405.9505  -2458264.3239   5  11  30.0000  30.0000  30.0000   0.0000   0.0000   0.0000  12.00    0.0
2019/01/15 09:52:43.000   4280213.2376  -4034416.4755  -2458275.1563   5  11  30.0000  30.0000  30.0000   0.0000   0.0000   0.0000  13.00    0.0
2019/01/15 09:52:44.000   4280207.9521  -4034411.5463  -2458259.1811   5  11  30.0000  30.0000  30.0000   0.0000   0.0000   0.0000  14.00    0.0
2019/01/15 09:52:45.000   4280207.9032  -4034405.4890  -2458248.6270   5  11  30.0000  30.0000  30.0000   0.0000   0.0000   0.0000   0.00    0.0
2019/01/15 09:52:49.000   4280227.7003  -4034425.4395  -2458279.4525   5  11  30.0000  30.0000  30.0000   0.0000   0.0000   0.0000   4.00    0.0
2019/01/15 09:52:50.000   4280222.1257  -4034422.4462  -2458279.7864   5  11  30.0000  30.0000  30.0000   0.0000   0.0000   0.0000   5.00    0.0
2019/01/15 09:52:53.000   4280210.7807  -4034412.5348  -2458269.1698   5  11  30.0000  30.0000  30.0000   0.0000   0.0000   0.0000   8.00    0.0
2019/01/15 09:52:55.000   4280227.8849  -4034423.8628  -2458270.6596   5  11  30.0000  30.0000  30.0000   0.0000   0.0000   0.0000  10.00    0.0
2019/01/15 09:52:56.000   4280208.2969  -4034414.0278  -2458267.4485   5  11  30.0000  30.0000  30.0000   0.0000   0.0000   0.0000  11.00    0.0
2019/01/15 09:52:57.000   4280217.0220  -4034418.7144  -2458269.5475   5  11  30.0000  30.0000  30.0000   0.0000   0.0000   0.0000  12.00    0.0
2019/01/15 09:52:58.000   4280219.4464  -4034418.2158  -2458281.9143   5  11  30.0000  30.0000  30.0000   0.0000   0.0000   0.0000  13.00    0.0
2019/01/15 09:52:59.000   4280220.1117  -4034413.6962  -2458268.5764   5  11  30.0000  30.0000  30.0000   0.0000   0.0000   0.0000  14.00    0.0
2019/01/15 09:53:00.000   4280226.8525  -4034415.6533  -2458265.5676   5  11  30.0000  30.0000  30.0000   0.0000   0.0000   0.0000   0.00    0.0
2019/01/15 09:53:01.000   4280207.6218  -4034410.0061  -2458259.5654   5  11  30.0000  30.0000  30.0000   0.0000   0.0000   0.0000   1.00    0.0
