% program   : RTKPOST ver.2.4.2
% inp file  : D:\Google Drive\UERJ\_Projeto Final\Python\tcc-guilherme\20190115_Levantamento_8min_Smooth.19o
% inp file  : D:\Google Drive\UERJ\_Projeto Final\20190115_Marco 91500 IBGE\brdm0150.19p
% obs start : 2019/01/15 09:34:43.0 GPST (week2036 207283.0s)
% obs end   : 2019/01/15 09:52:37.0 GPST (week2036 208357.0s)
% pos mode  : single
% elev mask : 15.0 deg
% ionos opt : broadcast
% tropo opt : saastamoinen
% ephemeris : broadcast
%
% (x/y/z-ecef=WGS84,Q=1:fix,2:float,3:sbas,4:dgps,5:single,6:ppp,ns=# of satellites)
%  GPST                      x-ecef(m)      y-ecef(m)      z-ecef(m)   Q  ns   sdx(m)   sdy(m)   sdz(m)  sdxy(m)  sdyz(m)  sdzx(m) age(s)  ratio
2019/01/15 09:34:44.000   4280213.6583  -4034410.2221  -2458238.4798   5   6   5.1484   4.0214   6.1074  -3.8238   3.4566  -4.1345   0.00    0.0
2019/01/15 09:34:45.000   4280224.9457  -4034407.1175  -2458254.9265   5   6   5.1483   4.0211   6.1057  -3.8236   3.4555  -4.1330   0.00    0.0
2019/01/15 09:34:46.000   4280213.5052  -4034401.4659  -2458270.7686   5   6   5.1481   4.0209   6.1040  -3.8233   3.4545  -4.1316   0.00    0.0
2019/01/15 09:34:47.000   4280228.0232  -4034417.7402  -2458274.2218   5   6   5.1480   4.0207   6.1023  -3.8231   3.4534  -4.1302   0.00    0.0
2019/01/15 09:34:48.000   4280231.4425  -4034421.9944  -2458272.3943   5   6   5.1478   4.0204   6.1006  -3.8229   3.4523  -4.1287   0.00    0.0
2019/01/15 09:34:49.000   4280215.2093  -4034404.9813  -2458270.3529   5   6   5.1477   4.0202   6.0989  -3.8226   3.4512  -4.1273   0.00    0.0
2019/01/15 09:34:50.000   4280217.8552  -4034405.0038  -2458273.8032   5   6   5.1476   4.0199   6.0972  -3.8224   3.4501  -4.1258   0.00    0.0
2019/01/15 09:34:51.000   4280222.4174  -4034404.2485  -2458274.3907   5   6   5.1475   4.0197   6.0955  -3.8222   3.4491  -4.1244   0.00    0.0
2019/01/15 09:34:52.000   4280223.4322  -4034413.3419  -2458269.0638   5   6   5.1473   4.0194   6.0938  -3.8220   3.4480  -4.1230   0.00    0.0
2019/01/15 09:34:53.000   4280224.0231  -4034414.2595  -2458269.2821   5   6   5.1472   4.0192   6.0922  -3.8217   3.4469  -4.1215   0.00    0.0
2019/01/15 09:34:54.000   4280221.3688  -4034415.2953  -2458268.2620   5   6   5.1471   4.0190   6.0905  -3.8215   3.4458  -4.1201   0.00    0.0
2019/01/15 09:34:55.000   4280218.3663  -4034413.1158  -2458267.3128   5   6   5.1470   4.0187   6.0888  -3.8213   3.4447  -4.1187   0.00    0.0
2019/01/15 09:34:56.000   4280220.7781  -4034414.3161  -2458272.4573   5   6   5.1468   4.0185   6.0871  -3.8211   3.4437  -4.1172   0.00    0.0
2019/01/15 09:34:57.000   4280221.6436  -4034414.2685  -2458279.0240   5   6   5.1467   4.0182   6.0854  -3.8208   3.4426  -4.1158   0.00    0.0
2019/01/15 09:34:58.000   4280223.8060  -4034418.8067  -2458280.7116   5   6   5.1466   4.0180   6.0837  -3.8206   3.4415  -4.1144   0.00    0.0
2019/01/15 09:34:59.000   4280222.7623  -4034419.4072  -2458280.2063   5   6   5.1465   4.0178   6.0820  -3.8204   3.4404  -4.1129   0.00    0.0
2019/01/15 09:35:06.000   4280225.7005  -4034420.4012  -2458284.0165   5   6   5.1456   4.0161   6.0703  -3.8189   3.4329  -4.1029   0.00    0.0
2019/01/15 09:35:07.000   4280225.4056  -4034420.0995  -2458283.6580   5   6   5.1455   4.0159   6.0686  -3.8186   3.4319  -4.1015   0.00    0.0
2019/01/15 09:35:08.000   4280225.4380  -4034420.0729  -2458283.4486   5   6   5.1454   4.0156   6.0669  -3.8184   3.4308  -4.1001   0.00    0.0
2019/01/15 09:35:09.000   4280225.1135  -4034419.8638  -2458283.0310   5   6   5.1453   4.0154   6.0652  -3.8182   3.4297  -4.0987   0.00    0.0
2019/01/15 09:35:10.000   4280224.8798  -4034419.9022  -2458282.5579   5   6   5.1452   4.0152   6.0635  -3.8180   3.4287  -4.0972   0.00    0.0
2019/01/15 09:35:11.000   4280224.5885  -4034419.9919  -2458281.9617   5   6   5.1451   4.0149   6.0619  -3.8178   3.4276  -4.0958   0.00    0.0
2019/01/15 09:35:12.000   4280223.9893  -4034419.7940  -2458280.8522   5   6   5.1449   4.0147   6.0602  -3.8176   3.4265  -4.0944   0.00    0.0
2019/01/15 09:35:13.000   4280224.0240  -4034419.6345  -2458279.8239   5   6   5.1448   4.0145   6.0585  -3.8174   3.4255  -4.0930   0.00    0.0
2019/01/15 09:35:14.000   4280223.9810  -4034419.3839  -2458279.0116   5   6   5.1447   4.0143   6.0568  -3.8172   3.4244  -4.0915   0.00    0.0
2019/01/15 09:35:15.000   4280224.0387  -4034419.4739  -2458278.9836   5   6   5.1446   4.0140   6.0551  -3.8169   3.4233  -4.0901   0.00    0.0
2019/01/15 09:35:16.000   4280224.1737  -4034419.7479  -2458279.3652   5   6   5.1445   4.0138   6.0535  -3.8167   3.4223  -4.0887   0.00    0.0
2019/01/15 09:35:17.000   4280224.3259  -4034419.9122  -2458279.2248   5   6   5.1444   4.0136   6.0518  -3.8165   3.4212  -4.0873   0.00    0.0
2019/01/15 09:35:18.000   4280224.3801  -4034419.9388  -2458279.0881   5   6   5.1443   4.0133   6.0501  -3.8163   3.4201  -4.0859   0.00    0.0
2019/01/15 09:35:19.000   4280224.3467  -4034419.7927  -2458278.7964   5   6   5.1442   4.0131   6.0484  -3.8161   3.4191  -4.0844   0.00    0.0
2019/01/15 09:35:20.000   4280223.9121  -4034419.5887  -2458278.1802   5   6   5.1441   4.0129   6.0468  -3.8159   3.4180  -4.0830   0.00    0.0
2019/01/15 09:35:21.000   4280223.3147  -4034419.2592  -2458277.5559   5   6   5.1440   4.0127   6.0451  -3.8157   3.4170  -4.0816   0.00    0.0
2019/01/15 09:35:22.000   4280222.9054  -4034419.0902  -2458277.0773   5   6   5.1439   4.0124   6.0434  -3.8155   3.4159  -4.0802   0.00    0.0
2019/01/15 09:35:23.000   4280222.6273  -4034418.9744  -2458277.2164   5   6   5.1438   4.0122   6.0418  -3.8153   3.4149  -4.0788   0.00    0.0
2019/01/15 09:35:24.000   4280222.8822  -4034419.0071  -2458277.7221   5   6   5.1437   4.0120   6.0401  -3.8151   3.4138  -4.0774   0.00    0.0
2019/01/15 09:35:25.000   4280223.4757  -4034419.1900  -2458278.4976   5   6   5.1436   4.0118   6.0384  -3.8149   3.4127  -4.0760   0.00    0.0
2019/01/15 09:35:26.000   4280223.8394  -4034419.4259  -2458278.8625   5   6   5.1435   4.0115   6.0367  -3.8147   3.4117  -4.0745   0.00    0.0
2019/01/15 09:35:27.000   4280223.8993  -4034419.7544  -2458279.2541   5   6   5.1434   4.0113   6.0351  -3.8145   3.4106  -4.0731   0.00    0.0
2019/01/15 09:35:28.000   4280223.8277  -4034419.9170  -2458279.4257   5   6   5.1433   4.0111   6.0334  -3.8143   3.4096  -4.0717   0.00    0.0
2019/01/15 09:35:29.000   4280223.7423  -4034419.8419  -2458279.6126   5   6   5.1432   4.0109   6.0317  -3.8141   3.4085  -4.0703   0.00    0.0
2019/01/15 09:35:30.000   4280223.8828  -4034419.6567  -2458279.6271   5   6   5.1431   4.0106   6.0301  -3.8139   3.4075  -4.0689   0.00    0.0
2019/01/15 09:35:31.000   4280224.1974  -4034419.6511  -2458279.4908   5   6   5.1430   4.0104   6.0284  -3.8137   3.4064  -4.0675   0.00    0.0
2019/01/15 09:35:32.000   4280224.3971  -4034419.6345  -2458279.4000   5   6   5.1429   4.0102   6.0267  -3.8135   3.4054  -4.0661   0.00    0.0
2019/01/15 09:35:33.000   4280224.3983  -4034419.6267  -2458279.2154   5   6   5.1428   4.0100   6.0251  -3.8133   3.4043  -4.0647   0.00    0.0
2019/01/15 09:35:34.000   4280223.7927  -4034419.2919  -2458279.0794   5   6   5.1427   4.0098   6.0234  -3.8131   3.4033  -4.0633   0.00    0.0
2019/01/15 09:35:35.000   4280223.8132  -4034419.2548  -2458279.0954   5   6   5.1426   4.0095   6.0218  -3.8129   3.4022  -4.0619   0.00    0.0
2019/01/15 09:35:36.000   4280224.0387  -4034419.5306  -2458279.2131   5   6   5.1425   4.0093   6.0201  -3.8127   3.4012  -4.0604   0.00    0.0
2019/01/15 09:35:37.000   4280224.5655  -4034419.5958  -2458279.1628   5   6   5.1424   4.0091   6.0184  -3.8125   3.4001  -4.0590   0.00    0.0
2019/01/15 09:35:38.000   4280224.4721  -4034419.2209  -2458278.8352   5   6   5.1424   4.0089   6.0168  -3.8123   3.3991  -4.0576   0.00    0.0
2019/01/15 09:35:39.000   4280224.2836  -4034418.8330  -2458278.5081   5   6   5.1423   4.0087   6.0151  -3.8121   3.3980  -4.0562   0.00    0.0
2019/01/15 09:35:40.000   4280224.1649  -4034418.5049  -2458278.5456   5   6   5.1422   4.0085   6.0134  -3.8119   3.3970  -4.0548   0.00    0.0
2019/01/15 09:35:41.000   4280224.1223  -4034418.4194  -2458278.2819   5   6   5.1421   4.0082   6.0118  -3.8118   3.3960  -4.0534   0.00    0.0
2019/01/15 09:35:42.000   4280224.0869  -4034418.3100  -2458277.7887   5   6   5.1420   4.0080   6.0101  -3.8116   3.3949  -4.0520   0.00    0.0
2019/01/15 09:35:43.000   4280223.5875  -4034417.9792  -2458276.8690   5   6   5.1419   4.0078   6.0085  -3.8114   3.3939  -4.0506   0.00    0.0
2019/01/15 09:35:44.000   4280223.5780  -4034417.9374  -2458276.2112   5   6   5.1418   4.0076   6.0068  -3.8112   3.3928  -4.0492   0.00    0.0
2019/01/15 09:35:45.000   4280222.8471  -4034417.2391  -2458275.4294   5   6   5.1418   4.0074   6.0051  -3.8110   3.3918  -4.0478   0.00    0.0
2019/01/15 09:35:46.000   4280222.2190  -4034416.4976  -2458275.0838   5   6   5.1417   4.0072   6.0035  -3.8108   3.3907  -4.0464   0.00    0.0
2019/01/15 09:35:47.000   4280221.3383  -4034415.6937  -2458274.7858   5   6   5.1416   4.0069   6.0018  -3.8106   3.3897  -4.0450   0.00    0.0
2019/01/15 09:35:48.000   4280220.8203  -4034415.3431  -2458274.7401   5   6   5.1415   4.0067   6.0002  -3.8104   3.3887  -4.0436   0.00    0.0
2019/01/15 09:35:49.000   4280220.5289  -4034415.0247  -2458274.5819   5   6   5.1414   4.0065   5.9985  -3.8103   3.3876  -4.0422   0.00    0.0
2019/01/15 09:35:50.000   4280220.4459  -4034414.9960  -2458274.5469   5   6   5.1414   4.0063   5.9969  -3.8101   3.3866  -4.0408   0.00    0.0
2019/01/15 09:35:51.000   4280220.4390  -4034415.1169  -2458274.9315   5   6   5.1413   4.0061   5.9952  -3.8099   3.3856  -4.0394   0.00    0.0
2019/01/15 09:35:52.000   4280220.8702  -4034415.5277  -2458275.0427   5   6   5.1412   4.0059   5.9936  -3.8097   3.3845  -4.0380   0.00    0.0
2019/01/15 09:35:53.000   4280220.5765  -4034415.5769  -2458274.8273   5   6   5.1411   4.0057   5.9919  -3.8095   3.3835  -4.0366   0.00    0.0
2019/01/15 09:35:54.000   4280220.5424  -4034415.9511  -2458274.5785   5   6   5.1410   4.0055   5.9903  -3.8093   3.3824  -4.0353   0.00    0.0
2019/01/15 09:35:55.000   4280220.8630  -4034416.3861  -2458274.6489   5   6   5.1410   4.0053   5.9886  -3.8092   3.3814  -4.0339   0.00    0.0
2019/01/15 09:35:56.000   4280221.0585  -4034416.7347  -2458274.6462   5   6   5.1409   4.0051   5.9870  -3.8090   3.3804  -4.0325   0.00    0.0
2019/01/15 09:35:57.000   4280221.1293  -4034416.9464  -2458274.7903   5   6   5.1408   4.0048   5.9853  -3.8088   3.3793  -4.0311   0.00    0.0
2019/01/15 09:35:58.000   4280221.1572  -4034416.9865  -2458275.0455   5   6   5.1408   4.0046   5.9837  -3.8086   3.3783  -4.0297   0.00    0.0
2019/01/15 09:35:59.000   4280221.5232  -4034417.3140  -2458275.3617   5   6   5.1407   4.0044   5.9820  -3.8084   3.3773  -4.0283   0.00    0.0
2019/01/15 09:36:00.000   4280222.0785  -4034417.7486  -2458275.6037   5   6   5.1406   4.0042   5.9804  -3.8083   3.3763  -4.0269   0.00    0.0
2019/01/15 09:36:01.000   4280222.7278  -4034418.1084  -2458275.9039   5   6   5.1405   4.0040   5.9787  -3.8081   3.3752  -4.0255   0.00    0.0
2019/01/15 09:36:02.000   4280223.3008  -4034418.5224  -2458275.9126   5   6   5.1405   4.0038   5.9771  -3.8079   3.3742  -4.0241   0.00    0.0
2019/01/15 09:36:03.000   4280223.0931  -4034418.5296  -2458275.1556   5   6   5.1404   4.0036   5.9754  -3.8077   3.3732  -4.0227   0.00    0.0
2019/01/15 09:36:04.000   4280222.5709  -4034418.1785  -2458274.6392   5   6   5.1403   4.0034   5.9738  -3.8076   3.3721  -4.0214   0.00    0.0
2019/01/15 09:36:05.000   4280221.8178  -4034417.7060  -2458274.4245   5   6   5.1403   4.0032   5.9721  -3.8074   3.3711  -4.0200   0.00    0.0
2019/01/15 09:36:06.000   4280221.2912  -4034417.3193  -2458274.0258   5   6   5.1402   4.0030   5.9705  -3.8072   3.3701  -4.0186   0.00    0.0
2019/01/15 09:36:07.000   4280220.9020  -4034416.9893  -2458274.1385   5   6   5.1401   4.0028   5.9688  -3.8071   3.3691  -4.0172   0.00    0.0
2019/01/15 09:36:08.000   4280220.6140  -4034416.8341  -2458274.6852   5   6   5.1401   4.0026   5.9672  -3.8069   3.3680  -4.0158   0.00    0.0
2019/01/15 09:36:09.000   4280220.4825  -4034416.7024  -2458275.0643   5   6   5.1400   4.0024   5.9656  -3.8067   3.3670  -4.0144   0.00    0.0
2019/01/15 09:36:10.000   4280220.2117  -4034416.6049  -2458275.1414   5   6   5.1400   4.0022   5.9639  -3.8065   3.3660  -4.0130   0.00    0.0
2019/01/15 09:36:11.000   4280219.7692  -4034416.3032  -2458275.0656   5   6   5.1399   4.0020   5.9623  -3.8064   3.3650  -4.0117   0.00    0.0
2019/01/15 09:36:12.000   4280218.8978  -4034415.6479  -2458274.9381   5   6   5.1398   4.0018   5.9606  -3.8062   3.3640  -4.0103   0.00    0.0
2019/01/15 09:36:13.000   4280218.2526  -4034415.1523  -2458274.6950   5   6   5.1398   4.0016   5.9590  -3.8060   3.3629  -4.0089   0.00    0.0
2019/01/15 09:36:14.000   4280217.8425  -4034414.8655  -2458274.6832   5   6   5.1397   4.0014   5.9574  -3.8059   3.3619  -4.0075   0.00    0.0
2019/01/15 09:36:15.000   4280217.9498  -4034414.9194  -2458274.9120   5   6   5.1397   4.0012   5.9557  -3.8057   3.3609  -4.0061   0.00    0.0
2019/01/15 09:36:16.000   4280218.0569  -4034414.9430  -2458275.1091   5   6   5.1396   4.0010   5.9541  -3.8055   3.3599  -4.0048   0.00    0.0
2019/01/15 09:36:17.000   4280217.9932  -4034414.5391  -2458274.6457   5   6   5.1395   4.0008   5.9524  -3.8054   3.3589  -4.0034   0.00    0.0
2019/01/15 09:36:18.000   4280217.5102  -4034413.5414  -2458273.9357   5   6   5.1395   4.0006   5.9508  -3.8052   3.3578  -4.0020   0.00    0.0
2019/01/15 09:36:19.000   4280217.1000  -4034412.6851  -2458273.2799   5   6   5.1394   4.0004   5.9492  -3.8051   3.3568  -4.0006   0.00    0.0
2019/01/15 09:36:20.000   4280216.1825  -4034411.4645  -2458272.8825   5   6   5.1394   4.0002   5.9475  -3.8049   3.3558  -3.9993   0.00    0.0
2019/01/15 09:36:21.000   4280215.3837  -4034410.5842  -2458272.6439   5   6   5.1393   4.0000   5.9459  -3.8047   3.3548  -3.9979   0.00    0.0
2019/01/15 09:36:22.000   4280214.8435  -4034409.8853  -2458272.4790   5   6   5.1393   3.9998   5.9443  -3.8046   3.3538  -3.9965   0.00    0.0
2019/01/15 09:36:23.000   4280214.4054  -4034409.7275  -2458272.0373   5   6   5.1392   3.9996   5.9426  -3.8044   3.3528  -3.9951   0.00    0.0
2019/01/15 09:36:24.000   4280214.6073  -4034410.1539  -2458272.1041   5   6   5.1392   3.9994   5.9410  -3.8042   3.3518  -3.9938   0.00    0.0
2019/01/15 09:36:25.000   4280215.1472  -4034410.8213  -2458272.4339   5   6   5.1391   3.9992   5.9394  -3.8041   3.3507  -3.9924   0.00    0.0
2019/01/15 09:36:26.000   4280215.4559  -4034411.0532  -2458272.3668   5   6   5.1391   3.9990   5.9377  -3.8039   3.3497  -3.9910   0.00    0.0
2019/01/15 09:36:27.000   4280216.1709  -4034411.4163  -2458272.4423   5   6   5.1390   3.9988   5.9361  -3.8038   3.3487  -3.9896   0.00    0.0
2019/01/15 09:36:28.000   4280216.7185  -4034411.5506  -2458272.4992   5   6   5.1390   3.9986   5.9345  -3.8036   3.3477  -3.9883   0.00    0.0
2019/01/15 09:36:29.000   4280216.7343  -4034411.3814  -2458272.3756   5   6   5.1389   3.9984   5.9328  -3.8035   3.3467  -3.9869   0.00    0.0
2019/01/15 09:36:30.000   4280216.6569  -4034411.3614  -2458272.3140   5   6   5.1389   3.9983   5.9312  -3.8033   3.3457  -3.9855   0.00    0.0
2019/01/15 09:36:31.000   4280216.3090  -4034411.2245  -2458272.4079   5   6   5.1388   3.9981   5.9296  -3.8031   3.3447  -3.9842   0.00    0.0
2019/01/15 09:36:32.000   4280215.7908  -4034410.8276  -2458272.4107   5   6   5.1388   3.9979   5.9279  -3.8030   3.3437  -3.9828   0.00    0.0
2019/01/15 09:36:33.000   4280215.8993  -4034410.8793  -2458272.5896   5   6   5.1388   3.9977   5.9263  -3.8028   3.3427  -3.9814   0.00    0.0
2019/01/15 09:36:34.000   4280215.9573  -4034410.7616  -2458273.1214   5   6   5.1387   3.9975   5.9247  -3.8027   3.3417  -3.9801   0.00    0.0
2019/01/15 09:36:35.000   4280216.5463  -4034410.9251  -2458273.6076   5   6   5.1387   3.9973   5.9231  -3.8025   3.3407  -3.9787   0.00    0.0
2019/01/15 09:36:36.000   4280216.9722  -4034411.1024  -2458273.7111   5   6   5.1386   3.9971   5.9214  -3.8024   3.3397  -3.9773   0.00    0.0
2019/01/15 09:36:37.000   4280217.6572  -4034411.4379  -2458273.7764   5   6   5.1386   3.9969   5.9198  -3.8022   3.3387  -3.9760   0.00    0.0
2019/01/15 09:36:38.000   4280217.8802  -4034411.5296  -2458273.4285   5   6   5.1386   3.9967   5.9182  -3.8021   3.3377  -3.9746   0.00    0.0
2019/01/15 09:36:39.000   4280217.4129  -4034411.2752  -2458272.8942   5   6   5.1385   3.9966   5.9166  -3.8019   3.3367  -3.9733   0.00    0.0
2019/01/15 09:36:40.000   4280217.2294  -4034411.2587  -2458272.4003   5   6   5.1385   3.9964   5.9149  -3.8018   3.3357  -3.9719   0.00    0.0
2019/01/15 09:36:41.000   4280216.9484  -4034411.2277  -2458271.7519   5   6   5.1385   3.9962   5.9133  -3.8016   3.3347  -3.9705   0.00    0.0
2019/01/15 09:36:42.000   4280217.5380  -4034411.8445  -2458271.6925   5   6   5.1384   3.9960   5.9117  -3.8015   3.3337  -3.9692   0.00    0.0
2019/01/15 09:36:43.000   4280218.4100  -4034412.6999  -2458271.4803   5   6   5.1384   3.9958   5.9101  -3.8013   3.3327  -3.9678   0.00    0.0
2019/01/15 09:36:44.000   4280218.8429  -4034413.2202  -2458271.4047   5   6   5.1383   3.9956   5.9085  -3.8012   3.3317  -3.9665   0.00    0.0
2019/01/15 09:36:45.000   4280219.7899  -4034413.8009  -2458271.7055   5   6   5.1383   3.9954   5.9068  -3.8011   3.3307  -3.9651   0.00    0.0
2019/01/15 09:36:46.000   4280220.4496  -4034413.9216  -2458271.6977   5   6   5.1383   3.9953   5.9052  -3.8009   3.3297  -3.9637   0.00    0.0
2019/01/15 09:36:47.000   4280221.0379  -4034414.1171  -2458271.4259   5   6   5.1383   3.9951   5.9036  -3.8008   3.3287  -3.9624   0.00    0.0
2019/01/15 09:36:48.000   4280221.8825  -4034414.6523  -2458271.5282   5   6   5.1382   3.9949   5.9020  -3.8006   3.3277  -3.9610   0.00    0.0
2019/01/15 09:36:49.000   4280222.7227  -4034415.1619  -2458271.9220   5   6   5.1382   3.9947   5.9004  -3.8005   3.3267  -3.9597   0.00    0.0
2019/01/15 09:36:50.000   4280222.9972  -4034415.5877  -2458271.9774   5   6   5.1382   3.9945   5.8987  -3.8003   3.3257  -3.9583   0.00    0.0
2019/01/15 09:36:51.000   4280222.7416  -4034415.6014  -2458271.5846   5   6   5.1381   3.9943   5.8971  -3.8002   3.3247  -3.9570   0.00    0.0
2019/01/15 09:36:52.000   4280222.8037  -4034415.8539  -2458271.2761   5   6   5.1381   3.9942   5.8955  -3.8001   3.3237  -3.9556   0.00    0.0
2019/01/15 09:36:53.000   4280222.3587  -4034415.6970  -2458270.9151   5   6   5.1381   3.9940   5.8939  -3.7999   3.3227  -3.9543   0.00    0.0
2019/01/15 09:36:54.000   4280222.0643  -4034415.6872  -2458270.7795   5   6   5.1381   3.9938   5.8923  -3.7998   3.3217  -3.9529   0.00    0.0
2019/01/15 09:36:55.000   4280221.7278  -4034415.4395  -2458270.8232   5   6   5.1380   3.9936   5.8907  -3.7996   3.3207  -3.9515   0.00    0.0
2019/01/15 09:36:56.000   4280221.7347  -4034415.4963  -2458271.1235   5   6   5.1380   3.9934   5.8891  -3.7995   3.3197  -3.9502   0.00    0.0
2019/01/15 09:36:57.000   4280221.6751  -4034415.7277  -2458270.8057   5   6   5.1380   3.9933   5.8874  -3.7994   3.3187  -3.9488   0.00    0.0
2019/01/15 09:36:58.000   4280221.2756  -4034415.7191  -2458270.3229   5   6   5.1380   3.9931   5.8858  -3.7992   3.3178  -3.9475   0.00    0.0
2019/01/15 09:36:59.000   4280220.8601  -4034415.6515  -2458269.6606   5   6   5.1379   3.9929   5.8842  -3.7991   3.3168  -3.9461   0.00    0.0
2019/01/15 09:37:00.000   4280220.7968  -4034415.7150  -2458269.2239   5   6   5.1379   3.9927   5.8826  -3.7990   3.3158  -3.9448   0.00    0.0
2019/01/15 09:37:01.000   4280221.2836  -4034416.0687  -2458269.5261   5   6   5.1379   3.9926   5.8810  -3.7988   3.3148  -3.9435   0.00    0.0
2019/01/15 09:37:02.000   4280222.1559  -4034416.6404  -2458270.2379   5   6   5.1379   3.9924   5.8794  -3.7987   3.3138  -3.9421   0.00    0.0
2019/01/15 09:37:03.000   4280222.3946  -4034416.6028  -2458270.4523   5   6   5.1379   3.9922   5.8778  -3.7986   3.3128  -3.9408   0.00    0.0
2019/01/15 09:37:04.000   4280222.7186  -4034416.6353  -2458270.9211   5   6   5.1379   3.9920   5.8762  -3.7984   3.3118  -3.9394   0.00    0.0
2019/01/15 09:37:05.000   4280222.7350  -4034416.4947  -2458270.8836   5   6   5.1378   3.9919   5.8746  -3.7983   3.3109  -3.9381   0.00    0.0
2019/01/15 09:37:06.000   4280222.4109  -4034416.2753  -2458270.6143   5   6   5.1378   3.9917   5.8730  -3.7982   3.3099  -3.9367   0.00    0.0
2019/01/15 09:37:07.000   4280221.8886  -4034415.8431  -2458270.5181   5   6   5.1378   3.9915   5.8714  -3.7980   3.3089  -3.9354   0.00    0.0
2019/01/15 09:37:08.000   4280221.8376  -4034415.6872  -2458270.8999   5   6   5.1378   3.9913   5.8698  -3.7979   3.3079  -3.9340   0.00    0.0
2019/01/15 09:37:09.000   4280221.9207  -4034415.6597  -2458271.0945   5   6   5.1378   3.9912   5.8682  -3.7978   3.3069  -3.9327   0.00    0.0
2019/01/15 09:37:10.000   4280221.8436  -4034415.9313  -2458270.7299   5   6   5.1378   3.9910   5.8665  -3.7977   3.3060  -3.9314   0.00    0.0
2019/01/15 09:37:11.000   4280221.9665  -4034416.1168  -2458270.6763   5   6   5.1378   3.9908   5.8649  -3.7975   3.3050  -3.9300   0.00    0.0
2019/01/15 09:37:12.000   4280222.2817  -4034416.5045  -2458270.5973   5   6   5.1377   3.9906   5.8633  -3.7974   3.3040  -3.9287   0.00    0.0
2019/01/15 09:37:13.000   4280223.0803  -4034417.1078  -2458270.5940   5   6   5.1377   3.9905   5.8617  -3.7973   3.3030  -3.9273   0.00    0.0
2019/01/15 09:37:14.000   4280223.4445  -4034417.1937  -2458270.5495   5   6   5.1377   3.9903   5.8601  -3.7972   3.3021  -3.9260   0.00    0.0
2019/01/15 09:37:15.000   4280223.2364  -4034417.0087  -2458270.5145   5   6   5.1377   3.9901   5.8585  -3.7970   3.3011  -3.9247   0.00    0.0
2019/01/15 09:37:16.000   4280222.9077  -4034416.7617  -2458270.3767   5   6   5.1377   3.9900   5.8569  -3.7969   3.3001  -3.9233   0.00    0.0
2019/01/15 09:37:17.000   4280222.5983  -4034416.3183  -2458270.3910   5   6   5.1377   3.9898   5.8553  -3.7968   3.2991  -3.9220   0.00    0.0
2019/01/15 09:37:18.000   4280222.2338  -4034416.0630  -2458270.6118   5   6   5.1377   3.9896   5.8537  -3.7967   3.2982  -3.9207   0.00    0.0
2019/01/15 09:37:19.000   4280221.8273  -4034415.9816  -2458270.5842   5   6   5.1377   3.9895   5.8521  -3.7965   3.2972  -3.9193   0.00    0.0
2019/01/15 09:37:20.000   4280221.5522  -4034416.0866  -2458270.4715   5   6   5.1377   3.9893   5.8505  -3.7964   3.2962  -3.9180   0.00    0.0
2019/01/15 09:37:21.000   4280221.8181  -4034416.4994  -2458270.4967   5   6   5.1377   3.9891   5.8489  -3.7963   3.2952  -3.9167   0.00    0.0
2019/01/15 09:37:22.000   4280222.3247  -4034416.8173  -2458270.8718   5   6   5.1377   3.9890   5.8474  -3.7962   3.2943  -3.9153   0.00    0.0
2019/01/15 09:37:23.000   4280222.8268  -4034417.1199  -2458270.9713   5   6   5.1377   3.9888   5.8458  -3.7961   3.2933  -3.9140   0.00    0.0
2019/01/15 09:37:24.000   4280222.7108  -4034417.2036  -2458270.1297   5   6   5.1377   3.9886   5.8442  -3.7960   3.2923  -3.9127   0.00    0.0
2019/01/15 09:37:25.000   4280222.4500  -4034417.2180  -2458269.4461   5   6   5.1377   3.9885   5.8426  -3.7958   3.2914  -3.9113   0.00    0.0
2019/01/15 09:37:26.000   4280222.6485  -4034417.5261  -2458269.3947   5   6   5.1377   3.9883   5.8410  -3.7957   3.2904  -3.9100   0.00    0.0
2019/01/15 09:37:27.000   4280222.9456  -4034417.7014  -2458269.8831   5   6   5.1377   3.9881   5.8394  -3.7956   3.2894  -3.9087   0.00    0.0
2019/01/15 09:37:28.000   4280223.4670  -4034417.9666  -2458270.4795   5   6   5.1377   3.9880   5.8378  -3.7955   3.2885  -3.9073   0.00    0.0
2019/01/15 09:37:29.000   4280223.8477  -4034418.2001  -2458270.9111   5   6   5.1377   3.9878   5.8362  -3.7954   3.2875  -3.9060   0.00    0.0
2019/01/15 09:37:30.000   4280223.8027  -4034418.3386  -2458270.5666   5   6   5.1377   3.9876   5.8346  -3.7953   3.2865  -3.9047   0.00    0.0
2019/01/15 09:37:31.000   4280223.3544  -4034418.3515  -2458269.7367   5   6   5.1377   3.9875   5.8330  -3.7951   3.2856  -3.9034   0.00    0.0
2019/01/15 09:37:32.000   4280223.0985  -4034418.1742  -2458269.0421   5   6   5.1377   3.9873   5.8314  -3.7950   3.2846  -3.9020   0.00    0.0
2019/01/15 09:37:33.000   4280222.7476  -4034417.9622  -2458268.6518   5   6   5.1377   3.9872   5.8298  -3.7949   3.2836  -3.9007   0.00    0.0
2019/01/15 09:37:34.000   4280222.3271  -4034417.6404  -2458268.2546   5   6   5.1377   3.9870   5.8283  -3.7948   3.2827  -3.8994   0.00    0.0
2019/01/15 09:37:35.000   4280222.3905  -4034417.6479  -2458268.4505   5   6   5.1377   3.9868   5.8267  -3.7947   3.2817  -3.8981   0.00    0.0
2019/01/15 09:37:36.000   4280222.6761  -4034417.8083  -2458268.6772   5   6   5.1377   3.9867   5.8251  -3.7946   3.2808  -3.8967   0.00    0.0
2019/01/15 09:37:37.000   4280223.3050  -4034418.1804  -2458268.9659   5   6   5.1378   3.9865   5.8235  -3.7945   3.2798  -3.8954   0.00    0.0
2019/01/15 09:37:38.000   4280223.7638  -4034418.5218  -2458269.1983   5   6   5.1378   3.9864   5.8219  -3.7944   3.2788  -3.8941   0.00    0.0
2019/01/15 09:37:39.000   4280223.6114  -4034418.5389  -2458268.9744   5   6   5.1378   3.9862   5.8203  -3.7943   3.2779  -3.8928   0.00    0.0
2019/01/15 09:37:40.000   4280223.3999  -4034418.4187  -2458268.8917   5   6   5.1378   3.9860   5.8187  -3.7942   3.2769  -3.8915   0.00    0.0
2019/01/15 09:37:41.000   4280222.9820  -4034418.2668  -2458268.8215   5   6   5.1378   3.9859   5.8172  -3.7941   3.2760  -3.8901   0.00    0.0
2019/01/15 09:37:42.000   4280222.4562  -4034418.0895  -2458268.5157   5   6   5.1378   3.9857   5.8156  -3.7940   3.2750  -3.8888   0.00    0.0
2019/01/15 09:37:43.000   4280222.3217  -4034418.0318  -2458268.3771   5   6   5.1378   3.9856   5.8140  -3.7938   3.2741  -3.8875   0.00    0.0
2019/01/15 09:37:44.000   4280222.4438  -4034418.0733  -2458268.3358   5   6   5.1379   3.9854   5.8124  -3.7937   3.2731  -3.8862   0.00    0.0
2019/01/15 09:37:45.000   4280222.5510  -4034418.0097  -2458268.4505   5   6   5.1379   3.9853   5.8108  -3.7936   3.2722  -3.8849   0.00    0.0
2019/01/15 09:37:46.000   4280222.3894  -4034417.8097  -2458268.3049   5   6   5.1379   3.9851   5.8092  -3.7935   3.2712  -3.8836   0.00    0.0
2019/01/15 09:37:47.000   4280222.0677  -4034417.4749  -2458268.0032   5   6   5.1379   3.9850   5.8077  -3.7934   3.2702  -3.8822   0.00    0.0
2019/01/15 09:37:48.000   4280221.8271  -4034417.0749  -2458267.8088   5   6   5.1379   3.9848   5.8061  -3.7933   3.2693  -3.8809   0.00    0.0
2019/01/15 09:37:49.000   4280221.4495  -4034416.7971  -2458267.2832   5   6   5.1379   3.9846   5.8045  -3.7932   3.2683  -3.8796   0.00    0.0
2019/01/15 09:37:50.000   4280221.5134  -4034416.7705  -2458266.8096   5   6   5.1380   3.9845   5.8029  -3.7931   3.2674  -3.8783   0.00    0.0
2019/01/15 09:37:51.000   4280221.5158  -4034416.6803  -2458266.3227   5   6   5.1380   3.9843   5.8013  -3.7930   3.2664  -3.8770   0.00    0.0
2019/01/15 09:37:52.000   4280221.5336  -4034416.6878  -2458265.7894   5   6   5.1380   3.9842   5.7998  -3.7929   3.2655  -3.8757   0.00    0.0
2019/01/15 09:37:53.000   4280221.4186  -4034416.5399  -2458265.4134   5   6   5.1380   3.9840   5.7982  -3.7928   3.2645  -3.8744   0.00    0.0
2019/01/15 09:37:54.000   4280221.8504  -4034416.8944  -2458265.7677   5   6   5.1381   3.9839   5.7966  -3.7927   3.2636  -3.8731   0.00    0.0
2019/01/15 09:37:55.000   4280221.9850  -4034417.1096  -2458265.9819   5   6   5.1381   3.9837   5.7950  -3.7926   3.2627  -3.8718   0.00    0.0
2019/01/15 09:37:56.000   4280221.8772  -4034417.1648  -2458265.9575   5   6   5.1381   3.9836   5.7935  -3.7926   3.2617  -3.8704   0.00    0.0
2019/01/15 09:37:57.000   4280221.2591  -4034416.9681  -2458265.7758   5   6   5.1381   3.9834   5.7919  -3.7925   3.2608  -3.8691   0.00    0.0
2019/01/15 09:37:58.000   4280220.8429  -4034416.7416  -2458265.7570   5   6   5.1382   3.9833   5.7903  -3.7924   3.2598  -3.8678   0.00    0.0
2019/01/15 09:37:59.000   4280220.5007  -4034416.3476  -2458265.6553   5   6   5.1382   3.9831   5.7888  -3.7923   3.2589  -3.8665   0.00    0.0
2019/01/15 09:38:00.000   4280220.2719  -4034416.0350  -2458265.3325   5   6   5.1382   3.9830   5.7872  -3.7922   3.2579  -3.8652   0.00    0.0
2019/01/15 09:38:01.000   4280219.9411  -4034415.6745  -2458265.0429   5   6   5.1382   3.9828   5.7856  -3.7921   3.2570  -3.8639   0.00    0.0
2019/01/15 09:38:02.000   4280219.7048  -4034415.6084  -2458264.8613   5   6   5.1383   3.9827   5.7840  -3.7920   3.2561  -3.8626   0.00    0.0
2019/01/15 09:38:03.000   4280219.5635  -4034415.7239  -2458264.7097   5   6   5.1383   3.9825   5.7825  -3.7919   3.2551  -3.8613   0.00    0.0
2019/01/15 09:38:04.000   4280219.4627  -4034415.9886  -2458264.8184   5   6   5.1383   3.9824   5.7809  -3.7918   3.2542  -3.8600   0.00    0.0
2019/01/15 09:38:05.000   4280219.4731  -4034416.2618  -2458265.0693   5   6   5.1384   3.9822   5.7793  -3.7917   3.2532  -3.8587   0.00    0.0
2019/01/15 09:38:06.000   4280219.4495  -4034416.4411  -2458264.8773   5   6   5.1384   3.9821   5.7778  -3.7916   3.2523  -3.8574   0.00    0.0
2019/01/15 09:38:07.000   4280219.4474  -4034416.5624  -2458264.9442   5   6   5.1384   3.9820   5.7762  -3.7915   3.2514  -3.8561   0.00    0.0
2019/01/15 09:38:08.000   4280219.2869  -4034416.4146  -2458264.8263   5   6   5.1385   3.9818   5.7746  -3.7915   3.2504  -3.8548   0.00    0.0
2019/01/15 09:38:09.000   4280219.1277  -4034416.2839  -2458265.0434   5   6   5.1385   3.9817   5.7731  -3.7914   3.2495  -3.8535   0.00    0.0
2019/01/15 09:38:10.000   4280219.1509  -4034416.0116  -2458264.9975   5   6   5.1386   3.9815   5.7715  -3.7913   3.2485  -3.8522   0.00    0.0
2019/01/15 09:38:11.000   4280218.9846  -4034415.7558  -2458265.1551   5   6   5.1386   3.9814   5.7699  -3.7912   3.2476  -3.8509   0.00    0.0
2019/01/15 09:38:12.000   4280218.6453  -4034415.5436  -2458265.2955   5   6   5.1386   3.9812   5.7684  -3.7911   3.2467  -3.8496   0.00    0.0
2019/01/15 09:38:13.000   4280218.3251  -4034415.5453  -2458265.2878   5   6   5.1387   3.9811   5.7668  -3.7910   3.2457  -3.8483   0.00    0.0
2019/01/15 09:38:14.000   4280218.4395  -4034415.6607  -2458265.3164   5   6   5.1387   3.9810   5.7653  -3.7909   3.2448  -3.8470   0.00    0.0
2019/01/15 09:38:15.000   4280218.6198  -4034415.8382  -2458265.0111   5   6   5.1387   3.9808   5.7637  -3.7909   3.2439  -3.8457   0.00    0.0
2019/01/15 09:38:16.000   4280219.1854  -4034416.1850  -2458264.6713   5   6   5.1388   3.9807   5.7621  -3.7908   3.2429  -3.8444   0.00    0.0
2019/01/15 09:38:17.000   4280219.8069  -4034416.6345  -2458264.4185   5   6   5.1388   3.9805   5.7606  -3.7907   3.2420  -3.8431   0.00    0.0
2019/01/15 09:38:18.000   4280219.8657  -4034416.5428  -2458263.8660   5   6   5.1389   3.9804   5.7590  -3.7906   3.2411  -3.8418   0.00    0.0
2019/01/15 09:38:19.000   4280219.8523  -4034416.4410  -2458263.4473   5   6   5.1389   3.9803   5.7575  -3.7905   3.2402  -3.8406   0.00    0.0
2019/01/15 09:38:20.000   4280220.0071  -4034416.2998  -2458263.5394   5   6   5.1390   3.9801   5.7559  -3.7905   3.2392  -3.8393   0.00    0.0
2019/01/15 09:38:21.000   4280219.8501  -4034416.0717  -2458263.9075   5   6   5.1390   3.9800   5.7543  -3.7904   3.2383  -3.8380   0.00    0.0
2019/01/15 09:38:22.000   4280220.2866  -4034416.2038  -2458264.7287   5   6   5.1391   3.9798   5.7528  -3.7903   3.2374  -3.8367   0.00    0.0
2019/01/15 09:38:23.000   4280220.4382  -4034416.4058  -2458265.1738   5   6   5.1391   3.9797   5.7512  -3.7902   3.2364  -3.8354   0.00    0.0
2019/01/15 09:38:24.000   4280220.8851  -4034416.8244  -2458265.5444   5   6   5.1392   3.9796   5.7497  -3.7901   3.2355  -3.8341   0.00    0.0
2019/01/15 09:38:25.000   4280221.5184  -4034417.1809  -2458265.8614   5   6   5.1392   3.9794   5.7481  -3.7901   3.2346  -3.8328   0.00    0.0
2019/01/15 09:38:26.000   4280222.4497  -4034417.8862  -2458266.0884   5   6   5.1392   3.9793   5.7466  -3.7900   3.2337  -3.8315   0.00    0.0
2019/01/15 09:38:27.000   4280222.9641  -4034418.2800  -2458265.9436   5   6   5.1393   3.9791   5.7450  -3.7899   3.2327  -3.8302   0.00    0.0
2019/01/15 09:38:28.000   4280222.8534  -4034418.1933  -2458265.6304   5   6   5.1394   3.9790   5.7435  -3.7898   3.2318  -3.8290   0.00    0.0
2019/01/15 09:38:29.000   4280222.4344  -4034417.9262  -2458265.2038   5   6   5.1394   3.9789   5.7419  -3.7898   3.2309  -3.8277   0.00    0.0
2019/01/15 09:38:30.000   4280222.2228  -4034417.7274  -2458265.0031   5   6   5.1395   3.9787   5.7404  -3.7897   3.2300  -3.8264   0.00    0.0
2019/01/15 09:38:31.000   4280221.6761  -4034417.4181  -2458264.6816   5   6   5.1395   3.9786   5.7388  -3.7896   3.2291  -3.8251   0.00    0.0
2019/01/15 09:38:32.000   4280221.3901  -4034417.1419  -2458264.7699   5   6   5.1396   3.9785   5.7373  -3.7896   3.2281  -3.8238   0.00    0.0
2019/01/15 09:38:33.000   4280221.2020  -4034417.2123  -2458264.7893   5   6   5.1396   3.9783   5.7357  -3.7895   3.2272  -3.8225   0.00    0.0
2019/01/15 09:38:34.000   4280221.2706  -4034417.3710  -2458264.7519   5   6   5.1397   3.9782   5.7342  -3.7894   3.2263  -3.8213   0.00    0.0
2019/01/15 09:38:35.000   4280221.5618  -4034417.7358  -2458264.7627   5   6   5.1397   3.9781   5.7326  -3.7893   3.2254  -3.8200   0.00    0.0
2019/01/15 09:38:36.000   4280221.2463  -4034417.6658  -2458264.8330   5   6   5.1398   3.9779   5.7311  -3.7893   3.2245  -3.8187   0.00    0.0
2019/01/15 09:38:37.000   4280221.1459  -4034417.6804  -2458264.8742   5   6   5.1398   3.9778   5.7295  -3.7892   3.2236  -3.8174   0.00    0.0
2019/01/15 09:38:38.000   4280220.6501  -4034417.2681  -2458264.4499   5   6   5.1399   3.9777   5.7280  -3.7891   3.2226  -3.8161   0.00    0.0
2019/01/15 09:38:39.000   4280220.3041  -4034417.0791  -2458264.4499   5   6   5.1400   3.9776   5.7264  -3.7891   3.2217  -3.8149   0.00    0.0
2019/01/15 09:38:40.000   4280220.0094  -4034416.7680  -2458264.3000   5   6   5.1400   3.9774   5.7249  -3.7890   3.2208  -3.8136   0.00    0.0
2019/01/15 09:38:41.000   4280219.8259  -4034416.4826  -2458264.3687   5   6   5.1401   3.9773   5.7233  -3.7889   3.2199  -3.8123   0.00    0.0
2019/01/15 09:38:42.000   4280219.7948  -4034416.2660  -2458264.2530   5   6   5.1402   3.9772   5.7218  -3.7889   3.2190  -3.8110   0.00    0.0
2019/01/15 09:38:43.000   4280219.7825  -4034416.1525  -2458264.0730   5   6   5.1402   3.9770   5.7202  -3.7888   3.2181  -3.8098   0.00    0.0
2019/01/15 09:38:44.000   4280219.7158  -4034415.8395  -2458264.1817   5   6   5.1403   3.9769   5.7187  -3.7887   3.2172  -3.8085   0.00    0.0
2019/01/15 09:38:45.000   4280220.0747  -4034415.8921  -2458264.5350   5   6   5.1403   3.9768   5.7172  -3.7887   3.2162  -3.8072   0.00    0.0
2019/01/15 09:38:46.000   4280220.5037  -4034416.1304  -2458264.6617   5   6   5.1404   3.9766   5.7156  -3.7886   3.2153  -3.8059   0.00    0.0
2019/01/15 09:38:47.000   4280220.6456  -4034416.4003  -2458264.8463   5   6   5.1405   3.9765   5.7141  -3.7886   3.2144  -3.8047   0.00    0.0
2019/01/15 09:38:48.000   4280220.5590  -4034416.4874  -2458264.9617   5   6   5.1405   3.9764   5.7125  -3.7885   3.2135  -3.8034   0.00    0.0
2019/01/15 09:38:49.000   4280220.6015  -4034416.6318  -2458265.1804   5   6   5.1406   3.9763   5.7110  -3.7884   3.2126  -3.8021   0.00    0.0
2019/01/15 09:38:50.000   4280220.5861  -4034416.5416  -2458265.4143   5   6   5.1407   3.9761   5.7095  -3.7884   3.2117  -3.8008   0.00    0.0
2019/01/15 09:38:51.000   4280220.2010  -4034416.2094  -2458265.3183   5   6   5.1408   3.9760   5.7079  -3.7883   3.2108  -3.7996   0.00    0.0
2019/01/15 09:38:52.000   4280220.0728  -4034416.0524  -2458265.3162   5   6   5.1408   3.9759   5.7064  -3.7883   3.2099  -3.7983   0.00    0.0
2019/01/15 09:38:53.000   4280219.9125  -4034415.7705  -2458265.3224   5   6   5.1409   3.9758   5.7049  -3.7882   3.2090  -3.7970   0.00    0.0
2019/01/15 09:38:54.000   4280219.7647  -4034415.7293  -2458265.0197   5   6   5.1410   3.9756   5.7033  -3.7881   3.2081  -3.7958   0.00    0.0
2019/01/15 09:38:55.000   4280219.9962  -4034415.9074  -2458264.4356   5   6   5.1410   3.9755   5.7018  -3.7881   3.2072  -3.7945   0.00    0.0
2019/01/15 09:38:56.000   4280220.3639  -4034416.3289  -2458264.4380   5   6   5.1411   3.9754   5.7002  -3.7880   3.2063  -3.7932   0.00    0.0
2019/01/15 09:38:57.000   4280220.5042  -4034416.4871  -2458264.6282   5   6   5.1412   3.9753   5.6987  -3.7880   3.2054  -3.7920   0.00    0.0
2019/01/15 09:38:58.000   4280220.3772  -4034416.7218  -2458264.8091   5   6   5.1413   3.9752   5.6972  -3.7879   3.2045  -3.7907   0.00    0.0
2019/01/15 09:38:59.000   4280220.3115  -4034417.0452  -2458264.9534   5   6   5.1413   3.9750   5.6956  -3.7879   3.2036  -3.7894   0.00    0.0
2019/01/15 09:39:00.000   4280220.3562  -4034417.3702  -2458265.0611   5   6   5.1414   3.9749   5.6941  -3.7878   3.2027  -3.7882   0.00    0.0
2019/01/15 09:39:01.000   4280220.3010  -4034417.4575  -2458265.0862   5   6   5.1415   3.9748   5.6926  -3.7878   3.2018  -3.7869   0.00    0.0
2019/01/15 09:39:02.000   4280220.5839  -4034417.6108  -2458265.3393   5   6   5.1416   3.9747   5.6911  -3.7877   3.2009  -3.7857   0.00    0.0
2019/01/15 09:39:03.000   4280220.9524  -4034417.6477  -2458265.5343   5   6   5.1416   3.9746   5.6895  -3.7877   3.2000  -3.7844   0.00    0.0
2019/01/15 09:39:04.000   4280220.8075  -4034417.4303  -2458265.1774   5   6   5.1417   3.9744   5.6880  -3.7876   3.1991  -3.7831   0.00    0.0
2019/01/15 09:39:05.000   4280220.7321  -4034417.3317  -2458264.4169   5   6   5.1418   3.9743   5.6865  -3.7876   3.1982  -3.7819   0.00    0.0
2019/01/15 09:39:06.000   4280221.1933  -4034417.3958  -2458263.9741   5   6   5.1419   3.9742   5.6849  -3.7875   3.1973  -3.7806   0.00    0.0
2019/01/15 09:39:07.000   4280221.3740  -4034417.2268  -2458263.5140   5   6   5.1420   3.9741   5.6834  -3.7875   3.1964  -3.7794   0.00    0.0
2019/01/15 09:39:08.000   4280221.3847  -4034417.0830  -2458263.1756   5   6   5.1421   3.9740   5.6819  -3.7874   3.1955  -3.7781   0.00    0.0
2019/01/15 09:39:09.000   4280221.1905  -4034416.9976  -2458262.8187   5   6   5.1421   3.9738   5.6804  -3.7874   3.1946  -3.7768   0.00    0.0
2019/01/15 09:39:10.000   4280221.1823  -4034417.0546  -2458262.8619   5   6   5.1422   3.9737   5.6788  -3.7873   3.1937  -3.7756   0.00    0.0
2019/01/15 09:39:11.000   4280221.1352  -4034416.9410  -2458262.7754   5   6   5.1423   3.9736   5.6773  -3.7873   3.1928  -3.7743   0.00    0.0
2019/01/15 09:39:12.000   4280221.2545  -4034417.0107  -2458262.9788   5   6   5.1424   3.9735   5.6758  -3.7872   3.1919  -3.7731   0.00    0.0
2019/01/15 09:39:13.000   4280221.1654  -4034416.9181  -2458263.0382   5   6   5.1425   3.9734   5.6743  -3.7872   3.1910  -3.7718   0.00    0.0
2019/01/15 09:39:14.000   4280221.4104  -4034417.0873  -2458263.4377   5   6   5.1426   3.9733   5.6727  -3.7871   3.1901  -3.7706   0.00    0.0
2019/01/15 09:39:15.000   4280220.8168  -4034416.6657  -2458263.3166   5   6   5.1427   3.9731   5.6712  -3.7871   3.1893  -3.7693   0.00    0.0
2019/01/15 09:39:16.000   4280220.3631  -4034416.1528  -2458263.3715   5   6   5.1427   3.9730   5.6697  -3.7870   3.1884  -3.7681   0.00    0.0
2019/01/15 09:39:17.000   4280219.7673  -4034415.4510  -2458263.0297   5   6   5.1428   3.9729   5.6682  -3.7870   3.1875  -3.7668   0.00    0.0
2019/01/15 09:39:18.000   4280219.7817  -4034415.1786  -2458263.2191   5   6   5.1429   3.9728   5.6667  -3.7870   3.1866  -3.7656   0.00    0.0
2019/01/15 09:39:19.000   4280219.8860  -4034415.0971  -2458263.1923   5   6   5.1430   3.9727   5.6651  -3.7869   3.1857  -3.7643   0.00    0.0
2019/01/15 09:39:20.000   4280219.4245  -4034414.6662  -2458262.7137   5   6   5.1431   3.9726   5.6636  -3.7869   3.1848  -3.7631   0.00    0.0
2019/01/15 09:39:21.000   4280219.2740  -4034414.7074  -2458262.4157   5   6   5.1432   3.9725   5.6621  -3.7868   3.1839  -3.7618   0.00    0.0
2019/01/15 09:39:22.000   4280219.1077  -4034414.8221  -2458262.1821   5   6   5.1433   3.9724   5.6606  -3.7868   3.1831  -3.7606   0.00    0.0
2019/01/15 09:39:23.000   4280218.6948  -4034414.5995  -2458262.1889   5   6   5.1434   3.9722   5.6591  -3.7868   3.1822  -3.7593   0.00    0.0
2019/01/15 09:39:24.000   4280218.5954  -4034414.4858  -2458262.4213   5   6   5.1435   3.9721   5.6576  -3.7867   3.1813  -3.7581   0.00    0.0
2019/01/15 09:39:25.000   4280218.2486  -4034414.2096  -2458262.6986   5   6   5.1436   3.9720   5.6560  -3.7867   3.1804  -3.7568   0.00    0.0
2019/01/15 09:39:26.000   4280217.9097  -4034413.8700  -2458262.9742   5   6   5.1437   3.9719   5.6545  -3.7867   3.1795  -3.7556   0.00    0.0
2019/01/15 09:39:27.000   4280218.3263  -4034414.0817  -2458263.3991   5   6   5.1438   3.9718   5.6530  -3.7866   3.1786  -3.7544   0.00    0.0
2019/01/15 09:39:28.000   4280218.5669  -4034414.2654  -2458263.6139   5   6   5.1439   3.9717   5.6515  -3.7866   3.1778  -3.7531   0.00    0.0
2019/01/15 09:39:29.000   4280218.4677  -4034414.2381  -2458263.2950   5   6   5.1440   3.9716   5.6500  -3.7865   3.1769  -3.7519   0.00    0.0
2019/01/15 09:39:30.000   4280218.3068  -4034414.1390  -2458263.0553   5   6   5.1441   3.9715   5.6485  -3.7865   3.1760  -3.7506   0.00    0.0
2019/01/15 09:39:31.000   4280218.0121  -4034414.1226  -2458262.7200   5   6   5.1442   3.9714   5.6470  -3.7865   3.1751  -3.7494   0.00    0.0
2019/01/15 09:39:32.000   4280217.7313  -4034414.0602  -2458262.6870   5   6   5.1443   3.9713   5.6455  -3.7864   3.1743  -3.7481   0.00    0.0
2019/01/15 09:39:33.000   4280217.6521  -4034413.9059  -2458263.1153   5   6   5.1444   3.9712   5.6439  -3.7864   3.1734  -3.7469   0.00    0.0
2019/01/15 09:39:34.000   4280217.9912  -4034414.0105  -2458263.6673   5   6   5.1445   3.9711   5.6424  -3.7864   3.1725  -3.7457   0.00    0.0
2019/01/15 09:39:35.000   4280218.4275  -4034414.1502  -2458264.2315   5   6   5.1446   3.9709   5.6409  -3.7864   3.1716  -3.7444   0.00    0.0
2019/01/15 09:39:36.000   4280218.1399  -4034413.8488  -2458264.4608   5   6   5.1447   3.9708   5.6394  -3.7863   3.1707  -3.7432   0.00    0.0
2019/01/15 09:39:37.000   4280217.7182  -4034413.4912  -2458264.6712   5   6   5.1448   3.9707   5.6379  -3.7863   3.1699  -3.7419   0.00    0.0
2019/01/15 09:39:38.000   4280217.2820  -4034413.0126  -2458264.6445   5   6   5.1449   3.9706   5.6364  -3.7863   3.1690  -3.7407   0.00    0.0
2019/01/15 09:39:39.000   4280217.5531  -4034412.9962  -2458264.8646   5   6   5.1450   3.9705   5.6349  -3.7862   3.1681  -3.7395   0.00    0.0
2019/01/15 09:39:40.000   4280218.0209  -4034413.0638  -2458264.8895   5   6   5.1451   3.9704   5.6334  -3.7862   3.1673  -3.7382   0.00    0.0
2019/01/15 09:39:41.000   4280218.3559  -4034413.1197  -2458265.0576   5   6   5.1452   3.9703   5.6319  -3.7862   3.1664  -3.7370   0.00    0.0
2019/01/15 09:39:42.000   4280218.4705  -4034413.2522  -2458265.3037   5   6   5.1453   3.9702   5.6304  -3.7862   3.1655  -3.7358   0.00    0.0
2019/01/15 09:39:43.000   4280218.1209  -4034413.1737  -2458265.5623   5   6   5.1454   3.9701   5.6289  -3.7861   3.1646  -3.7345   0.00    0.0
2019/01/15 09:39:44.000   4280218.4238  -4034413.2397  -2458266.1163   5   6   5.1456   3.9700   5.6274  -3.7861   3.1638  -3.7333   0.00    0.0
2019/01/15 09:39:45.000   4280218.8260  -4034413.3625  -2458266.7852   5   6   5.1457   3.9699   5.6259  -3.7861   3.1629  -3.7321   0.00    0.0
2019/01/15 09:39:46.000   4280219.1770  -4034413.6838  -2458267.1017   5   6   5.1458   3.9698   5.6244  -3.7861   3.1620  -3.7308   0.00    0.0
2019/01/15 09:39:47.000   4280219.4823  -4034413.8718  -2458267.2542   5   6   5.1459   3.9697   5.6229  -3.7860   3.1612  -3.7296   0.00    0.0
2019/01/15 09:39:48.000   4280219.2909  -4034413.9530  -2458266.7493   5   6   5.1460   3.9696   5.6214  -3.7860   3.1603  -3.7284   0.00    0.0
2019/01/15 09:39:49.000   4280218.9651  -4034413.8235  -2458266.1478   5   6   5.1461   3.9695   5.6199  -3.7860   3.1594  -3.7272   0.00    0.0
2019/01/15 09:39:50.000   4280218.5962  -4034413.6422  -2458265.5939   5   6   5.1462   3.9694   5.6184  -3.7860   3.1586  -3.7259   0.00    0.0
2019/01/15 09:39:51.000   4280217.8437  -4034413.0666  -2458265.0677   5   6   5.1464   3.9693   5.6169  -3.7859   3.1577  -3.7247   0.00    0.0
2019/01/15 09:39:52.000   4280216.9452  -4034412.3235  -2458264.6660   5   6   5.1465   3.9692   5.6154  -3.7859   3.1569  -3.7235   0.00    0.0
2019/01/15 09:39:53.000   4280216.5043  -4034411.9715  -2458264.6693   5   6   5.1466   3.9691   5.6139  -3.7859   3.1560  -3.7223   0.00    0.0
2019/01/15 09:39:54.000   4280215.8341  -4034411.3608  -2458264.5087   5   6   5.1467   3.9690   5.6124  -3.7859   3.1551  -3.7210   0.00    0.0
2019/01/15 09:39:55.000   4280215.2027  -4034410.6706  -2458264.4386   5   6   5.1468   3.9689   5.6109  -3.7859   3.1543  -3.7198   0.00    0.0
2019/01/15 09:39:56.000   4280215.2563  -4034410.4416  -2458264.6480   5   6   5.1470   3.9688   5.6094  -3.7859   3.1534  -3.7186   0.00    0.0
2019/01/15 09:39:57.000   4280215.6819  -4034410.7356  -2458264.9670   5   6   5.1471   3.9687   5.6079  -3.7858   3.1525  -3.7174   0.00    0.0
2019/01/15 09:39:58.000   4280216.3334  -4034411.0582  -2458265.4483   5   6   5.1472   3.9686   5.6064  -3.7858   3.1517  -3.7161   0.00    0.0
2019/01/15 09:39:59.000   4280216.8013  -4034411.1202  -2458265.4130   5   6   5.1473   3.9685   5.6049  -3.7858   3.1508  -3.7149   0.00    0.0
2019/01/15 09:40:00.000   4280216.5432  -4034410.9384  -2458264.9474   5   6   5.1474   3.9684   5.6034  -3.7858   3.1500  -3.7137   0.00    0.0
2019/01/15 09:40:01.000   4280215.8823  -4034410.6869  -2458264.2487   5   6   5.1476   3.9683   5.6019  -3.7858   3.1491  -3.7125   0.00    0.0
2019/01/15 09:40:02.000   4280215.3387  -4034410.5382  -2458263.9451   5   6   5.1477   3.9683   5.6005  -3.7858   3.1483  -3.7113   0.00    0.0
2019/01/15 09:40:03.000   4280214.9849  -4034410.3642  -2458264.1790   5   6   5.1478   3.9682   5.5990  -3.7857   3.1474  -3.7100   0.00    0.0
2019/01/15 09:40:04.000   4280215.3042  -4034410.4702  -2458264.6195   5   6   5.1479   3.9681   5.5975  -3.7857   3.1465  -3.7088   0.00    0.0
2019/01/15 09:40:05.000   4280215.2389  -4034410.4651  -2458264.6935   5   6   5.1481   3.9680   5.5960  -3.7857   3.1457  -3.7076   0.00    0.0
2019/01/15 09:40:06.000   4280215.2210  -4034410.5182  -2458264.5106   5   6   5.1482   3.9679   5.5945  -3.7857   3.1448  -3.7064   0.00    0.0
2019/01/15 09:40:07.000   4280215.3157  -4034410.5783  -2458264.1111   5   6   5.1483   3.9678   5.5930  -3.7857   3.1440  -3.7052   0.00    0.0
2019/01/15 09:40:08.000   4280215.4296  -4034410.7995  -2458263.9154   5   6   5.1484   3.9677   5.5915  -3.7857   3.1431  -3.7040   0.00    0.0
2019/01/15 09:40:09.000   4280215.3230  -4034410.9805  -2458263.6592   5   6   5.1486   3.9676   5.5900  -3.7857   3.1423  -3.7027   0.00    0.0
2019/01/15 09:40:10.000   4280214.8640  -4034410.9446  -2458263.5309   5   6   5.1487   3.9675   5.5886  -3.7857   3.1414  -3.7015   0.00    0.0
2019/01/15 09:40:11.000   4280214.5138  -4034410.8040  -2458263.5880   5   6   5.1488   3.9674   5.5871  -3.7857   3.1406  -3.7003   0.00    0.0
2019/01/15 09:40:12.000   4280214.3400  -4034410.7416  -2458263.4208   5   6   5.1490   3.9673   5.5856  -3.7857   3.1397  -3.6991   0.00    0.0
2019/01/15 09:40:13.000   4280214.2828  -4034410.8670  -2458263.3527   5   6   5.1491   3.9672   5.5841  -3.7856   3.1389  -3.6979   0.00    0.0
2019/01/15 09:40:14.000   4280214.1816  -4034411.2105  -2458263.4842   5   6   5.1492   3.9672   5.5826  -3.7856   3.1380  -3.6967   0.00    0.0
2019/01/15 09:40:15.000   4280214.0491  -4034411.5813  -2458263.8588   5   6   5.1494   3.9671   5.5811  -3.7856   3.1372  -3.6955   0.00    0.0
2019/01/15 09:40:16.000   4280214.0719  -4034411.7791  -2458264.2106   5   6   5.1495   3.9670   5.5797  -3.7856   3.1363  -3.6943   0.00    0.0
2019/01/15 09:40:17.000   4280214.0154  -4034411.8109  -2458264.1088   5   6   5.1496   3.9669   5.5782  -3.7856   3.1355  -3.6931   0.00    0.0
2019/01/15 09:40:18.000   4280214.0339  -4034411.6732  -2458263.9035   5   6   5.1498   3.9668   5.5767  -3.7856   3.1347  -3.6918   0.00    0.0
2019/01/15 09:40:19.000   4280214.2503  -4034411.5385  -2458263.7368   5   6   5.1499   3.9667   5.5752  -3.7856   3.1338  -3.6906   0.00    0.0
2019/01/15 09:40:20.000   4280214.2771  -4034411.3982  -2458263.4674   5   6   5.1501   3.9666   5.5738  -3.7856   3.1330  -3.6894   0.00    0.0
2019/01/15 09:40:21.000   4280214.0664  -4034411.1319  -2458263.1936   5   6   5.1502   3.9665   5.5723  -3.7856   3.1321  -3.6882   0.00    0.0
2019/01/15 09:40:22.000   4280214.0863  -4034411.0393  -2458263.1177   5   6   5.1503   3.9665   5.5708  -3.7856   3.1313  -3.6870   0.00    0.0
2019/01/15 09:40:23.000   4280213.8659  -4034410.8813  -2458262.7647   5   6   5.1505   3.9664   5.5693  -3.7856   3.1304  -3.6858   0.00    0.0
2019/01/15 09:40:24.000   4280213.7523  -4034410.7627  -2458262.6256   5   6   5.1506   3.9663   5.5678  -3.7856   3.1296  -3.6846   0.00    0.0
2019/01/15 09:40:25.000   4280214.2168  -4034410.9740  -2458263.0232   5   6   5.1508   3.9662   5.5664  -3.7856   3.1288  -3.6834   0.00    0.0
2019/01/15 09:40:26.000   4280214.2287  -4034410.9203  -2458263.4321   5   6   5.1509   3.9661   5.5649  -3.7856   3.1279  -3.6822   0.00    0.0
2019/01/15 09:40:27.000   4280214.0230  -4034410.5947  -2458263.9436   5   6   5.1510   3.9660   5.5634  -3.7856   3.1271  -3.6810   0.00    0.0
2019/01/15 09:40:28.000   4280214.0310  -4034410.5346  -2458264.2517   5   6   5.1512   3.9660   5.5620  -3.7856   3.1262  -3.6798   0.00    0.0
2019/01/15 09:40:29.000   4280214.3435  -4034410.7364  -2458264.5997   5   6   5.1513   3.9659   5.5605  -3.7856   3.1254  -3.6786   0.00    0.0
2019/01/15 09:40:30.000   4280214.6469  -4034411.1353  -2458264.9124   5   6   5.1515   3.9658   5.5590  -3.7856   3.1246  -3.6774   0.00    0.0
2019/01/15 09:40:31.000   4280214.6475  -4034411.4784  -2458264.9384   5   6   5.1516   3.9657   5.5575  -3.7856   3.1237  -3.6762   0.00    0.0
2019/01/15 09:40:32.000   4280214.5150  -4034411.7298  -2458265.0258   5   6   5.1518   3.9656   5.5561  -3.7856   3.1229  -3.6750   0.00    0.0
2019/01/15 09:40:33.000   4280214.2350  -4034411.8091  -2458264.9869   5   6   5.1519   3.9655   5.5546  -3.7856   3.1221  -3.6738   0.00    0.0
2019/01/15 09:40:34.000   4280214.1691  -4034412.0767  -2458265.0994   5   6   5.1521   3.9655   5.5531  -3.7856   3.1212  -3.6726   0.00    0.0
2019/01/15 09:40:35.000   4280214.3712  -4034412.1163  -2458265.5929   5   6   5.1522   3.9654   5.5517  -3.7856   3.1204  -3.6714   0.00    0.0
2019/01/15 09:40:36.000   4280214.2757  -4034411.8134  -2458265.9592   5   6   5.1524   3.9653   5.5502  -3.7857   3.1196  -3.6702   0.00    0.0
2019/01/15 09:40:37.000   4280213.9712  -4034411.2784  -2458266.3461   5   6   5.1525   3.9652   5.5487  -3.7857   3.1187  -3.6690   0.00    0.0
2019/01/15 09:40:38.000   4280213.7394  -4034411.1655  -2458266.5110   5   6   5.1527   3.9651   5.5473  -3.7857   3.1179  -3.6678   0.00    0.0
2019/01/15 09:40:39.000   4280213.5732  -4034411.2488  -2458266.5265   5   6   5.1528   3.9651   5.5458  -3.7857   3.1171  -3.6666   0.00    0.0
2019/01/15 09:40:40.000   4280213.6385  -4034411.4885  -2458266.6250   5   6   5.1530   3.9650   5.5443  -3.7857   3.1162  -3.6655   0.00    0.0
2019/01/15 09:40:41.000   4280213.7423  -4034411.9370  -2458266.7626   5   6   5.1531   3.9649   5.5429  -3.7857   3.1154  -3.6643   0.00    0.0
2019/01/15 09:40:42.000   4280214.0050  -4034412.4967  -2458266.9006   5   6   5.1533   3.9648   5.5414  -3.7857   3.1146  -3.6631   0.00    0.0
2019/01/15 09:40:43.000   4280213.9118  -4034412.5784  -2458266.9085   5   6   5.1534   3.9648   5.5399  -3.7857   3.1137  -3.6619   0.00    0.0
2019/01/15 09:40:44.000   4280213.8717  -4034412.5513  -2458267.0928   5   6   5.1536   3.9647   5.5385  -3.7857   3.1129  -3.6607   0.00    0.0
2019/01/15 09:40:45.000   4280213.8490  -4034412.5210  -2458267.1554   5   6   5.1538   3.9646   5.5370  -3.7857   3.1121  -3.6595   0.00    0.0
2019/01/15 09:40:46.000   4280213.7097  -4034412.5230  -2458267.1836   5   6   5.1539   3.9645   5.5356  -3.7858   3.1113  -3.6583   0.00    0.0
2019/01/15 09:40:47.000   4280213.5932  -4034412.7391  -2458266.9175   5   6   5.1541   3.9645   5.5341  -3.7858   3.1104  -3.6571   0.00    0.0
2019/01/15 09:40:48.000   4280213.4601  -4034412.9401  -2458266.6789   5   6   5.1542   3.9644   5.5326  -3.7858   3.1096  -3.6559   0.00    0.0
2019/01/15 09:40:49.000   4280213.2889  -4034412.8189  -2458266.3392   5   6   5.1544   3.9643   5.5312  -3.7858   3.1088  -3.6548   0.00    0.0
2019/01/15 09:40:50.000   4280213.0585  -4034412.8021  -2458266.2509   5   6   5.1546   3.9642   5.5297  -3.7858   3.1080  -3.6536   0.00    0.0
2019/01/15 09:40:51.000   4280213.1686  -4034413.1427  -2458266.1025   5   6   5.1547   3.9642   5.5283  -3.7858   3.1071  -3.6524   0.00    0.0
2019/01/15 09:40:52.000   4280213.4529  -4034413.4490  -2458266.1430   5   6   5.1549   3.9641   5.5268  -3.7859   3.1063  -3.6512   0.00    0.0
2019/01/15 09:40:53.000   4280213.6596  -4034413.7072  -2458266.4132   5   6   5.1550   3.9640   5.5253  -3.7859   3.1055  -3.6500   0.00    0.0
2019/01/15 09:40:54.000   4280214.2372  -4034413.9765  -2458267.1002   5   6   5.1552   3.9639   5.5239  -3.7859   3.1047  -3.6488   0.00    0.0
2019/01/15 09:40:55.000   4280214.6751  -4034414.0952  -2458267.7924   5   6   5.1554   3.9639   5.5224  -3.7859   3.1039  -3.6476   0.00    0.0
2019/01/15 09:40:56.000   4280214.9195  -4034414.0478  -2458268.1447   5   6   5.1555   3.9638   5.5210  -3.7859   3.1030  -3.6465   0.00    0.0
2019/01/15 09:40:57.000   4280214.8633  -4034413.8213  -2458268.2136   5   6   5.1557   3.9637   5.5195  -3.7859   3.1022  -3.6453   0.00    0.0
2019/01/15 09:40:58.000   4280214.8596  -4034413.6595  -2458268.0151   5   6   5.1559   3.9637   5.5181  -3.7860   3.1014  -3.6441   0.00    0.0
2019/01/15 09:40:59.000   4280214.9966  -4034413.6281  -2458267.8397   5   6   5.1560   3.9636   5.5166  -3.7860   3.1006  -3.6429   0.00    0.0
2019/01/15 09:41:00.000   4280215.3193  -4034413.7344  -2458267.8858   5   6   5.1562   3.9635   5.5152  -3.7860   3.0998  -3.6417   0.00    0.0
2019/01/15 09:41:01.000   4280215.4314  -4034413.8469  -2458267.6862   5   6   5.1564   3.9634   5.5137  -3.7860   3.0990  -3.6406   0.00    0.0
2019/01/15 09:41:02.000   4280215.2887  -4034413.7724  -2458267.7240   5   6   5.1565   3.9634   5.5123  -3.7861   3.0981  -3.6394   0.00    0.0
2019/01/15 09:41:03.000   4280215.0954  -4034413.6200  -2458267.7237   5   6   5.1567   3.9633   5.5108  -3.7861   3.0973  -3.6382   0.00    0.0
2019/01/15 09:41:04.000   4280215.0810  -4034413.5228  -2458267.7452   5   6   5.1569   3.9632   5.5094  -3.7861   3.0965  -3.6370   0.00    0.0
2019/01/15 09:41:05.000   4280215.6838  -4034414.0853  -2458268.2865   5   6   5.1571   3.9632   5.5079  -3.7861   3.0957  -3.6359   0.00    0.0
2019/01/15 09:41:06.000   4280216.1074  -4034414.4967  -2458268.7673   5   6   5.1572   3.9631   5.5065  -3.7862   3.0949  -3.6347   0.00    0.0
2019/01/15 09:41:07.000   4280216.1041  -4034414.6393  -2458269.1262   5   6   5.1574   3.9630   5.5050  -3.7862   3.0941  -3.6335   0.00    0.0
2019/01/15 09:41:08.000   4280216.2203  -4034414.6867  -2458269.1254   5   6   5.1576   3.9630   5.5036  -3.7862   3.0933  -3.6323   0.00    0.0
2019/01/15 09:41:09.000   4280215.9650  -4034414.5495  -2458268.9409   5   6   5.1578   3.9629   5.5021  -3.7862   3.0925  -3.6312   0.00    0.0
2019/01/15 09:41:10.000   4280215.7951  -4034414.4829  -2458268.8689   5   6   5.1579   3.9628   5.5007  -3.7863   3.0917  -3.6300   0.00    0.0
2019/01/15 09:41:11.000   4280215.6408  -4034414.3597  -2458268.4922   5   6   5.1581   3.9628   5.4993  -3.7863   3.0908  -3.6288   0.00    0.0
2019/01/15 09:41:12.000   4280215.8716  -4034414.2276  -2458268.2407   5   6   5.1583   3.9627   5.4978  -3.7863   3.0900  -3.6277   0.00    0.0
2019/01/15 09:41:13.000   4280216.4944  -4034414.6294  -2458267.9805   5   6   5.1585   3.9626   5.4964  -3.7863   3.0892  -3.6265   0.00    0.0
2019/01/15 09:41:14.000   4280217.0207  -4034414.9639  -2458267.4947   5   6   5.1586   3.9626   5.4949  -3.7864   3.0884  -3.6253   0.00    0.0
2019/01/15 09:41:15.000   4280216.9858  -4034415.0091  -2458266.9176   5   6   5.1588   3.9625   5.4935  -3.7864   3.0876  -3.6242   0.00    0.0
2019/01/15 09:41:16.000   4280216.5447  -4034414.7575  -2458266.4432   5   6   5.1590   3.9624   5.4920  -3.7864   3.0868  -3.6230   0.00    0.0
2019/01/15 09:41:17.000   4280216.6428  -4034414.6634  -2458266.5043   5   6   5.1592   3.9624   5.4906  -3.7865   3.0860  -3.6218   0.00    0.0
2019/01/15 09:41:18.000   4280217.0520  -4034414.8767  -2458266.9049   5   6   5.1594   3.9623   5.4892  -3.7865   3.0852  -3.6207   0.00    0.0
2019/01/15 09:41:19.000   4280217.8710  -4034415.5004  -2458267.5346   5   6   5.1595   3.9623   5.4877  -3.7865   3.0844  -3.6195   0.00    0.0
2019/01/15 09:41:20.000   4280218.7703  -4034416.1701  -2458268.2885   5   6   5.1597   3.9622   5.4863  -3.7866   3.0836  -3.6183   0.00    0.0
2019/01/15 09:41:21.000   4280219.3553  -4034416.5845  -2458268.6774   5   6   5.1599   3.9621   5.4849  -3.7866   3.0828  -3.6172   0.00    0.0
2019/01/15 09:41:22.000   4280219.7115  -4034416.8257  -2458268.6836   5   6   5.1601   3.9621   5.4834  -3.7866   3.0820  -3.6160   0.00    0.0
2019/01/15 09:41:23.000   4280220.0169  -4034416.9832  -2458268.7388   5   6   5.1603   3.9620   5.4820  -3.7867   3.0812  -3.6148   0.00    0.0
2019/01/15 09:41:24.000   4280220.0776  -4034417.1186  -2458268.7594   5   6   5.1605   3.9620   5.4805  -3.7867   3.0804  -3.6137   0.00    0.0
2019/01/15 09:41:25.000   4280220.2717  -4034417.3678  -2458269.1718   5   6   5.1606   3.9619   5.4791  -3.7867   3.0796  -3.6125   0.00    0.0
2019/01/15 09:41:26.000   4280220.7828  -4034417.6611  -2458269.8641   5   6   5.1608   3.9618   5.4777  -3.7868   3.0788  -3.6114   0.00    0.0
2019/01/15 09:41:27.000   4280221.5296  -4034418.0798  -2458270.4815   5   6   5.1610   3.9618   5.4762  -3.7868   3.0780  -3.6102   0.00    0.0
2019/01/15 09:41:28.000   4280221.8584  -4034418.1510  -2458270.8930   5   6   5.1612   3.9617   5.4748  -3.7869   3.0772  -3.6090   0.00    0.0
2019/01/15 09:41:29.000   4280222.0638  -4034418.1374  -2458270.7185   5   6   5.1614   3.9617   5.4734  -3.7869   3.0764  -3.6079   0.00    0.0
2019/01/15 09:41:30.000   4280222.0584  -4034418.1233  -2458270.2734   5   6   5.1616   3.9616   5.4719  -3.7869   3.0756  -3.6067   0.00    0.0
2019/01/15 09:41:31.000   4280221.7323  -4034417.9798  -2458270.1150   5   6   5.1618   3.9615   5.4705  -3.7870   3.0748  -3.6056   0.00    0.0
2019/01/15 09:41:32.000   4280221.1156  -4034417.5036  -2458269.7058   5   6   5.1620   3.9615   5.4691  -3.7870   3.0740  -3.6044   0.00    0.0
2019/01/15 09:41:33.000   4280220.9621  -4034417.2302  -2458269.3686   5   6   5.1622   3.9614   5.4677  -3.7871   3.0732  -3.6033   0.00    0.0
2019/01/15 09:41:34.000   4280221.2852  -4034417.2894  -2458269.3149   5   6   5.1624   3.9614   5.4662  -3.7871   3.0724  -3.6021   0.00    0.0
2019/01/15 09:41:35.000   4280222.1421  -4034417.5960  -2458269.6264   5   6   5.1626   3.9613   5.4648  -3.7871   3.0716  -3.6009   0.00    0.0
2019/01/15 09:41:36.000   4280222.7182  -4034417.8698  -2458269.9279   5   6   5.1627   3.9613   5.4634  -3.7872   3.0708  -3.5998   0.00    0.0
2019/01/15 09:41:37.000   4280222.3230  -4034417.6600  -2458269.9929   5   6   5.1629   3.9612   5.4619  -3.7872   3.0701  -3.5986   0.00    0.0
