% program   : RTKPOST ver.2.4.2
% inp file  : D:\Google Drive\UERJ\_Projeto Final\Python\tcc-guilherme\20190211_Sta91500_Smoothed5sec.19o
% inp file  : D:\Google Drive\UERJ\_Projeto Final\20190211_Marco91500 IBGE\brdm0420.19p
% obs start : 2019/02/11 08:56:22.0 GPST (week2040 118582.0s)
% obs end   : 2019/02/11 10:26:05.0 GPST (week2040 123965.0s)
% pos mode  : single
% elev mask : 15.0 deg
% ionos opt : broadcast
% tropo opt : saastamoinen
% ephemeris : broadcast
% navi sys  : gps glonass galileo
%
% (x/y/z-ecef=WGS84,Q=1:fix,2:float,3:sbas,4:dgps,5:single,6:ppp,ns=# of satellites)
%  GPST                      x-ecef(m)      y-ecef(m)      z-ecef(m)   Q  ns   sdx(m)   sdy(m)   sdz(m)  sdxy(m)  sdyz(m)  sdzx(m) age(s)  ratio
2019/02/11 08:59:58.000   4280212.0368  -4034410.8254  -2458262.5469   5  11   4.7901   6.1606   4.0402  -4.9874   4.5162  -3.8049   0.00    0.0
2019/02/11 08:59:59.000   4280211.9654  -4034410.4251  -2458262.4959   5  11   4.7898   6.1597   4.0395  -4.9867   4.5152  -3.8042   0.00    0.0
2019/02/11 09:00:00.000   4280212.4067  -4034411.0568  -2458263.0935   5  11   4.7894   6.1587   4.0387  -4.9859   4.5143  -3.8034   0.00    0.0
2019/02/11 09:06:09.000   4280219.4356  -4034414.8036  -2458261.8011   5  12   4.6195   5.7404   3.5385  -4.6904   4.0615  -3.5477   0.00    0.0
2019/02/11 09:06:10.000   4280219.5502  -4034414.6760  -2458261.7733   5  12   4.6189   5.7394   3.5380  -4.6895   4.0607  -3.5471   0.00    0.0
2019/02/11 09:06:13.000   4280219.5643  -4034414.8249  -2458262.4261   5  12   4.6172   5.7365   3.5367  -4.6868   4.0585  -3.5451   0.00    0.0
2019/02/11 09:06:14.000   4280219.5971  -4034415.0350  -2458262.3840   5  12   4.6166   5.7355   3.5363  -4.6859   4.0578  -3.5445   0.00    0.0
2019/02/11 09:06:15.000   4280220.1537  -4034415.4899  -2458262.7132   5  12   4.6160   5.7345   3.5358  -4.6850   4.0570  -3.5438   0.00    0.0
2019/02/11 09:06:18.000   4280220.8041  -4034415.2687  -2458262.3855   5  12   4.6142   5.7316   3.5345  -4.6824   4.0548  -3.5419   0.00    0.0
2019/02/11 09:06:19.000   4280220.7283  -4034414.9224  -2458262.1790   5  12   4.6137   5.7306   3.5340  -4.6815   4.0541  -3.5413   0.00    0.0
2019/02/11 09:06:20.000   4280220.2551  -4034414.1546  -2458261.6972   5  12   4.6131   5.7296   3.5336  -4.6806   4.0533  -3.5406   0.00    0.0
2019/02/11 09:06:21.000   4280220.1990  -4034413.9333  -2458261.5690   5  12   4.6125   5.7286   3.5331  -4.6797   4.0526  -3.5400   0.00    0.0
2019/02/11 09:06:22.000   4280220.4092  -4034413.8746  -2458261.6432   5  12   4.6119   5.7276   3.5327  -4.6788   4.0518  -3.5393   0.00    0.0
2019/02/11 09:06:23.000   4280220.6945  -4034413.6805  -2458261.6895   5  12   4.6113   5.7267   3.5322  -4.6779   4.0511  -3.5387   0.00    0.0
2019/02/11 09:06:24.000   4280221.1919  -4034413.5656  -2458261.7063   5  12   4.6107   5.7257   3.5318  -4.6770   4.0504  -3.5380   0.00    0.0
2019/02/11 09:06:25.000   4280221.4061  -4034413.3340  -2458261.4109   5  12   4.6101   5.7247   3.5313  -4.6761   4.0496  -3.5374   0.00    0.0
2019/02/11 09:06:26.000   4280221.3671  -4034413.1341  -2458261.0155   5  12   4.6095   5.7237   3.5309  -4.6752   4.0489  -3.5367   0.00    0.0
2019/02/11 09:06:27.000   4280221.1938  -4034413.0688  -2458260.5644   5  12   4.6089   5.7227   3.5304  -4.6743   4.0481  -3.5360   0.00    0.0
2019/02/11 09:06:28.000   4280221.4041  -4034413.3227  -2458260.4919   5  12   4.6083   5.7217   3.5300  -4.6734   4.0474  -3.5354   0.00    0.0
2019/02/11 09:06:29.000   4280222.1426  -4034414.0399  -2458261.1172   5  12   4.6077   5.7207   3.5295  -4.6725   4.0466  -3.5347   0.00    0.0
2019/02/11 09:06:30.000   4280222.8165  -4034414.7933  -2458261.8513   5  12   4.6071   5.7198   3.5290  -4.6716   4.0459  -3.5341   0.00    0.0
2019/02/11 09:06:31.000   4280223.9145  -4034415.7375  -2458262.6654   5  12   4.6065   5.7188   3.5286  -4.6707   4.0451  -3.5334   0.00    0.0
2019/02/11 09:06:32.000   4280224.6345  -4034416.6266  -2458263.5348   5  12   4.6059   5.7178   3.5281  -4.6698   4.0444  -3.5328   0.00    0.0
2019/02/11 09:06:33.000   4280224.4199  -4034416.7252  -2458263.6877   5  12   4.6053   5.7168   3.5277  -4.6689   4.0436  -3.5321   0.00    0.0
2019/02/11 09:06:34.000   4280223.8925  -4034416.6523  -2458263.5744   5  12   4.6047   5.7158   3.5272  -4.6680   4.0429  -3.5314   0.00    0.0
2019/02/11 09:06:35.000   4280223.3693  -4034416.4214  -2458263.4080   5  12   4.6041   5.7148   3.5268  -4.6671   4.0421  -3.5308   0.00    0.0
2019/02/11 09:06:36.000   4280222.8643  -4034415.9908  -2458263.0795   5  12   4.6035   5.7138   3.5263  -4.6662   4.0413  -3.5301   0.00    0.0
2019/02/11 09:06:37.000   4280222.8714  -4034416.1015  -2458263.1616   5  12   4.6029   5.7128   3.5258  -4.6653   4.0406  -3.5295   0.00    0.0
2019/02/11 09:06:38.000   4280223.1378  -4034416.2728  -2458263.2678   5  12   4.6023   5.7118   3.5254  -4.6644   4.0398  -3.5288   0.00    0.0
2019/02/11 09:06:39.000   4280223.3121  -4034416.4282  -2458263.5099   5  12   4.6017   5.7108   3.5249  -4.6635   4.0391  -3.5281   0.00    0.0
2019/02/11 09:06:40.000   4280223.4544  -4034416.4762  -2458263.5993   5  12   4.6011   5.7098   3.5245  -4.6626   4.0383  -3.5275   0.00    0.0
2019/02/11 09:06:41.000   4280223.7670  -4034416.8061  -2458263.7613   5  12   4.6005   5.7088   3.5240  -4.6617   4.0376  -3.5268   0.00    0.0
2019/02/11 09:06:42.000   4280223.4209  -4034416.7051  -2458262.8342   5  11   4.7062   5.7668   3.9371  -4.7477   4.2120  -3.7657   0.00    0.0
2019/02/11 09:06:43.000   4280223.5523  -4034417.0362  -2458263.0022   5  11   4.7058   5.7660   3.9372  -4.7471   4.2116  -3.7655   0.00    0.0
2019/02/11 09:06:44.000   4280223.7493  -4034417.3160  -2458263.3443   5  11   4.7055   5.7652   3.9372  -4.7464   4.2113  -3.7652   0.00    0.0
2019/02/11 09:06:45.000   4280224.0747  -4034417.8118  -2458263.9018   5  11   4.7051   5.7644   3.9372  -4.7457   4.2109  -3.7650   0.00    0.0
2019/02/11 09:06:46.000   4280224.3058  -4034418.0537  -2458264.4110   5  12   4.5975   5.7038   3.5217  -4.6571   4.0338  -3.5235   0.00    0.0
2019/02/11 09:06:47.000   4280223.5127  -4034417.6196  -2458263.3621   5  11   4.7043   5.7628   3.9372  -4.7444   4.2102  -3.7644   0.00    0.0
2019/02/11 09:06:48.000   4280223.1423  -4034417.3929  -2458263.0814   5  11   4.7040   5.7620   3.9372  -4.7438   4.2099  -3.7642   0.00    0.0
2019/02/11 09:06:49.000   4280222.9864  -4034417.1067  -2458263.1356   5  11   4.7036   5.7612   3.9372  -4.7431   4.2095  -3.7639   0.00    0.0
2019/02/11 09:06:50.000   4280222.6616  -4034416.6814  -2458262.8428   5  11   4.7032   5.7604   3.9372  -4.7424   4.2092  -3.7636   0.00    0.0
2019/02/11 09:06:51.000   4280223.1218  -4034416.7503  -2458263.7788   5  12   4.5945   5.6988   3.5194  -4.6526   4.0299  -3.5201   0.00    0.0
2019/02/11 09:06:52.000   4280222.4319  -4034415.9018  -2458262.3280   5  11   4.7024   5.7588   3.9372  -4.7411   4.2085  -3.7631   0.00    0.0
2019/02/11 09:06:53.000   4280222.8161  -4034416.0963  -2458263.3297   5  12   4.5932   5.6968   3.5184  -4.6507   4.0284  -3.5188   0.00    0.0
2019/02/11 09:06:54.000   4280222.6265  -4034416.0444  -2458263.2579   5  12   4.5926   5.6958   3.5180  -4.6498   4.0276  -3.5181   0.00    0.0
2019/02/11 09:06:55.000   4280222.5052  -4034416.1332  -2458263.2870   5  12   4.5920   5.6948   3.5175  -4.6489   4.0269  -3.5174   0.00    0.0
2019/02/11 09:06:56.000   4280221.4462  -4034415.3984  -2458261.7420   5  11   4.7009   5.7556   3.9373  -4.7384   4.2070  -3.7621   0.00    0.0
2019/02/11 09:06:57.000   4280221.2046  -4034415.2725  -2458261.9077   5  11   4.7005   5.7548   3.9373  -4.7378   4.2067  -3.7618   0.00    0.0
2019/02/11 09:06:58.000   4280221.5388  -4034415.8815  -2458262.7102   5  11   4.7002   5.7540   3.9373  -4.7371   4.2063  -3.7615   0.00    0.0
2019/02/11 09:06:59.000   4280222.0044  -4034416.2554  -2458263.2228   5  11   4.6998   5.7532   3.9373  -4.7364   4.2060  -3.7612   0.00    0.0
2019/02/11 09:07:00.000   4280222.5430  -4034416.5892  -2458263.6031   5  11   4.6994   5.7524   3.9373  -4.7357   4.2056  -3.7610   0.00    0.0
2019/02/11 09:07:01.000   4280222.4440  -4034416.1705  -2458263.4450   5  11   4.6990   5.7516   3.9373  -4.7351   4.2053  -3.7607   0.00    0.0
2019/02/11 09:07:02.000   4280222.3797  -4034415.8457  -2458263.2798   5  11   4.6986   5.7508   3.9373  -4.7344   4.2049  -3.7604   0.00    0.0
2019/02/11 09:07:03.000   4280222.3358  -4034415.9071  -2458263.3469   5  11   4.6982   5.7500   3.9373  -4.7337   4.2045  -3.7602   0.00    0.0
2019/02/11 09:07:04.000   4280222.3695  -4034416.0050  -2458263.3603   5  11   4.6979   5.7492   3.9373  -4.7331   4.2042  -3.7599   0.00    0.0
2019/02/11 09:07:05.000   4280222.3243  -4034416.1723  -2458263.2660   5  11   4.6975   5.7484   3.9373  -4.7324   4.2038  -3.7596   0.00    0.0
2019/02/11 09:07:06.000   4280222.6878  -4034416.5019  -2458263.4686   5  11   4.6971   5.7476   3.9373  -4.7317   4.2034  -3.7593   0.00    0.0
2019/02/11 09:07:07.000   4280223.1580  -4034417.1783  -2458264.1895   5  12   4.5846   5.6826   3.5119  -4.6378   4.0176  -3.5093   0.00    0.0
2019/02/11 09:07:08.000   4280223.1013  -4034417.2879  -2458264.0062   5  11   4.6963   5.7460   3.9373  -4.7303   4.2027  -3.7588   0.00    0.0
2019/02/11 09:07:09.000   4280223.1577  -4034417.2325  -2458264.0907   5  11   4.6959   5.7452   3.9373  -4.7297   4.2024  -3.7585   0.00    0.0
2019/02/11 09:07:10.000   4280222.8695  -4034416.6190  -2458263.8874   5  11   4.6955   5.7444   3.9373  -4.7290   4.2020  -3.7582   0.00    0.0
2019/02/11 09:07:11.000   4280222.5629  -4034415.8325  -2458263.6142   5  11   4.6951   5.7436   3.9372  -4.7283   4.2016  -3.7580   0.00    0.0
2019/02/11 09:07:12.000   4280222.4045  -4034415.3682  -2458263.6717   5  11   4.6948   5.7428   3.9372  -4.7276   4.2013  -3.7577   0.00    0.0
2019/02/11 09:07:13.000   4280222.2379  -4034414.9533  -2458263.6842   5  11   4.6944   5.7419   3.9372  -4.7270   4.2009  -3.7574   0.00    0.0
2019/02/11 09:07:32.000   4280223.8897  -4034417.2611  -2458266.3213   5  12   4.5690   5.6569   3.4999  -4.6143   3.9979  -3.4920   0.00    0.0
2019/02/11 09:07:43.000   4280222.5927  -4034416.0752  -2458264.6076   5  12   4.5620   5.6455   3.4945  -4.6038   3.9891  -3.4843   0.00    0.0
2019/02/11 09:07:44.000   4280222.6841  -4034415.9533  -2458264.5558   5  12   4.5614   5.6445   3.4940  -4.6029   3.9883  -3.4836   0.00    0.0
2019/02/11 09:07:45.000   4280222.8688  -4034415.9406  -2458264.5382   5  12   4.5608   5.6434   3.4935  -4.6019   3.9875  -3.4829   0.00    0.0
2019/02/11 09:07:46.000   4280222.9241  -4034415.8197  -2458264.4139   5  12   4.5601   5.6424   3.4930  -4.6010   3.9867  -3.4822   0.00    0.0
2019/02/11 09:07:47.000   4280223.1354  -4034415.8405  -2458264.5548   5  12   4.5595   5.6413   3.4926  -4.6000   3.9859  -3.4815   0.00    0.0
2019/02/11 09:07:48.000   4280223.4659  -4034416.2312  -2458264.9626   5  12   4.5589   5.6403   3.4921  -4.5990   3.9851  -3.4808   0.00    0.0
2019/02/11 09:07:49.000   4280223.8243  -4034416.8023  -2458265.5222   5  12   4.5582   5.6392   3.4916  -4.5981   3.9843  -3.4801   0.00    0.0
2019/02/11 09:07:50.000   4280224.0485  -4034417.1440  -2458265.9183   5  12   4.5576   5.6382   3.4911  -4.5971   3.9835  -3.4794   0.00    0.0
2019/02/11 09:07:51.000   4280224.1970  -4034417.3068  -2458266.1706   5  12   4.5569   5.6371   3.4906  -4.5962   3.9827  -3.4787   0.00    0.0
2019/02/11 09:07:52.000   4280224.3392  -4034417.3527  -2458266.2074   5  12   4.5563   5.6361   3.4901  -4.5952   3.9819  -3.4780   0.00    0.0
2019/02/11 09:07:53.000   4280224.3252  -4034417.2141  -2458266.1400   5  12   4.5557   5.6350   3.4896  -4.5942   3.9811  -3.4773   0.00    0.0
2019/02/11 09:07:54.000   4280224.2779  -4034417.1120  -2458266.1196   5  12   4.5550   5.6340   3.4891  -4.5933   3.9803  -3.4765   0.00    0.0
2019/02/11 09:07:55.000   4280224.7294  -4034417.2270  -2458266.3320   5  12   4.5544   5.6329   3.4886  -4.5923   3.9795  -3.4758   0.00    0.0
2019/02/11 09:07:56.000   4280224.8791  -4034417.1512  -2458266.3447   5  12   4.5537   5.6319   3.4881  -4.5913   3.9787  -3.4751   0.00    0.0
2019/02/11 09:07:57.000   4280224.9448  -4034417.1808  -2458266.3208   5  12   4.5531   5.6308   3.4876  -4.5904   3.9779  -3.4744   0.00    0.0
2019/02/11 09:07:58.000   4280225.0330  -4034417.4844  -2458266.6037   5  12   4.5524   5.6298   3.4871  -4.5894   3.9771  -3.4737   0.00    0.0
2019/02/11 09:07:59.000   4280225.4449  -4034418.0493  -2458267.2997   5  12   4.5518   5.6287   3.4866  -4.5884   3.9762  -3.4730   0.00    0.0
2019/02/11 09:08:00.000   4280223.9250  -4034416.9088  -2458265.0126   5  11   4.6754   5.7033   3.9363  -4.6942   4.1828  -3.7435   0.00    0.0
2019/02/11 09:08:01.000   4280224.2087  -4034417.0128  -2458265.2174   5  11   4.6750   5.7024   3.9363  -4.6935   4.1824  -3.7432   0.00    0.0
2019/02/11 09:08:02.000   4280224.6037  -4034417.0518  -2458265.4523   5  11   4.6745   5.7016   3.9363  -4.6928   4.1820  -3.7429   0.00    0.0
2019/02/11 09:08:03.000   4280226.5895  -4034418.4384  -2458268.5553   5  12   4.5492   5.6245   3.4847  -4.5846   3.9730  -3.4701   0.00    0.0
2019/02/11 09:08:04.000   4280226.9688  -4034418.5656  -2458268.8187   5  12   4.5486   5.6235   3.4842  -4.5836   3.9722  -3.4694   0.00    0.0
2019/02/11 09:08:05.000   4280227.2073  -4034418.7085  -2458268.9155   5  12   4.5479   5.6224   3.4837  -4.5826   3.9714  -3.4687   0.00    0.0
2019/02/11 09:08:06.000   4280225.5793  -4034417.2748  -2458265.7506   5  11   4.6729   5.6982   3.9361  -4.6899   4.1804  -3.7416   0.00    0.0
2019/02/11 09:08:07.000   4280225.8316  -4034417.3163  -2458265.9622   5  11   4.6724   5.6974   3.9361  -4.6892   4.1799  -3.7413   0.00    0.0
2019/02/11 09:08:08.000   4280226.3984  -4034417.3006  -2458266.4702   5  11   4.6720   5.6966   3.9361  -4.6885   4.1795  -3.7410   0.00    0.0
2019/02/11 09:08:09.000   4280226.5806  -4034417.2772  -2458266.8984   5  11   4.6716   5.6957   3.9360  -4.6878   4.1791  -3.7406   0.00    0.0
2019/02/11 09:08:10.000   4280226.4500  -4034417.2743  -2458267.1601   5  11   4.6712   5.6949   3.9360  -4.6871   4.1787  -3.7403   0.00    0.0
2019/02/11 09:08:11.000   4280226.0628  -4034417.3552  -2458267.4001   5  11   4.6708   5.6940   3.9360  -4.6863   4.1783  -3.7400   0.00    0.0
2019/02/11 09:08:12.000   4280225.7656  -4034417.4412  -2458267.5639   5  11   4.6703   5.6932   3.9359  -4.6856   4.1779  -3.7397   0.00    0.0
2019/02/11 09:08:13.000   4280225.5200  -4034417.4707  -2458267.7056   5  11   4.6699   5.6924   3.9359  -4.6849   4.1775  -3.7394   0.00    0.0
2019/02/11 09:08:14.000   4280225.6359  -4034417.8262  -2458268.1903   5  11   4.6695   5.6915   3.9359  -4.6842   4.1771  -3.7390   0.00    0.0
2019/02/11 09:08:15.000   4280226.9148  -4034418.8080  -2458270.6239   5  12   4.5414   5.6118   3.4787  -4.5729   3.9632  -3.4615   0.00    0.0
2019/02/11 09:08:16.000   4280226.9219  -4034418.8115  -2458270.6243   5  12   4.5408   5.6108   3.4782  -4.5719   3.9624  -3.4608   0.00    0.0
2019/02/11 09:08:17.000   4280226.7706  -4034418.6283  -2458270.4657   5  12   4.5401   5.6097   3.4777  -4.5709   3.9615  -3.4600   0.00    0.0
2019/02/11 09:08:18.000   4280226.4660  -4034418.2614  -2458270.1837   5  12   4.5395   5.6086   3.4771  -4.5700   3.9607  -3.4593   0.00    0.0
2019/02/11 09:08:19.000   4280226.2950  -4034417.8954  -2458270.0475   5  12   4.5388   5.6076   3.4766  -4.5690   3.9599  -3.4586   0.00    0.0
2019/02/11 09:08:20.000   4280226.2087  -4034417.7158  -2458270.1301   5  12   4.5382   5.6065   3.4761  -4.5680   3.9591  -3.4579   0.00    0.0
2019/02/11 09:08:21.000   4280225.9357  -4034417.3610  -2458270.0502   5  12   4.5375   5.6055   3.4756  -4.5670   3.9582  -3.4571   0.00    0.0
2019/02/11 09:08:22.000   4280225.6655  -4034417.1877  -2458269.9885   5  12   4.5368   5.6044   3.4751  -4.5660   3.9574  -3.4564   0.00    0.0
2019/02/11 09:08:23.000   4280225.6757  -4034417.1545  -2458270.0473   5  12   4.5362   5.6033   3.4746  -4.5650   3.9566  -3.4557   0.00    0.0
2019/02/11 09:08:24.000   4280225.6541  -4034416.9636  -2458269.9881   5  12   4.5355   5.6023   3.4741  -4.5641   3.9558  -3.4549   0.00    0.0
2019/02/11 09:08:25.000   4280225.6767  -4034416.8040  -2458269.6664   5  12   4.5349   5.6012   3.4736  -4.5631   3.9549  -3.4542   0.00    0.0
2019/02/11 09:08:26.000   4280225.8069  -4034416.8371  -2458269.5266   5  12   4.5342   5.6001   3.4731  -4.5621   3.9541  -3.4535   0.00    0.0
2019/02/11 09:08:27.000   4280225.8182  -4034416.8671  -2458269.4173   5  11   4.6639   5.6805   3.9353  -4.6748   4.1717  -3.7348   0.00    0.0
2019/02/11 09:08:28.000   4280226.0052  -4034417.0520  -2458269.6895   5  12   4.5329   5.5980   3.4721  -4.5601   3.9525  -3.4520   0.00    0.0
2019/02/11 09:08:29.000   4280226.1781  -4034417.1596  -2458269.9927   5  12   4.5322   5.5969   3.4716  -4.5591   3.9516  -3.4513   0.00    0.0
2019/02/11 09:08:30.000   4280225.6333  -4034416.5424  -2458269.2729   5  11   4.6626   5.6780   3.9352  -4.6726   4.1704  -3.7338   0.00    0.0
2019/02/11 09:08:31.000   4280225.5380  -4034416.4764  -2458269.5401   5  12   4.5309   5.5948   3.4706  -4.5572   3.9500  -3.4498   0.00    0.0
2019/02/11 09:08:32.000   4280225.2427  -4034416.4800  -2458269.1928   5  12   4.5303   5.5937   3.4701  -4.5562   3.9491  -3.4491   0.00    0.0
2019/02/11 09:08:33.000   4280224.7245  -4034416.3573  -2458268.6261   5  12   4.5296   5.5926   3.4696  -4.5552   3.9483  -3.4484   0.00    0.0
2019/02/11 09:08:34.000   4280224.2047  -4034416.3610  -2458268.2030   5  12   4.5290   5.5916   3.4691  -4.5542   3.9475  -3.4476   0.00    0.0
2019/02/11 09:08:35.000   4280224.1378  -4034416.4850  -2458267.8975   5  12   4.5283   5.5905   3.4685  -4.5532   3.9467  -3.4469   0.00    0.0
2019/02/11 09:08:36.000   4280224.1099  -4034416.6227  -2458267.9424   5  12   4.5276   5.5894   3.4680  -4.5522   3.9458  -3.4462   0.00    0.0
2019/02/11 09:08:37.000   4280224.1349  -4034416.6181  -2458268.0639   5  12   4.5270   5.5884   3.4675  -4.5512   3.9450  -3.4454   0.00    0.0
2019/02/11 09:08:38.000   4280223.9809  -4034416.5158  -2458268.1237   5  12   4.5263   5.5873   3.4670  -4.5502   3.9442  -3.4447   0.00    0.0
2019/02/11 09:08:39.000   4280223.9327  -4034416.6231  -2458268.2868   5  12   4.5256   5.5862   3.4665  -4.5493   3.9433  -3.4440   0.00    0.0
2019/02/11 09:08:40.000   4280223.8043  -4034416.6084  -2458268.1166   5  12   4.5250   5.5851   3.4660  -4.5483   3.9425  -3.4432   0.00    0.0
2019/02/11 09:08:53.000   4280223.9919  -4034415.8161  -2458267.8864   5  12   4.5163   5.5711   3.4593  -4.5353   3.9316  -3.4336   0.00    0.0
2019/02/11 09:08:54.000   4280223.8246  -4034415.8195  -2458267.8894   5  12   4.5157   5.5700   3.4588  -4.5343   3.9308  -3.4329   0.00    0.0
2019/02/11 09:08:55.000   4280223.6798  -4034415.6467  -2458267.7176   5  12   4.5150   5.5689   3.4583  -4.5333   3.9299  -3.4321   0.00    0.0
2019/02/11 09:08:56.000   4280223.5564  -4034415.4720  -2458267.3934   5  12   4.5143   5.5679   3.4578  -4.5323   3.9291  -3.4314   0.00    0.0
2019/02/11 09:09:01.000   4280223.2623  -4034414.7553  -2458265.9572   5  12   4.5110   5.5624   3.4552  -4.5273   3.9248  -3.4276   0.00    0.0
2019/02/11 09:09:02.000   4280223.0038  -4034415.0726  -2458266.0377   5  12   4.5103   5.5614   3.4547  -4.5263   3.9240  -3.4269   0.00    0.0
2019/02/11 09:09:03.000   4280222.4841  -4034415.1196  -2458265.9707   5  12   4.5096   5.5603   3.4542  -4.5253   3.9232  -3.4262   0.00    0.0
2019/02/11 09:09:04.000   4280222.1561  -4034415.2966  -2458266.0283   5  12   4.5090   5.5592   3.4536  -4.5243   3.9223  -3.4254   0.00    0.0
2019/02/11 09:09:05.000   4280222.0989  -4034415.9793  -2458266.3065   5  12   4.5083   5.5581   3.4531  -4.5233   3.9215  -3.4247   0.00    0.0
2019/02/11 09:09:06.000   4280222.0052  -4034416.4092  -2458266.3030   5  12   4.5076   5.5570   3.4526  -4.5223   3.9206  -3.4239   0.00    0.0
2019/02/11 09:09:07.000   4280221.8408  -4034416.4897  -2458266.0725   5  12   4.5070   5.5559   3.4521  -4.5213   3.9198  -3.4232   0.00    0.0
2019/02/11 09:09:08.000   4280221.5843  -4034416.2834  -2458265.7584   5  12   4.5063   5.5548   3.4516  -4.5202   3.9189  -3.4224   0.00    0.0
2019/02/11 09:09:09.000   4280221.4043  -4034415.8084  -2458265.3696   5  12   4.5056   5.5537   3.4510  -4.5192   3.9181  -3.4217   0.00    0.0
2019/02/11 09:09:10.000   4280221.5079  -4034415.8529  -2458265.4752   5  12   4.5049   5.5527   3.4505  -4.5182   3.9172  -3.4209   0.00    0.0
2019/02/11 09:09:11.000   4280221.7443  -4034415.9481  -2458265.5486   5  12   4.5043   5.5516   3.4500  -4.5172   3.9164  -3.4202   0.00    0.0
2019/02/11 09:09:12.000   4280222.3648  -4034416.4844  -2458266.0293   5  12   4.5036   5.5505   3.4495  -4.5162   3.9155  -3.4194   0.00    0.0
2019/02/11 09:09:13.000   4280222.6072  -4034416.4823  -2458266.1759   5  12   4.5029   5.5494   3.4489  -4.5152   3.9147  -3.4186   0.00    0.0
2019/02/11 09:09:14.000   4280222.2535  -4034416.0049  -2458266.0595   5  12   4.5022   5.5483   3.4484  -4.5142   3.9138  -3.4179   0.00    0.0
2019/02/11 09:09:15.000   4280222.1510  -4034415.6337  -2458265.8002   5  12   4.5016   5.5472   3.4479  -4.5132   3.9130  -3.4171   0.00    0.0
2019/02/11 09:09:16.000   4280221.8057  -4034415.1784  -2458265.3102   5  12   4.5009   5.5461   3.4474  -4.5122   3.9121  -3.4164   0.00    0.0
2019/02/11 09:09:17.000   4280221.4296  -4034414.6574  -2458264.8473   5  12   4.5002   5.5450   3.4469  -4.5112   3.9113  -3.4156   0.00    0.0
2019/02/11 09:09:18.000   4280221.4361  -4034414.5104  -2458264.6574   5  12   4.4995   5.5439   3.4463  -4.5101   3.9104  -3.4149   0.00    0.0
2019/02/11 09:09:19.000   4280221.1628  -4034414.3519  -2458264.5264   5  12   4.4989   5.5428   3.4458  -4.5091   3.9095  -3.4141   0.00    0.0
2019/02/11 09:09:20.000   4280220.8235  -4034414.0658  -2458264.3438   5  12   4.4982   5.5417   3.4453  -4.5081   3.9087  -3.4134   0.00    0.0
2019/02/11 09:09:21.000   4280220.3083  -4034413.5972  -2458263.9341   5  12   4.4975   5.5406   3.4448  -4.5071   3.9078  -3.4126   0.00    0.0
2019/02/11 09:09:22.000   4280220.1643  -4034413.6822  -2458264.0611   5  12   4.4968   5.5396   3.4442  -4.5061   3.9070  -3.4119   0.00    0.0
2019/02/11 09:09:23.000   4280219.9016  -4034413.5264  -2458264.0986   5  12   4.4961   5.5385   3.4437  -4.5051   3.9061  -3.4111   0.00    0.0
2019/02/11 09:09:24.000   4280220.1659  -4034413.9204  -2458264.6441   5  12   4.4955   5.5374   3.4432  -4.5041   3.9053  -3.4103   0.00    0.0
2019/02/11 09:09:25.000   4280220.2960  -4034414.0888  -2458264.9484   5  12   4.4948   5.5363   3.4427  -4.5030   3.9044  -3.4096   0.00    0.0
2019/02/11 09:09:26.000   4280220.4357  -4034414.2246  -2458265.2918   5  12   4.4941   5.5352   3.4421  -4.5020   3.9036  -3.4088   0.00    0.0
2019/02/11 09:09:27.000   4280220.4012  -4034413.8785  -2458265.2013   5  12   4.4934   5.5341   3.4416  -4.5010   3.9027  -3.4081   0.00    0.0
2019/02/11 09:09:28.000   4280220.1261  -4034413.3009  -2458264.6282   5  12   4.4928   5.5330   3.4411  -4.5000   3.9018  -3.4073   0.00    0.0
2019/02/11 09:09:29.000   4280219.8436  -4034412.9252  -2458264.2194   5  12   4.4921   5.5319   3.4406  -4.4990   3.9010  -3.4065   0.00    0.0
2019/02/11 09:09:30.000   4280219.6960  -4034412.7364  -2458264.0412   5  12   4.4914   5.5308   3.4400  -4.4979   3.9001  -3.4058   0.00    0.0
2019/02/11 09:09:31.000   4280219.5093  -4034412.7677  -2458264.1080   5  12   4.4907   5.5297   3.4395  -4.4969   3.8993  -3.4050   0.00    0.0
2019/02/11 09:09:32.000   4280219.2065  -4034412.7026  -2458264.0563   5  12   4.4900   5.5286   3.4390  -4.4959   3.8984  -3.4043   0.00    0.0
2019/02/11 09:09:33.000   4280218.9628  -4034412.6100  -2458264.1036   5  12   4.4893   5.5275   3.4385  -4.4949   3.8975  -3.4035   0.00    0.0
2019/02/11 09:09:34.000   4280218.5863  -4034412.1744  -2458264.1289   5  12   4.4887   5.5264   3.4379  -4.4939   3.8967  -3.4027   0.00    0.0
2019/02/11 09:09:35.000   4280218.4589  -4034412.0420  -2458264.3869   5  12   4.4880   5.5253   3.4374  -4.4928   3.8958  -3.4020   0.00    0.0
2019/02/11 09:09:36.000   4280218.5855  -4034412.1328  -2458264.5594   5  12   4.4873   5.5242   3.4369  -4.4918   3.8950  -3.4012   0.00    0.0
2019/02/11 09:09:37.000   4280218.7334  -4034412.3105  -2458264.7686   5  12   4.4866   5.5231   3.4363  -4.4908   3.8941  -3.4004   0.00    0.0
2019/02/11 09:09:38.000   4280218.6030  -4034412.1474  -2458264.6589   5  12   4.4859   5.5220   3.4358  -4.4898   3.8932  -3.3997   0.00    0.0
2019/02/11 09:09:57.000   4280218.7500  -4034412.7324  -2458266.2571   5  12   4.4729   5.5010   3.4257  -4.4702   3.8768  -3.3851   0.00    0.0
2019/02/11 09:09:58.000   4280219.9311  -4034412.7820  -2458264.4828   5  11   4.5191   5.5004   3.5616  -4.4638   3.8853  -3.2893   0.00    0.0
2019/02/11 09:09:59.000   4280219.7266  -4034412.5943  -2458264.1901   5  11   4.5186   5.4993   3.5608  -4.4629   3.8842  -3.2884   0.00    0.0
2019/02/11 09:10:00.000   4280219.9762  -4034412.7567  -2458264.1892   5  11   4.5182   5.4981   3.5600  -4.4619   3.8831  -3.2875   0.00    0.0
2019/02/11 09:10:01.000   4280218.7908  -4034413.0484  -2458266.2715   5  12   4.4701   5.4965   3.4236  -4.4661   3.8733  -3.3820   0.00    0.0
2019/02/11 09:10:02.000   4280218.8332  -4034413.2799  -2458266.3561   5  12   4.4695   5.4954   3.4230  -4.4651   3.8724  -3.3812   0.00    0.0
2019/02/11 09:10:03.000   4280220.0641  -4034412.8753  -2458264.2121   5  11   4.5167   5.4947   3.5576  -4.4592   3.8798  -3.2848   0.00    0.0
2019/02/11 09:10:04.000   4280218.7953  -4034413.2291  -2458266.3190   5  12   4.4681   5.4932   3.4220  -4.4630   3.8707  -3.3797   0.00    0.0
2019/02/11 09:10:05.000   4280219.1316  -4034413.4469  -2458266.5761   5  12   4.4674   5.4921   3.4214  -4.4620   3.8698  -3.3789   0.00    0.0
2019/02/11 09:10:06.000   4280219.6084  -4034413.7381  -2458267.0484   5  12   4.4667   5.4910   3.4209  -4.4609   3.8689  -3.3781   0.00    0.0
2019/02/11 09:10:07.000   4280219.9564  -4034413.9291  -2458267.0688   5  12   4.4660   5.4899   3.4204  -4.4599   3.8680  -3.3773   0.00    0.0
2019/02/11 09:10:08.000   4280220.0367  -4034413.5511  -2458266.7913   5  12   4.4653   5.4888   3.4198  -4.4589   3.8672  -3.3766   0.00    0.0
2019/02/11 09:10:09.000   4280219.9039  -4034413.1605  -2458266.4806   5  12   4.4646   5.4877   3.4193  -4.4578   3.8663  -3.3758   0.00    0.0
2019/02/11 09:10:10.000   4280219.7613  -4034412.9514  -2458266.0737   5  12   4.4639   5.4865   3.4187  -4.4568   3.8654  -3.3750   0.00    0.0
2019/02/11 09:10:11.000   4280219.5766  -4034412.6849  -2458265.7535   5  12   4.4632   5.4854   3.4182  -4.4557   3.8645  -3.3742   0.00    0.0
2019/02/11 09:10:12.000   4280219.6656  -4034412.6179  -2458265.8120   5  12   4.4625   5.4843   3.4177  -4.4547   3.8637  -3.3735   0.00    0.0
2019/02/11 09:10:13.000   4280219.7025  -4034412.7603  -2458266.0367   5  12   4.4619   5.4832   3.4171  -4.4537   3.8628  -3.3727   0.00    0.0
2019/02/11 09:10:14.000   4280219.4811  -4034412.4535  -2458266.0080   5  12   4.4612   5.4821   3.4166  -4.4526   3.8619  -3.3719   0.00    0.0
2019/02/11 09:10:15.000   4280219.3079  -4034412.6872  -2458266.3342   5  12   4.4605   5.4810   3.4161  -4.4516   3.8610  -3.3711   0.00    0.0
2019/02/11 09:10:16.000   4280219.2094  -4034412.8766  -2458266.5153   5  12   4.4598   5.4799   3.4155  -4.4505   3.8601  -3.3703   0.00    0.0
2019/02/11 09:10:17.000   4280219.0111  -4034412.8986  -2458266.2889   5  12   4.4591   5.4787   3.4150  -4.4495   3.8593  -3.3696   0.00    0.0
2019/02/11 09:10:18.000   4280219.0470  -4034413.1513  -2458266.1308   5  12   4.4584   5.4776   3.4144  -4.4485   3.8584  -3.3688   0.00    0.0
2019/02/11 09:10:19.000   4280219.0150  -4034413.1716  -2458265.9610   5  12   4.4577   5.4765   3.4139  -4.4474   3.8575  -3.3680   0.00    0.0
2019/02/11 09:10:20.000   4280218.9766  -4034413.2111  -2458265.8037   5  12   4.4570   5.4754   3.4134  -4.4464   3.8566  -3.3672   0.00    0.0
2019/02/11 09:10:21.000   4280218.9353  -4034413.1069  -2458265.7882   5  12   4.4563   5.4743   3.4128  -4.4453   3.8557  -3.3664   0.00    0.0
2019/02/11 09:10:22.000   4280218.9718  -4034413.4717  -2458266.2455   5  12   4.4556   5.4732   3.4123  -4.4443   3.8549  -3.3657   0.00    0.0
2019/02/11 09:10:23.000   4280219.0167  -4034413.6297  -2458266.5366   5  12   4.4549   5.4720   3.4117  -4.4433   3.8540  -3.3649   0.00    0.0
2019/02/11 09:10:24.000   4280219.0657  -4034413.4161  -2458266.4159   5  12   4.4542   5.4709   3.4112  -4.4422   3.8531  -3.3641   0.00    0.0
2019/02/11 09:10:25.000   4280218.9629  -4034413.1194  -2458266.4370   5  12   4.4535   5.4698   3.4107  -4.4412   3.8522  -3.3633   0.00    0.0
2019/02/11 09:10:32.000   4280217.0060  -4034411.3396  -2458265.0630   5  12   4.4486   5.4620   3.4069  -4.4339   3.8460  -3.3578   0.00    0.0
2019/02/11 09:10:33.000   4280218.6775  -4034411.4823  -2458263.7306   5  11   4.5026   5.4609   3.5341  -4.4314   3.8473  -3.2574   0.00    0.0
2019/02/11 09:10:34.000   4280219.2109  -4034411.4884  -2458263.8885   5  11   4.5021   5.4598   3.5333  -4.4305   3.8463  -3.2565   0.00    0.0
2019/02/11 09:10:35.000   4280219.3012  -4034411.2325  -2458263.8098   5  11   4.5017   5.4586   3.5325  -4.4295   3.8452  -3.2556   0.00    0.0
2019/02/11 09:10:36.000   4280217.8259  -4034410.9920  -2458265.4407   5  12   4.4458   5.4575   3.4047  -4.4297   3.8425  -3.3547   0.00    0.0
2019/02/11 09:10:37.000   4280217.9865  -4034411.2742  -2458265.5701   5  12   4.4452   5.4564   3.4041  -4.4286   3.8416  -3.3539   0.00    0.0
2019/02/11 09:10:38.000   4280218.3157  -4034411.9251  -2458265.9574   5  12   4.4445   5.4552   3.4036  -4.4276   3.8407  -3.3531   0.00    0.0
2019/02/11 09:10:39.000   4280218.7274  -4034412.7121  -2458266.5023   5  12   4.4438   5.4541   3.4031  -4.4265   3.8398  -3.3523   0.00    0.0
2019/02/11 09:10:40.000   4280218.9339  -4034413.0523  -2458266.7204   5  12   4.4431   5.4530   3.4025  -4.4255   3.8390  -3.3515   0.00    0.0
2019/02/11 09:10:41.000   4280218.9805  -4034413.1040  -2458266.6578   5  12   4.4424   5.4519   3.4020  -4.4244   3.8381  -3.3507   0.00    0.0
2019/02/11 09:10:42.000   4280219.1391  -4034413.3405  -2458266.7400   5  12   4.4417   5.4507   3.4014  -4.4234   3.8372  -3.3499   0.00    0.0
2019/02/11 09:10:43.000   4280219.0457  -4034413.2381  -2458266.6423   5  12   4.4410   5.4496   3.4009  -4.4223   3.8363  -3.3491   0.00    0.0
2019/02/11 09:10:44.000   4280219.1789  -4034413.2673  -2458266.6657   5  12   4.4403   5.4485   3.4003  -4.4213   3.8354  -3.3484   0.00    0.0
2019/02/11 09:10:45.000   4280219.0703  -4034413.0762  -2458266.2980   5  12   4.4396   5.4474   3.3998  -4.4202   3.8345  -3.3476   0.00    0.0
2019/02/11 09:10:46.000   4280219.2837  -4034412.9883  -2458266.1983   5  12   4.4389   5.4463   3.3992  -4.4192   3.8336  -3.3468   0.00    0.0
2019/02/11 09:10:47.000   4280219.5873  -4034412.8423  -2458266.1379   5  12   4.4382   5.4451   3.3987  -4.4181   3.8327  -3.3460   0.00    0.0
2019/02/11 09:10:48.000   4280220.0148  -4034413.1844  -2458266.3433   5  12   4.4375   5.4440   3.3982  -4.4171   3.8319  -3.3452   0.00    0.0
2019/02/11 09:10:49.000   4280220.3691  -4034413.5014  -2458266.5343   5  12   4.4367   5.4429   3.3976  -4.4160   3.8310  -3.3444   0.00    0.0
2019/02/11 09:10:50.000   4280220.4005  -4034413.7416  -2458266.4391   5  12   4.4360   5.4418   3.3971  -4.4149   3.8301  -3.3436   0.00    0.0
2019/02/11 09:10:51.000   4280220.1561  -4034413.9440  -2458266.3844   5  12   4.4353   5.4406   3.3965  -4.4139   3.8292  -3.3428   0.00    0.0
2019/02/11 09:10:52.000   4280219.7549  -4034413.7383  -2458266.1764   5  12   4.4346   5.4395   3.3960  -4.4128   3.8283  -3.3420   0.00    0.0
2019/02/11 09:10:53.000   4280219.5957  -4034413.9266  -2458266.2590   5  12   4.4339   5.4384   3.3954  -4.4118   3.8274  -3.3412   0.00    0.0
2019/02/11 09:10:54.000   4280219.8042  -4034414.3578  -2458266.5707   5  12   4.4332   5.4372   3.3949  -4.4107   3.8265  -3.3404   0.00    0.0
2019/02/11 09:10:55.000   4280219.7692  -4034414.4910  -2458266.4567   5  12   4.4325   5.4361   3.3943  -4.4097   3.8256  -3.3396   0.00    0.0
2019/02/11 09:10:56.000   4280219.6863  -4034414.0315  -2458265.9507   5  12   4.4318   5.4350   3.3938  -4.4086   3.8247  -3.3389   0.00    0.0
2019/02/11 09:10:57.000   4280219.4960  -4034413.3793  -2458265.2521   5  12   4.4311   5.4339   3.3932  -4.4076   3.8238  -3.3381   0.00    0.0
2019/02/11 09:10:58.000   4280219.2641  -4034413.0234  -2458264.8746   5  12   4.4304   5.4327   3.3927  -4.4065   3.8229  -3.3373   0.00    0.0
2019/02/11 09:10:59.000   4280218.8547  -4034412.4251  -2458264.5162   5  12   4.4297   5.4316   3.3921  -4.4054   3.8220  -3.3365   0.00    0.0
2019/02/11 09:11:00.000   4280218.8862  -4034412.5186  -2458264.7243   5  12   4.4290   5.4305   3.3916  -4.4044   3.8211  -3.3357   0.00    0.0
2019/02/11 09:11:01.000   4280218.7734  -4034412.6513  -2458264.7599   5  12   4.4283   5.4294   3.3910  -4.4033   3.8203  -3.3349   0.00    0.0
2019/02/11 09:11:02.000   4280218.5561  -4034412.4989  -2458264.4857   5  12   4.4276   5.4282   3.3905  -4.4023   3.8194  -3.3341   0.00    0.0
2019/02/11 09:11:03.000   4280218.3032  -4034412.2192  -2458264.0167   5  12   4.4269   5.4271   3.3899  -4.4012   3.8185  -3.3333   0.00    0.0
2019/02/11 09:11:04.000   4280218.3777  -4034412.2407  -2458263.9437   5  12   4.4262   5.4260   3.3894  -4.4002   3.8176  -3.3325   0.00    0.0
2019/02/11 09:11:05.000   4280218.5818  -4034412.4079  -2458263.9860   5  12   4.4255   5.4248   3.3889  -4.3991   3.8167  -3.3317   0.00    0.0
2019/02/11 09:11:06.000   4280218.8394  -4034412.7489  -2458264.0343   5  12   4.4248   5.4237   3.3883  -4.3980   3.8158  -3.3309   0.00    0.0
2019/02/11 09:11:07.000   4280218.5652  -4034412.4815  -2458263.5205   5  12   4.4241   5.4226   3.3878  -4.3970   3.8149  -3.3301   0.00    0.0
2019/02/11 09:11:08.000   4280218.3503  -4034412.4403  -2458263.3812   5  12   4.4234   5.4214   3.3872  -4.3959   3.8140  -3.3293   0.00    0.0
2019/02/11 09:11:09.000   4280218.5839  -4034412.0978  -2458262.6390   5  11   4.4858   5.4205   3.5061  -4.3982   3.8085  -3.2247   0.00    0.0
2019/02/11 09:11:10.000   4280218.3837  -4034411.8312  -2458262.2525   5  11   4.4853   5.4193   3.5053  -4.3972   3.8074  -3.2238   0.00    0.0
2019/02/11 09:11:11.000   4280218.3880  -4034411.7585  -2458262.3011   5  12   4.4213   5.4181   3.3856  -4.3927   3.8113  -3.3269   0.00    0.0
2019/02/11 09:11:12.000   4280219.0132  -4034412.2462  -2458262.5057   5  11   4.4844   5.4171   3.5038  -4.3954   3.8053  -3.2220   0.00    0.0
2019/02/11 09:11:13.000   4280219.2728  -4034412.5002  -2458262.5290   5  12   4.4199   5.4158   3.3845  -4.3906   3.8095  -3.3253   0.00    0.0
2019/02/11 09:11:14.000   4280219.3129  -4034412.5966  -2458262.2932   5  12   4.4192   5.4147   3.3839  -4.3896   3.8086  -3.3245   0.00    0.0
2019/02/11 09:11:15.000   4280219.4607  -4034412.5746  -2458262.0764   5  12   4.4185   5.4135   3.3834  -4.3885   3.8077  -3.3237   0.00    0.0
2019/02/11 09:11:16.000   4280219.2162  -4034412.5483  -2458262.1599   5  11   4.4826   5.4126   3.5007  -4.3917   3.8010  -3.2183   0.00    0.0
2019/02/11 09:11:17.000   4280219.2717  -4034412.0920  -2458261.2307   5  12   4.4170   5.4113   3.3822  -4.3864   3.8059  -3.3221   0.00    0.0
2019/02/11 09:11:18.000   4280219.2734  -4034411.9543  -2458261.0097   5  12   4.4163   5.4101   3.3817  -4.3853   3.8050  -3.3213   0.00    0.0
2019/02/11 09:11:19.000   4280219.2317  -4034411.9857  -2458260.8935   5  12   4.4156   5.4090   3.3811  -4.3842   3.8041  -3.3205   0.00    0.0
2019/02/11 09:11:20.000   4280219.5114  -4034412.3282  -2458260.9712   5  12   4.4149   5.4079   3.3806  -4.3832   3.8032  -3.3197   0.00    0.0
2019/02/11 09:11:21.000   4280219.6663  -4034412.4892  -2458260.9402   5  12   4.4142   5.4067   3.3800  -4.3821   3.8023  -3.3189   0.00    0.0
2019/02/11 09:11:22.000   4280220.0981  -4034413.0152  -2458261.2886   5  12   4.4135   5.4056   3.3795  -4.3811   3.8014  -3.3181   0.00    0.0
2019/02/11 09:11:23.000   4280220.4551  -4034413.3646  -2458261.6265   5  12   4.4128   5.4045   3.3789  -4.3800   3.8005  -3.3173   0.00    0.0
2019/02/11 09:11:24.000   4280220.3867  -4034413.4789  -2458261.6257   5  12   4.4121   5.4033   3.3784  -4.3789   3.7996  -3.3165   0.00    0.0
2019/02/11 09:11:25.000   4280219.8131  -4034413.1957  -2458261.3449   5  12   4.4114   5.4022   3.3778  -4.3779   3.7987  -3.3157   0.00    0.0
2019/02/11 09:11:26.000   4280219.4890  -4034413.2830  -2458261.4960   5  12   4.4107   5.4011   3.3773  -4.3768   3.7978  -3.3149   0.00    0.0
2019/02/11 09:11:27.000   4280219.1937  -4034412.9476  -2458261.6220   5  12   4.4100   5.3999   3.3767  -4.3757   3.7969  -3.3141   0.00    0.0
2019/02/11 09:11:28.000   4280218.9713  -4034412.6929  -2458261.6990   5  12   4.4093   5.3988   3.3762  -4.3747   3.7960  -3.3133   0.00    0.0
2019/02/11 09:11:29.000   4280219.0097  -4034412.4278  -2458261.7683   5  12   4.4085   5.3977   3.3756  -4.3736   3.7951  -3.3125   0.00    0.0
2019/02/11 09:11:30.000   4280219.0933  -4034412.0321  -2458261.7749   5  12   4.4078   5.3965   3.3751  -4.3725   3.7942  -3.3117   0.00    0.0
2019/02/11 09:11:31.000   4280219.3642  -4034412.0646  -2458261.9182   5  12   4.4071   5.3954   3.3745  -4.3715   3.7933  -3.3109   0.00    0.0
2019/02/11 09:11:32.000   4280219.4577  -4034411.9665  -2458262.0060   5  12   4.4064   5.3943   3.3740  -4.3704   3.7924  -3.3101   0.00    0.0
2019/02/11 09:11:33.000   4280219.6758  -4034412.3420  -2458262.1708   5  12   4.4057   5.3931   3.3734  -4.3693   3.7915  -3.3093   0.00    0.0
2019/02/11 09:11:34.000   4280219.8091  -4034412.2599  -2458262.1128   5  12   4.4050   5.3920   3.3729  -4.3683   3.7906  -3.3085   0.00    0.0
2019/02/11 09:11:35.000   4280220.0651  -4034412.4362  -2458262.4175   5  12   4.4043   5.3909   3.3723  -4.3672   3.7897  -3.3076   0.00    0.0
2019/02/11 09:11:36.000   4280220.3032  -4034412.7526  -2458262.6783   5  12   4.4036   5.3897   3.3717  -4.3661   3.7888  -3.3068   0.00    0.0
2019/02/11 09:11:37.000   4280220.4699  -4034412.7831  -2458263.0396   5  12   4.4029   5.3886   3.3712  -4.3651   3.7879  -3.3060   0.00    0.0
2019/02/11 09:11:38.000   4280220.5925  -4034412.8506  -2458263.4851   5  12   4.4022   5.3874   3.3706  -4.3640   3.7870  -3.3052   0.00    0.0
2019/02/11 09:11:39.000   4280220.6679  -4034412.7477  -2458263.8461   5  12   4.4015   5.3863   3.3701  -4.3629   3.7861  -3.3044   0.00    0.0
2019/02/11 09:11:40.000   4280220.2802  -4034412.4363  -2458263.6629   5  12   4.4007   5.3852   3.3695  -4.3618   3.7852  -3.3036   0.00    0.0
2019/02/11 09:11:41.000   4280220.3000  -4034412.5355  -2458263.6264   5  12   4.4000   5.3840   3.3690  -4.3608   3.7843  -3.3028   0.00    0.0
2019/02/11 09:11:42.000   4280220.4600  -4034412.6196  -2458263.5770   5  12   4.3993   5.3829   3.3684  -4.3597   3.7834  -3.3020   0.00    0.0
2019/02/11 09:11:43.000   4280220.6386  -4034412.7438  -2458263.5368   5  12   4.3986   5.3818   3.3679  -4.3586   3.7824  -3.3012   0.00    0.0
2019/02/11 09:11:44.000   4280220.8230  -4034412.7405  -2458263.5262   5  12   4.3979   5.3806   3.3673  -4.3576   3.7815  -3.3004   0.00    0.0
2019/02/11 09:11:45.000   4280220.9643  -4034412.8861  -2458263.6469   5  12   4.3972   5.3795   3.3668  -4.3565   3.7806  -3.2996   0.00    0.0
2019/02/11 09:11:46.000   4280220.7245  -4034412.8313  -2458263.6037   5  12   4.3965   5.3783   3.3662  -4.3554   3.7797  -3.2988   0.00    0.0
2019/02/11 09:11:47.000   4280220.5804  -4034412.8377  -2458263.4376   5  12   4.3958   5.3772   3.3656  -4.3544   3.7788  -3.2980   0.00    0.0
2019/02/11 09:11:48.000   4280220.4881  -4034412.8901  -2458263.2634   5  12   4.3951   5.3761   3.3651  -4.3533   3.7779  -3.2971   0.00    0.0
2019/02/11 09:11:49.000   4280220.6045  -4034412.9038  -2458263.3507   5  12   4.3944   5.3749   3.3645  -4.3522   3.7770  -3.2963   0.00    0.0
2019/02/11 09:11:50.000   4280221.2980  -4034413.2493  -2458263.5440   5  11   4.4669   5.3747   3.4745  -4.3604   3.7645  -3.1875   0.00    0.0
2019/02/11 09:11:51.000   4280221.1507  -4034413.3183  -2458264.2257   5  12   4.3929   5.3727   3.3634  -4.3501   3.7752  -3.2947   0.00    0.0
2019/02/11 09:11:52.000   4280221.1807  -4034413.2406  -2458264.3929   5  12   4.3922   5.3715   3.3629  -4.3490   3.7743  -3.2939   0.00    0.0
2019/02/11 09:11:53.000   4280221.0762  -4034413.0573  -2458264.3143   5  12   4.3915   5.3704   3.3623  -4.3479   3.7734  -3.2931   0.00    0.0
2019/02/11 09:11:54.000   4280220.7732  -4034413.1372  -2458264.0437   5  11   4.4651   5.3703   3.4715  -4.3568   3.7602  -3.1838   0.00    0.0
2019/02/11 09:11:55.000   4280220.4033  -4034413.2195  -2458263.7587   5  11   4.4646   5.3692   3.4707  -4.3559   3.7591  -3.1829   0.00    0.0
2019/02/11 09:11:56.000   4280220.2767  -4034413.2664  -2458263.6132   5  11   4.4642   5.3681   3.4700  -4.3549   3.7581  -3.1820   0.00    0.0
2019/02/11 09:11:57.000   4280220.3239  -4034413.1930  -2458263.6645   5  11   4.4637   5.3670   3.4692  -4.3540   3.7570  -3.1811   0.00    0.0
2019/02/11 09:11:58.000   4280220.6924  -4034413.3392  -2458264.0627   5  11   4.4632   5.3659   3.4684  -4.3531   3.7559  -3.1802   0.00    0.0
2019/02/11 09:11:59.000   4280221.9341  -4034413.5932  -2458263.5097   5  12   4.3872   5.3635   3.3590  -4.3415   3.7679  -3.2882   0.00    0.0
2019/02/11 09:12:00.000   4280222.0256  -4034413.4099  -2458263.4584   5  12   4.3865   5.3624   3.3584  -4.3404   3.7670  -3.2874   0.00    0.0
2019/02/11 09:12:01.000   4280220.9381  -4034413.1436  -2458264.3911   5  11   4.4619   5.3625   3.4661  -4.3504   3.7527  -3.1775   0.00    0.0
2019/02/11 09:12:02.000   4280221.6881  -4034413.4789  -2458263.6081   5  12   4.3851   5.3601   3.3573  -4.3383   3.7652  -3.2858   0.00    0.0
2019/02/11 09:12:03.000   4280220.9702  -4034413.9170  -2458264.8473   5  11   4.4610   5.3603   3.4646  -4.3485   3.7506  -3.1757   0.00    0.0
2019/02/11 09:12:04.000   4280221.5364  -4034413.9096  -2458263.8690   5  12   4.3837   5.3578   3.3562  -4.3361   3.7634  -3.2842   0.00    0.0
2019/02/11 09:12:05.000   4280221.3987  -4034413.7078  -2458263.7723   5  12   4.3830   5.3567   3.3556  -4.3350   3.7625  -3.2833   0.00    0.0
2019/02/11 09:12:06.000   4280221.2008  -4034413.4961  -2458263.6723   5  12   4.3822   5.3556   3.3551  -4.3339   3.7615  -3.2825   0.00    0.0
2019/02/11 09:12:07.000   4280220.9399  -4034413.2456  -2458263.4161   5  12   4.3815   5.3544   3.3545  -4.3329   3.7606  -3.2817   0.00    0.0
2019/02/11 09:12:08.000   4280220.4425  -4034412.7116  -2458262.9210   5  12   4.3808   5.3533   3.3539  -4.3318   3.7597  -3.2809   0.00    0.0
2019/02/11 09:12:09.000   4280219.9656  -4034412.1449  -2458262.4497   5  12   4.3801   5.3521   3.3534  -4.3307   3.7588  -3.2801   0.00    0.0
2019/02/11 09:12:10.000   4280219.8897  -4034412.3294  -2458262.4914   5  12   4.3794   5.3510   3.3528  -4.3296   3.7579  -3.2793   0.00    0.0
2019/02/11 09:12:11.000   4280220.2173  -4034412.7858  -2458262.9436   5  12   4.3787   5.3498   3.3523  -4.3286   3.7570  -3.2785   0.00    0.0
2019/02/11 09:12:12.000   4280220.3253  -4034412.8153  -2458263.2712   5  12   4.3780   5.3487   3.3517  -4.3275   3.7561  -3.2776   0.00    0.0
2019/02/11 09:12:13.000   4280220.0774  -4034412.7285  -2458263.4214   5  12   4.3773   5.3476   3.3511  -4.3264   3.7552  -3.2768   0.00    0.0
2019/02/11 09:12:14.000   4280219.8620  -4034412.5858  -2458263.6483   5  12   4.3765   5.3464   3.3506  -4.3253   3.7542  -3.2760   0.00    0.0
2019/02/11 09:12:15.000   4280219.8251  -4034412.5599  -2458263.8904   5  12   4.3758   5.3453   3.3500  -4.3243   3.7533  -3.2752   0.00    0.0
2019/02/11 09:12:16.000   4280219.9566  -4034412.7061  -2458264.1489   5  12   4.3751   5.3441   3.3495  -4.3232   3.7524  -3.2744   0.00    0.0
2019/02/11 09:12:17.000   4280219.9242  -4034412.8491  -2458264.1193   5  12   4.3744   5.3430   3.3489  -4.3221   3.7515  -3.2736   0.00    0.0
2019/02/11 09:12:18.000   4280220.2537  -4034413.0071  -2458264.1904   5  12   4.3737   5.3418   3.3483  -4.3210   3.7506  -3.2727   0.00    0.0
2019/02/11 09:12:19.000   4280220.4781  -4034413.0585  -2458264.1694   5  12   4.3730   5.3407   3.3478  -4.3199   3.7497  -3.2719   0.00    0.0
2019/02/11 09:12:20.000   4280220.5203  -4034412.6495  -2458264.1334   5  12   4.3723   5.3396   3.3472  -4.3189   3.7488  -3.2711   0.00    0.0
2019/02/11 09:12:21.000   4280220.4067  -4034412.2649  -2458264.1371   5  12   4.3715   5.3384   3.3467  -4.3178   3.7478  -3.2703   0.00    0.0
2019/02/11 09:12:22.000   4280220.3703  -4034411.9601  -2458264.1148   5  12   4.3708   5.3373   3.3461  -4.3167   3.7469  -3.2695   0.00    0.0
2019/02/11 09:12:23.000   4280220.6588  -4034412.1110  -2458264.3698   5  12   4.3701   5.3361   3.3455  -4.3156   3.7460  -3.2687   0.00    0.0
2019/02/11 09:12:24.000   4280220.7373  -4034412.2739  -2458264.5344   5  12   4.3694   5.3350   3.3450  -4.3145   3.7451  -3.2678   0.00    0.0
2019/02/11 09:12:25.000   4280220.6749  -4034412.4401  -2458264.6015   5  12   4.3687   5.3338   3.3444  -4.3135   3.7442  -3.2670   0.00    0.0
2019/02/11 09:12:26.000   4280220.6475  -4034412.5859  -2458264.4587   5  12   4.3680   5.3327   3.3439  -4.3124   3.7433  -3.2662   0.00    0.0
2019/02/11 09:12:27.000   4280221.1052  -4034412.9910  -2458264.6903   5  12   4.3672   5.3316   3.3433  -4.3113   3.7423  -3.2654   0.00    0.0
2019/02/11 09:12:28.000   4280221.4075  -4034413.2047  -2458264.9093   5  12   4.3665   5.3304   3.3427  -4.3102   3.7414  -3.2646   0.00    0.0
2019/02/11 09:12:29.000   4280221.6216  -4034413.2464  -2458265.0663   5  12   4.3658   5.3293   3.3422  -4.3091   3.7405  -3.2637   0.00    0.0
2019/02/11 09:12:30.000   4280221.7262  -4034413.6171  -2458265.5857   5  12   4.3651   5.3281   3.3416  -4.3080   3.7396  -3.2629   0.00    0.0
2019/02/11 09:12:41.000   4280222.8818  -4034414.0406  -2458265.8662   5  12   4.3572   5.3155   3.3354  -4.2961   3.7295  -3.2539   0.00    0.0
2019/02/11 09:12:42.000   4280222.4982  -4034413.4888  -2458265.7949   5  12   4.3565   5.3144   3.3349  -4.2951   3.7286  -3.2531   0.00    0.0
2019/02/11 09:12:45.000   4280222.6530  -4034414.0183  -2458266.2237   5  12   4.3544   5.3109   3.3332  -4.2918   3.7258  -3.2506   0.00    0.0
2019/02/11 09:12:46.000   4280223.1296  -4034414.9188  -2458266.7952   5  12   4.3537   5.3098   3.3326  -4.2907   3.7249  -3.2498   0.00    0.0
2019/02/11 09:12:47.000   4280223.5113  -4034415.4647  -2458267.3091   5  12   4.3529   5.3087   3.3321  -4.2896   3.7240  -3.2489   0.00    0.0
2019/02/11 09:12:48.000   4280223.7678  -4034415.7995  -2458267.7699   5  12   4.3522   5.3075   3.3315  -4.2885   3.7231  -3.2481   0.00    0.0
2019/02/11 09:12:49.000   4280223.9364  -4034415.9953  -2458268.0352   5  12   4.3515   5.3064   3.3309  -4.2875   3.7221  -3.2473   0.00    0.0
2019/02/11 09:12:50.000   4280224.1242  -4034416.0384  -2458267.9982   5  12   4.3508   5.3052   3.3304  -4.2864   3.7212  -3.2465   0.00    0.0
2019/02/11 09:12:51.000   4280223.9949  -4034416.0920  -2458267.9617   5  12   4.3501   5.3041   3.3298  -4.2853   3.7203  -3.2457   0.00    0.0
2019/02/11 09:12:52.000   4280223.7941  -4034416.3996  -2458267.9113   5  12   4.3494   5.3029   3.3293  -4.2842   3.7194  -3.2448   0.00    0.0
2019/02/11 09:12:53.000   4280223.8184  -4034416.7531  -2458267.7358   5  12   4.3486   5.3018   3.3287  -4.2831   3.7185  -3.2440   0.00    0.0
2019/02/11 09:12:54.000   4280223.9685  -4034416.9485  -2458267.6135   5  12   4.3479   5.3006   3.3281  -4.2820   3.7175  -3.2432   0.00    0.0
2019/02/11 09:12:55.000   4280223.8175  -4034416.7602  -2458267.4203   5  12   4.3472   5.2995   3.3276  -4.2809   3.7166  -3.2424   0.00    0.0
2019/02/11 09:12:56.000   4280223.6705  -4034416.7292  -2458267.4876   5  12   4.3465   5.2983   3.3270  -4.2799   3.7157  -3.2415   0.00    0.0
2019/02/11 09:12:57.000   4280223.5097  -4034416.7524  -2458267.4950   5  12   4.3458   5.2972   3.3264  -4.2788   3.7148  -3.2407   0.00    0.0
2019/02/11 09:12:58.000   4280223.6187  -4034416.9739  -2458267.6597   5  12   4.3451   5.2960   3.3259  -4.2777   3.7139  -3.2399   0.00    0.0
2019/02/11 09:12:59.000   4280223.5887  -4034417.0971  -2458267.8054   5  12   4.3443   5.2949   3.3253  -4.2766   3.7129  -3.2391   0.00    0.0
2019/02/11 09:13:00.000   4280223.7174  -4034417.0899  -2458267.5773   5  12   4.3436   5.2937   3.3247  -4.2755   3.7120  -3.2382   0.00    0.0
2019/02/11 09:13:01.000   4280223.8366  -4034416.9019  -2458267.2274   5  12   4.3429   5.2926   3.3242  -4.2744   3.7111  -3.2374   0.00    0.0
2019/02/11 09:13:02.000   4280223.8685  -4034416.6775  -2458266.8630   5  12   4.3422   5.2915   3.3236  -4.2733   3.7102  -3.2366   0.00    0.0
2019/02/11 09:13:03.000   4280224.0565  -4034416.8089  -2458266.8769   5  12   4.3415   5.2903   3.3231  -4.2722   3.7092  -3.2357   0.00    0.0
2019/02/11 09:13:04.000   4280226.2944  -4034417.1787  -2458264.8270   5  11   4.4335   5.2932   3.4187  -4.2929   3.6858  -3.1206   0.00    0.0
2019/02/11 09:13:05.000   4280226.1856  -4034416.9888  -2458265.0088   5  11   4.4331   5.2921   3.4179  -4.2920   3.6848  -3.1197   0.00    0.0
2019/02/11 09:13:06.000   4280224.2344  -4034416.8774  -2458267.4830   5  12   4.3393   5.2869   3.3214  -4.2690   3.7065  -3.2333   0.00    0.0
2019/02/11 09:13:07.000   4280226.7061  -4034418.0706  -2458266.1907   5  11   4.4322   5.2899   3.4164  -4.2902   3.6827  -3.1179   0.00    0.0
2019/02/11 09:13:08.000   4280227.0346  -4034418.5896  -2458266.6015   5  11   4.4318   5.2888   3.4157  -4.2893   3.6816  -3.1170   0.00    0.0
2019/02/11 09:13:09.000   4280227.5004  -4034418.8157  -2458266.8837   5  11   4.4313   5.2877   3.4149  -4.2884   3.6806  -3.1161   0.00    0.0
2019/02/11 09:13:10.000   4280226.0929  -4034418.5553  -2458268.7251   5  12   4.3364   5.2823   3.3191  -4.2646   3.7028  -3.2300   0.00    0.0
2019/02/11 09:13:11.000   4280226.5466  -4034418.8259  -2458268.7533   5  12   4.3357   5.2811   3.3185  -4.2635   3.7019  -3.2291   0.00    0.0
2019/02/11 09:13:12.000   4280227.1447  -4034419.2862  -2458268.9812   5  12   4.3350   5.2800   3.3180  -4.2624   3.7009  -3.2283   0.00    0.0
2019/02/11 09:13:13.000   4280227.6189  -4034419.9878  -2458269.3016   5  12   4.3343   5.2788   3.3174  -4.2614   3.7000  -3.2275   0.00    0.0
2019/02/11 09:13:14.000   4280227.8981  -4034420.6088  -2458269.4822   5  12   4.3336   5.2777   3.3168  -4.2603   3.6991  -3.2266   0.00    0.0
2019/02/11 09:13:15.000   4280228.1180  -4034420.9853  -2458269.6157   5  12   4.3329   5.2765   3.3163  -4.2592   3.6982  -3.2258   0.00    0.0
2019/02/11 09:13:16.000   4280228.2733  -4034421.1718  -2458269.7251   5  12   4.3321   5.2754   3.3157  -4.2581   3.6972  -3.2250   0.00    0.0
2019/02/11 09:13:17.000   4280228.0667  -4034421.0357  -2458269.5485   5  12   4.3314   5.2742   3.3152  -4.2570   3.6963  -3.2242   0.00    0.0
2019/02/11 09:13:18.000   4280228.1179  -4034421.2124  -2458269.6090   5  12   4.3307   5.2731   3.3146  -4.2559   3.6954  -3.2233   0.00    0.0
2019/02/11 09:13:19.000   4280228.2984  -4034421.6187  -2458269.9568   5  12   4.3300   5.2719   3.3140  -4.2548   3.6945  -3.2225   0.00    0.0
2019/02/11 09:13:20.000   4280228.5461  -4034422.0077  -2458270.3585   5  12   4.3293   5.2708   3.3135  -4.2537   3.6935  -3.2217   0.00    0.0
2019/02/11 09:13:21.000   4280228.3963  -4034421.9245  -2458270.2698   5  12   4.3286   5.2697   3.3129  -4.2526   3.6926  -3.2208   0.00    0.0
2019/02/11 09:13:22.000   4280228.4117  -4034421.7815  -2458270.1090   5  12   4.3278   5.2685   3.3123  -4.2515   3.6917  -3.2200   0.00    0.0
2019/02/11 09:13:23.000   4280228.5399  -4034421.8584  -2458270.1476   5  12   4.3271   5.2674   3.3118  -4.2505   3.6908  -3.2192   0.00    0.0
2019/02/11 09:13:24.000   4280228.7392  -4034421.8403  -2458270.3053   5  12   4.3264   5.2662   3.3112  -4.2494   3.6898  -3.2183   0.00    0.0
2019/02/11 09:13:25.000   4280228.9399  -4034421.9568  -2458270.3459   5  12   4.3257   5.2651   3.3106  -4.2483   3.6889  -3.2175   0.00    0.0
2019/02/11 09:13:26.000   4280229.2172  -4034422.3465  -2458270.2967   5  12   4.3250   5.2639   3.3101  -4.2472   3.6880  -3.2167   0.00    0.0
2019/02/11 09:13:27.000   4280229.0714  -4034422.6480  -2458270.2489   5  12   4.3243   5.2628   3.3095  -4.2461   3.6871  -3.2159   0.00    0.0
2019/02/11 09:13:28.000   4280228.6353  -4034422.7961  -2458270.2677   5  12   4.3235   5.2616   3.3089  -4.2450   3.6861  -3.2150   0.00    0.0
2019/02/11 09:13:29.000   4280228.2914  -4034422.7869  -2458270.3856   5  12   4.3228   5.2605   3.3084  -4.2439   3.6852  -3.2142   0.00    0.0
2019/02/11 09:13:30.000   4280228.2557  -4034422.8805  -2458270.3827   5  12   4.3221   5.2593   3.3078  -4.2428   3.6843  -3.2134   0.00    0.0
2019/02/11 09:13:31.000   4280228.1621  -4034422.9334  -2458270.2635   5  12   4.3214   5.2582   3.3072  -4.2417   3.6834  -3.2125   0.00    0.0
2019/02/11 09:13:32.000   4280228.2342  -4034423.1992  -2458270.0571   5  12   4.3207   5.2570   3.3067  -4.2406   3.6824  -3.2117   0.00    0.0
2019/02/11 09:13:33.000   4280228.2121  -4034423.4031  -2458269.6778   5  12   4.3199   5.2559   3.3061  -4.2395   3.6815  -3.2109   0.00    0.0
2019/02/11 09:13:34.000   4280228.0457  -4034423.0968  -2458269.1419   5  12   4.3192   5.2547   3.3055  -4.2384   3.6806  -3.2100   0.00    0.0
2019/02/11 09:13:35.000   4280227.7077  -4034422.4265  -2458268.6298   5  12   4.3185   5.2536   3.3050  -4.2374   3.6797  -3.2092   0.00    0.0
2019/02/11 09:13:36.000   4280227.7636  -4034422.2768  -2458268.5076   5  12   4.3178   5.2524   3.3044  -4.2363   3.6787  -3.2084   0.00    0.0
2019/02/11 09:13:37.000   4280228.1055  -4034422.4760  -2458268.7583   5  12   4.3171   5.2513   3.3038  -4.2352   3.6778  -3.2075   0.00    0.0
2019/02/11 09:13:38.000   4280228.0922  -4034422.4246  -2458268.8026   5  12   4.3164   5.2501   3.3033  -4.2341   3.6769  -3.2067   0.00    0.0
2019/02/11 09:13:39.000   4280227.8789  -4034421.9176  -2458268.6922   5  12   4.3156   5.2490   3.3027  -4.2330   3.6759  -3.2059   0.00    0.0
2019/02/11 09:13:40.000   4280227.6655  -4034421.3796  -2458268.5307   5  12   4.3149   5.2478   3.3021  -4.2319   3.6750  -3.2050   0.00    0.0
2019/02/11 09:13:41.000   4280227.4601  -4034420.9398  -2458268.6116   5  12   4.3142   5.2467   3.3016  -4.2308   3.6741  -3.2042   0.00    0.0
2019/02/11 09:13:42.000   4280227.1807  -4034420.4064  -2458268.6476   5  12   4.3135   5.2455   3.3010  -4.2297   3.6732  -3.2034   0.00    0.0
2019/02/11 09:13:43.000   4280227.0088  -4034420.0988  -2458268.6192   5  12   4.3128   5.2444   3.3005  -4.2286   3.6722  -3.2025   0.00    0.0
2019/02/11 09:13:44.000   4280227.0029  -4034420.3491  -2458268.6177   5  12   4.3121   5.2432   3.2999  -4.2275   3.6713  -3.2017   0.00    0.0
2019/02/11 09:13:45.000   4280227.0447  -4034420.4047  -2458268.2562   5  12   4.3113   5.2421   3.2993  -4.2264   3.6704  -3.2009   0.00    0.0
2019/02/11 09:13:46.000   4280226.8189  -4034420.0467  -2458267.6839   5  12   4.3106   5.2409   3.2988  -4.2253   3.6695  -3.2000   0.00    0.0
2019/02/11 09:13:47.000   4280226.6141  -4034419.5282  -2458267.0025   5  12   4.3099   5.2398   3.2982  -4.2242   3.6685  -3.1992   0.00    0.0
2019/02/11 09:13:48.000   4280226.6141  -4034419.3148  -2458266.5117   5  12   4.3092   5.2387   3.2976  -4.2231   3.6676  -3.1984   0.00    0.0
2019/02/11 09:13:49.000   4280226.6714  -4034419.1850  -2458266.1784   5  12   4.3085   5.2375   3.2971  -4.2220   3.6667  -3.1975   0.00    0.0
2019/02/11 09:13:50.000   4280226.4945  -4034418.6711  -2458265.7618   5  12   4.3078   5.2364   3.2965  -4.2210   3.6657  -3.1967   0.00    0.0
2019/02/11 09:13:51.000   4280226.4004  -4034418.5483  -2458265.6339   5  12   4.3070   5.2352   3.2959  -4.2199   3.6648  -3.1959   0.00    0.0
2019/02/11 09:13:52.000   4280226.4933  -4034418.6951  -2458265.6848   5  12   4.3063   5.2341   3.2954  -4.2188   3.6639  -3.1950   0.00    0.0
2019/02/11 09:13:53.000   4280226.5112  -4034418.7056  -2458265.6525   5  12   4.3056   5.2329   3.2948  -4.2177   3.6630  -3.1942   0.00    0.0
2019/02/11 09:13:54.000   4280226.5525  -4034418.7914  -2458265.6750   5  12   4.3049   5.2318   3.2942  -4.2166   3.6620  -3.1934   0.00    0.0
2019/02/11 09:13:55.000   4280226.5266  -4034418.6413  -2458265.5040   5  12   4.3042   5.2306   3.2937  -4.2155   3.6611  -3.1925   0.00    0.0
2019/02/11 09:13:56.000   4280226.4426  -4034418.5730  -2458265.4481   5  12   4.3034   5.2295   3.2931  -4.2144   3.6602  -3.1917   0.00    0.0
2019/02/11 09:13:57.000   4280226.4261  -4034418.6018  -2458265.5584   5  12   4.3027   5.2283   3.2925  -4.2133   3.6592  -3.1909   0.00    0.0
2019/02/11 09:13:58.000   4280226.5050  -4034418.8192  -2458265.8357   5  12   4.3020   5.2272   3.2920  -4.2122   3.6583  -3.1900   0.00    0.0
2019/02/11 09:13:59.000   4280226.5524  -4034418.7477  -2458265.8457   5  12   4.3013   5.2260   3.2914  -4.2111   3.6574  -3.1892   0.00    0.0
2019/02/11 09:14:00.000   4280226.5191  -4034418.5855  -2458265.6284   5  12   4.3006   5.2249   3.2908  -4.2100   3.6565  -3.1884   0.00    0.0
2019/02/11 09:14:01.000   4280226.4148  -4034418.0318  -2458265.3326   5  12   4.2999   5.2237   3.2903  -4.2089   3.6555  -3.1875   0.00    0.0
2019/02/11 09:14:02.000   4280226.2287  -4034417.4804  -2458265.0079   5  12   4.2991   5.2226   3.2897  -4.2078   3.6546  -3.1867   0.00    0.0
2019/02/11 09:14:03.000   4280226.0525  -4034417.2365  -2458264.8959   5  12   4.2984   5.2214   3.2891  -4.2067   3.6537  -3.1859   0.00    0.0
2019/02/11 09:14:04.000   4280225.6312  -4034416.8262  -2458264.4997   5  12   4.2977   5.2203   3.2886  -4.2056   3.6527  -3.1850   0.00    0.0
2019/02/11 09:14:05.000   4280225.6491  -4034416.9226  -2458264.3773   5  12   4.2970   5.2191   3.2880  -4.2045   3.6518  -3.1842   0.00    0.0
2019/02/11 09:14:06.000   4280225.8164  -4034417.0377  -2458264.3744   5  12   4.2963   5.2180   3.2874  -4.2034   3.6509  -3.1834   0.00    0.0
2019/02/11 09:14:07.000   4280226.0843  -4034417.1178  -2458264.3269   5  12   4.2956   5.2168   3.2869  -4.2023   3.6499  -3.1825   0.00    0.0
2019/02/11 09:14:08.000   4280226.2930  -4034417.0747  -2458264.2442   5  12   4.2948   5.2157   3.2863  -4.2012   3.6490  -3.1817   0.00    0.0
2019/02/11 09:14:09.000   4280226.4706  -4034417.1419  -2458264.4939   5  12   4.2941   5.2145   3.2857  -4.2001   3.6481  -3.1808   0.00    0.0
2019/02/11 09:14:10.000   4280226.2744  -4034417.1407  -2458264.6047   5  12   4.2934   5.2134   3.2852  -4.1991   3.6472  -3.1800   0.00    0.0
2019/02/11 09:14:11.000   4280225.8961  -4034417.3881  -2458264.6290   5  12   4.2927   5.2122   3.2846  -4.1980   3.6462  -3.1792   0.00    0.0
2019/02/11 09:14:12.000   4280225.4152  -4034417.2175  -2458264.4564   5  12   4.2920   5.2111   3.2840  -4.1969   3.6453  -3.1783   0.00    0.0
2019/02/11 09:14:13.000   4280225.0385  -4034416.8023  -2458264.3280   5  12   4.2913   5.2099   3.2835  -4.1958   3.6444  -3.1775   0.00    0.0
2019/02/11 09:14:14.000   4280224.8242  -4034416.3001  -2458264.2041   5  12   4.2905   5.2088   3.2829  -4.1947   3.6434  -3.1767   0.00    0.0
2019/02/11 09:14:15.000   4280224.9659  -4034416.1083  -2458264.2638   5  12   4.2898   5.2077   3.2823  -4.1936   3.6425  -3.1758   0.00    0.0
2019/02/11 09:14:16.000   4280225.3384  -4034415.9557  -2458264.3091   5  12   4.2891   5.2065   3.2818  -4.1925   3.6416  -3.1750   0.00    0.0
2019/02/11 09:14:17.000   4280225.5194  -4034415.7459  -2458264.1475   5  12   4.2884   5.2054   3.2812  -4.1914   3.6406  -3.1741   0.00    0.0
