     2.11           OBSERVATION DATA    M: Mixed            RINEX VERSION / TYPE
Geo++ RINEX Logger  Geo++               20190115 092504 UTC PGM / RUN BY / DATE
************************************************************COMMENT
This file was generated by the Geo++ RINEX Logger App       COMMENT
for Android devices (Version 2.0.1). If you encounter       COMMENT
any issues, please send an email to android@geopp.de        COMMENT
************************************************************COMMENT
Marco 91500                                                 MARKER NAME
Guilherme L M G CarvUERJ                                    OBSERVER / AGENCY
ce11171bcbf17f3503  samsung             SM-G955F            REC # / TYPE / VERS
ce11171bcbf17f3503  SM-G955F                                ANT # / TYPE
  4280221.1939 -4034417.0116 -2458268.9016                  APPROX POSITION XYZ
        0.0000        0.0000        0.0000                  ANTENNA: DELTA H/E/N
     4    C1    L1    S1    D1                              # / TYPES OF OBSERV
  2019     1    15     9    29   35.0001326     GPS         TIME OF FIRST OBS
                                                            END OF HEADER
 19  1 15  9 34 43.0001326  0 12G13G15G17G19G28G30R02R11R12R21R22R23
  20736977.989                          38.441        -403.596  
  22462680.810                          38.176        1469.181  
  20426905.947                          31.827       -1249.527  
  20434147.134                          31.519         283.014  
  22412922.756                          19.810       -1890.519  
  22688939.874                          28.039       -1679.863  
  22204440.786                          29.921       -1765.540  
  21650603.899                          16.344        -399.564  
  20934043.263                          26.888        1394.005  
  22516324.473                          16.456       -3194.037  
  19637141.690                          19.259         622.295  
  21523501.790                          26.295        4289.944  
 19  1 15  9 34 44.0001326  0 12G13G15G17G19G28G30R02R11R12R21R22R23
  20737037.048                          36.194        -405.822  
  22462393.009                          37.336        1469.464  
  20427143.982                          35.973       -1248.872  
  20434066.490                          34.506         283.116  
  22413264.520                          24.264       -1890.567  
  22689245.062                          27.061       -1681.363  
  22204759.165                          28.250       -1766.336  
  21650749.598                          23.889        -399.667  
  20933775.849                          30.011        1393.832  
  22516872.793                          24.113       -3193.644  
  19637065.542                          24.726         621.648  
  21522706.440                          26.883        4289.706  
 19  1 15  9 34 45.0001326  0 12G13G15G17G19G28G30R02R11R12R21R22R23
  20737126.386                          36.061        -408.072  
  22462128.592                          37.512        1468.231  
  20427379.320                          36.831       -1249.751  
  20434017.624                          34.661         283.344  
  22413618.575                          25.181       -1890.707  
  22689570.937                          26.992       -1682.622  
  22205067.352                          26.219       -1766.600  
  21650840.435                          24.387        -399.662  
  20933508.134                          32.080        1393.565  
  22517466.682                          24.622       -3193.556  
  19636942.328                          26.034         620.944  
  21521890.106                          27.080        4289.077  
 19  1 15  9 34 46.0001326  0 12G13G15G17G19G28G30R02R11R12R21R22R23
  20737212.726                          35.411        -407.347  
  22461837.493                          36.696        1466.402  
  20427608.961                          36.458       -1249.834  
  20433970.856                          34.540         283.160  
  22413974.129                          24.151       -1890.893  
  22689899.809                          26.658       -1683.008  
  22205432.199                          26.194       -1768.006  
  21650897.695                          25.151        -399.328  
  20933256.308                          32.164        1393.737  
  22518087.552                          26.177       -3194.136  
  19636832.304                          26.970         619.203  
  21521084.263                          27.323        4289.516  
 19  1 15  9 34 47.0001326  0 12G13G15G17G19G28G30R02R11R12R21R22R23
  20737273.884                          35.842        -406.558  
  22461565.882                          37.111        1465.186  
  20427849.094                          36.818       -1248.886  
  20433906.701                          34.695         282.848  
  22414338.676                          26.250       -1890.721  
  22690223.885                          26.176       -1682.042  
  22205745.182                          26.844       -1767.474  
  21650959.752                          26.397        -399.300  
  20932999.986                          32.333        1393.569  
  22518682.041                          26.241       -3194.392  
  19636713.586                          27.059         617.108  
  21520285.316                          26.498        4289.395  
 19  1 15  9 34 48.0001326  0 12G13G15G17G19G28G30R02R11R12R21R22R23
  20737345.534                          35.518        -406.864  
  22461282.578                          37.291        1464.222  
  20428082.333                          36.558       -1249.178  
  20433848.241                          34.445         280.101  
  22414696.928                          25.881       -1889.894  
  22690538.067                          26.913       -1682.691  
  22206052.470                          26.899       -1766.673  
  21651045.793                          26.149        -399.742  
  20932743.963                          32.699        1393.601  
  22519264.238                          25.824       -3194.022  
  19636593.369                          27.626         615.527  
  21519497.762                          26.113        4289.341  
 19  1 15  9 34 49.0001326  0 12G13G15G17G19G28G30R02R11R12R21R22R23
  20737432.474                          35.861        -407.697  
  22461000.773                          37.132        1463.226  
  20428330.861                          36.722       -1250.528  
  20433803.872                          34.306         279.548  
  22415035.094                          25.255       -1889.268  
  22690857.946                          27.179       -1682.837  
  22206400.529                          27.143       -1767.688  
  21651146.223                          26.175        -400.297  
  20932460.959                          32.536        1393.506  
  22519874.615                          26.271       -3193.997  
  19636475.551                          27.063         614.692  
  21518684.725                          26.305        4289.462  
 19  1 15  9 34 50.0001326  0 12G13G15G17G19G28G30R02R11R12R21R22R23
  20737506.523                          35.917        -408.661  
  22460724.364                          37.201        1462.537  
  20428560.202                          36.634       -1253.129  
  20433747.211                          34.429         278.732  
  22415396.944                          25.599       -1891.476  
  22691176.925                          28.115       -1683.667  
  22206742.592                          26.951       -1767.848  
  21651222.670                          26.934        -400.832  
  20932230.119                          32.872        1393.237  
  22520461.009                          27.102       -3193.885  
  19636367.326                          27.538         614.598  
  21517887.277                          26.000        4289.655  
 19  1 15  9 34 51.0001326  0 12G13G15G17G19G28G30R02R11R12R21R22R23
  20737603.056                          35.710        -410.889  
  22460455.750                          37.063        1462.760  
  20428811.428                          36.831       -1252.848  
  20433694.747                          34.741         277.859  
  22415767.787                          24.665       -1892.066  
  22691501.001                          27.891       -1684.061  
  22207081.357                          27.279       -1769.905  
  21651284.727                          27.380        -400.987  
  20931960.605                          32.902        1393.188  
  22521059.095                          27.466       -3194.414  
  19636275.889                          28.559         613.963  
  21517100.022                          26.663        4290.684  
 19  1 15  9 34 52.0001326  0 12G13G15G17G19G28G30R02R11R12R21R22R23
  20737664.514                          35.696        -410.846  
  22460174.545                          37.157        1462.405  
  20429053.960                          37.283       -1252.566  
  20433643.783                          34.383         278.510  
  22416141.928                          25.333       -1892.586  
  22691829.573                          28.051       -1682.823  
  22207415.326                          27.602       -1770.245  
  21651361.774                          26.829        -401.596  
  20931699.486                          32.952        1392.821  
  22521658.980                          27.327       -3194.190  
  19636154.173                          28.367         614.707  
  21516285.785                          26.350        4291.562  
 19  1 15  9 34 53.0001326  0 12G13G15G17G19G28G30R02R11R12R21R22R23
  20737745.757                          35.338        -411.551  
  22459891.840                          37.199        1461.174  
  20429282.702                          37.319       -1254.235  
  20433588.021                          33.895         279.482  
  22416495.383                          25.504       -1892.926  
  22692143.156                          28.618       -1681.375  
  22207734.006                          27.572       -1772.230  
  21651442.119                          27.489        -401.741  
  20931425.476                          32.695        1392.041  
  22522254.967                          27.022       -3196.131  
  19636040.852                          28.689         613.479  
  21515485.639                          26.691        4290.585  
 19  1 15  9 34 54.0001326  0 12G13G15G17G19G28G30R02R11R12R21R22R23
  20737820.406                          35.586        -412.166  
  22459605.239                          37.199        1460.393  
  20429519.838                          37.101       -1255.486  
  20433533.759                          33.472         279.290  
  22416856.033                          24.725       -1892.777  
  22692463.335                          28.593       -1682.408  
  22208067.675                          28.242       -1772.689  
  21651502.976                          27.003        -401.540  
  20931176.348                          32.082        1391.076  
  22522868.343                          26.612       -3196.731  
  19635938.922                          27.797         612.168  
  21514692.388                          26.513        4289.154  
 19  1 15  9 34 55.0001326  0 12G13G15G17G19G28G30R02R11R12R21R22R23
  20737907.046                          35.584        -412.470  
  22459331.229                          37.302        1460.273  
  20429771.963                          37.041       -1254.956  
  20433481.895                          33.416         278.682  
  22417211.587                          24.785       -1890.664  
  22692787.110                          28.492       -1683.663  
  22208383.356                          28.217       -1772.676  
  21651568.331                          26.653        -403.136  
  20930903.237                          32.299        1390.794  
  22523449.940                          27.452       -3196.674  
  19635799.219                          28.247         610.298  
  21513888.645                          26.582        4287.463  
 19  1 15  9 34 56.0001326  0 12G13G15G17G19G28G30R02R11R12R21R22R23
  20737982.294                          35.693        -411.612  
  22459056.319                          37.649        1459.856  
  20430007.900                          37.393       -1255.524  
  20433421.637                          33.648         277.108  
  22417561.745                          24.780       -1890.920  
  22693112.085                          29.283       -1684.862  
  22208709.830                          28.819       -1772.160  
  21651655.871                          26.677        -404.134  
  20930647.214                          32.391        1391.321  
  22524053.722                          27.367       -3196.445  
  19635669.409                          28.331         608.509  
  21513064.515                          27.133        4286.132  
 19  1 15  9 34 57.0001326  0 12G13G15G17G19G28G30R02R11R12R21R22R23
  20738066.235                          35.706        -413.334  
  22458782.908                          37.583        1459.537  
  20430238.740                          37.229       -1255.293  
  20433382.664                          33.410         276.867  
  22417923.894                          25.178       -1890.397  
  22693440.658                          28.723       -1685.948  
  22209055.191                          28.291       -1772.011  
  21651737.414                          27.091        -403.595  
  20930384.296                          32.249        1391.804  
  22524653.007                          27.448       -3197.228  
  19635577.073                          28.316         607.212  
  21512257.174                          27.295        4284.587  
 19  1 15  9 34 58.0001326  0 12G13G15G17G19G28G30R02R11R12R21R22R23
  20738138.186                          35.677        -413.933  
  22458501.403                          37.738        1458.086  
  20430489.067                          37.257       -1257.785  
  20433316.409                          33.083         271.934  
  22418298.035                          25.376       -1890.560  
  22693765.333                          28.456       -1687.369  
  22209383.764                          28.263       -1773.063  
  21651818.958                          27.592        -402.940  
  20930130.072                          32.522        1392.083  
  22525234.605                          27.486       -3198.594  
  19635484.137                          28.564         605.774  
  21511469.320                          26.554        4284.449  
 19  1 15  9 34 59.0001326  0 12G13G15G17G19G28G30R02R11R12R21R22R23
  20738214.033                          35.652        -414.158  
  22458224.095                          37.807        1458.065  
  20430726.203                          37.217       -1259.186  
  20433274.139                          33.217         272.136  
  22418652.090                          25.755       -1889.990  
  22694083.113                          28.446       -1687.319  
  22209726.426                          28.041       -1773.614  
  21651884.912                          27.801        -402.138  
  20929850.066                          32.341        1392.075  
  22525846.781                          27.626       -3199.632  
  19635343.834                          28.922         605.363  
  21510667.974                          26.980        4284.740  
 19  1 15  9 35  0.0001326  0 12G13G15G17G19G28G30R02R11R12R21R22R23
  20738298.874                          35.758        -416.328  
  22457951.883                          37.865        1457.721  
  20430961.240                          37.212       -1258.564  
  20433211.182                          33.475         273.420  
  22419009.443                          24.791       -1888.622  
  22694405.090                          28.577       -1687.308  
  22210049.303                          28.106       -1774.924  
  21651969.154                          27.952        -400.670  
  20929608.434                          32.537        1392.147  
  22526448.164                          27.767       -3200.201  
  19635223.018                          29.090         605.127  
  21509853.738                          26.680        4284.810  
 19  1 15  9 35  1.0001326  0 12G13G15G17G19G28G30R02R11R12R21R22R23
  20738373.823                          35.606        -417.649  
  22457675.775                          37.529        1456.731  
  20431204.372                          36.794       -1258.679  
  20433179.404                          33.659         274.105  
  22419364.397                          24.602       -1889.592  
  22694724.669                          28.626       -1687.717  
  22210371.280                          28.545       -1775.104  
  21652040.204                          27.724        -401.390  
  20929342.518                          32.646        1392.212  
  22527055.844                          28.105       -3200.348  
  19635124.386                          28.549         605.652  
  21509048.795                          25.440        4285.519  
 19  1 15  9 35  2.0001326  0 12G13G15G17G19G28G30R02R11R12R21R22R23
  20738461.362                          35.874        -418.204  
  22457388.873                          37.638        1456.189  
  20431446.304                          36.700       -1259.199  
  20433123.943                          33.848         276.093  
  22419737.938                          25.461       -1889.584  
  22695042.149                          28.652       -1687.648  
  22210713.943                          28.321       -1775.864  
  21652101.662                          28.053        -402.338  
  20929099.086                          32.697        1392.328  
  22527668.919                          28.202       -3200.818  
  19635023.956                          28.733         605.325  
  21508251.947                          24.707        4285.334  
 19  1 15  9 35  3.0001326  0 12G13G15G17G19G28G30R02R11R12R21R22R23
  20738536.910                          35.474        -419.281  
  22457122.058                          37.605        1455.951  
  20431676.545                          35.982       -1259.289  
  20433055.290                          33.692         276.550  
  22420100.088                          25.226       -1889.237  
  22695355.133                          27.946       -1688.911  
  22211064.100                          28.300       -1777.112  
  21652185.304                          27.826        -404.329  
  20928827.174                          32.518        1391.649  
  22528247.519                          28.192       -3201.147  
  19634909.735                          28.503         604.101  
  21507439.509                          24.077        4285.311  
 19  1 15  9 35  4.0001326  0 12G13G15G17G19G28G30R02R11R12R21R22R23
  20738603.763                          35.874        -418.422  
  22456834.257                          37.977        1454.839  
  20431910.083                          36.117       -1260.399  
  20433023.212                          33.862         273.219  
  22420447.847                          25.978       -1890.377  
  22695672.613                          27.480       -1688.435  
  22211417.855                          28.398       -1777.514  
  21652270.145                          27.817        -405.982  
  20928556.462                          32.625        1391.809  
  22528820.722                          27.976       -3201.829  
  19634779.925                          28.750         603.329  
  21506634.567                          25.012        4284.423  
 19  1 15  9 35  5.0001326  0 12G13G15G17G19G28G30R02R11R12R21R22R23
  20738700.297                          35.516        -418.919  
  22456561.446                          37.825        1454.659  
  20432152.915                          36.319       -1261.031  
  20432962.654                          34.006         269.814  
  22420803.101                          25.824       -1891.402  
  22696006.582                          28.725       -1687.054  
  22211738.633                          28.482       -1776.836  
  21652345.393                          27.698        -406.997  
  20928308.533                          32.866        1391.639  
  22529427.502                          28.458       -3203.108  
  19634669.601                          28.122         602.338  
  21505841.016                          23.991        4283.505  
 19  1 15  9 35  6.0001326  0 12G13G15G17G19G28G30R02R11R12R21R22R23
  20738777.643                          35.616        -420.260  
  22456287.136                          37.745        1454.583  
  20432397.246                          36.206       -1260.769  
  20432917.086                          33.989         267.702  
  22421179.640                          26.431       -1891.508  
  22696326.460                          29.114       -1686.718  
  22212046.820                          28.756       -1776.977  
  21652418.243                          27.051        -406.439  
  20928042.318                          33.317        1391.028  
  22530045.374                          29.329       -3202.845  
  19634556.579                          28.001         601.785  
  21505057.958                          23.697        4282.688  
 19  1 15  9 35  7.0001326  0 12G13G15G17G19G28G30R02R11R12R21R22R23
  20738855.889                          35.443        -421.425  
  22456002.933                          37.457        1454.194  
  20432626.887                          35.613       -1261.461  
  20432860.425                          33.875         267.755  
  22421541.490                          25.805       -1892.009  
  22696646.039                          29.078       -1687.333  
  22212385.885                          28.980       -1777.067  
  21652494.390                          28.232        -405.905  
  20927791.991                          33.032        1390.869  
  22530647.357                          29.295       -3203.350  
  19634433.964                          28.019         599.642  
  21504251.816                          22.882        4282.057  
 19  1 15  9 35  8.0001326  0 12G13G15G17G19G28G30R02R11R12R21R22R23
  20738925.141                          35.450        -421.742  
  22455728.623                          37.466        1453.636  
  20432867.620                          35.618       -1261.750  
  20432816.655                          33.677         268.969  
  22421897.943                          26.561       -1892.049  
  22696961.121                          29.143       -1687.952  
  22212722.252                          28.099       -1777.745  
  21652571.437                          27.029        -404.700  
  20927514.683                          32.977        1390.756  
  22531252.039                          29.103       -3204.457  
  19634321.242                          27.923         597.671  
  21503448.972                          23.662        4281.631  
 19  1 15  9 35  9.0001326  0 12G13G15G17G19G28G30R02R11R12R21R22R23
  20739014.779                          35.733        -422.545  
  22455447.717                          37.492        1453.690  
  20433119.146                          35.538       -1263.992  
  20432765.990                          33.701         268.776  
  22422258.893                          25.822       -1891.381  
  22697276.203                          28.277       -1688.839  
  22213025.043                          27.840       -1777.691  
  21652638.590                          27.109        -404.334  
  20927267.954                          33.051        1391.321  
  22531856.720                          29.161       -3205.227  
  19634216.315                          27.866         596.871  
  21502653.023                          24.144        4279.811  
 19  1 15  9 35 10.0001326  0 12G13G15G17G19G28G30R02R11R12R21R22R23
  20739097.522                          35.645        -422.593  
  22455189.896                          37.996        1453.233  
  20433362.877                          35.529       -1265.662  
  20432707.831                          33.772         267.302  
  22422623.741                          26.311       -1892.398  
  22697606.274                          29.366       -1690.047  
  22213358.712                          28.084       -1779.167  
  21652720.733                          26.462        -404.465  
  20927008.334                          33.265        1391.338  
  22532455.406                          29.277       -3206.055  
  19634139.268                          28.115         596.296  
  21501869.066                          25.294        4280.606  
 19  1 15  9 35 11.0001326  0 12G13G15G17G19G28G30R02R11R12R21R22R23
  20739178.765                          35.642        -421.613  
  22454898.497                          37.737        1452.058  
  20433590.420                          35.460       -1265.879  
  20432651.470                          33.734         265.742  
  22422995.483                          26.172       -1891.878  
  22697929.151                          29.003       -1689.986  
  22213712.167                          27.793       -1780.365  
  21652793.283                          26.443        -403.415  
  20926753.510                          33.143        1390.984  
  22533055.890                          29.198       -3206.767  
  19634011.557                          28.639         596.352  
  21501053.331                          24.155        4280.745  
 19  1 15  9 35 12.0001326  0 12G13G15G17G19G28G30R02R11R12R21R22R23
  20739258.810                          35.522        -422.208  
  22454622.388                          37.797        1450.930  
  20433836.849                          35.431       -1267.870  
  20432610.398                          33.761         264.531  
  22423356.134                          26.169       -1891.721  
  22698235.838                          28.657       -1690.524  
  22214055.130                          27.782       -1782.127  
  21652858.638                          25.578        -402.577  
  20926472.604                          33.474        1391.149  
  22533649.179                          29.606       -3207.282  
  19633868.256                          28.951         595.906  
  21500244.790                          24.088        4281.886  
 19  1 15  9 35 13.0001326  0 12G13G15G17G19G28G30R02R11R12R21R22R23
  20739348.748                          35.122        -422.444  
  22454347.479                          38.050        1448.670  
  20434070.387                          35.350       -1266.992  
  20432556.735                          34.077         264.640  
  22423715.585                          25.974       -1891.661  
  22698546.723                          28.435       -1689.452  
  22214376.807                          28.047       -1782.582  
  21652925.492                          24.695        -402.886  
  20926235.169                          33.417        1391.206  
  22534252.961                          29.880       -3207.618  
  19633779.217                          28.588         594.821  
  21499415.564                          23.998        4283.336  
 19  1 15  9 35 14.0001326  0 12G13G15G17G19G28G30R02R11R12R21R22R23
  20739428.792                          35.539        -424.102  
  22454075.867                          37.994        1448.808  
  20434330.008                          35.101       -1265.961  
  20432512.366                          33.555         264.124  
  22424058.248                          26.411       -1892.443  
  22698872.597                          28.700       -1689.772  
  22214697.585                          27.958       -1783.337  
  21653000.440                          24.922        -404.187  
  20925960.259                          33.635        1391.016  
  22534843.552                          30.017       -3207.916  
  19633667.095                          29.048         592.903  
  21498601.628                          24.229        4281.881  
 19  1 15  9 35 15.0001326  0 12G13G15G17G19G28G30R02R11R12R21R22R23
  20739503.141                          35.738        -426.670  
  22453807.253                          37.978        1449.960  
  20434560.248                          35.169       -1266.550  
  20432459.603                          33.861         264.228  
  22424416.200                          26.496       -1893.389  
  22699208.365                          28.222       -1691.848  
  22215037.250                          27.519       -1782.274  
  21653076.587                          23.825        -406.848  
  20925710.532                          34.337        1391.528  
  22535450.632                          29.825       -3208.172  
  19633539.983                          28.954         590.032  
  21497805.079                          24.199        4280.502  
 19  1 15  9 35 16.0001326  0 12G13G15G17G19G28G30R02R11R12R21R22R23
  20739583.785                          35.804        -428.663  
  22453518.553                          37.997        1450.140  
  20434801.881                          35.496       -1267.335  
  20432400.244                          33.860         264.952  
  22424782.246                          26.538       -1893.234  
  22699533.640                          28.681       -1692.835  
  22215368.820                          27.286       -1782.423  
  21653170.122                          24.790        -409.064  
  20925444.916                          33.528        1390.400  
  22536055.014                          29.620       -3208.149  
  19633437.454                          28.639         589.282  
  21497035.512                          25.187        4280.322  
 19  1 15  9 35 17.0001326  0 12G13G15G17G19G28G30R02R11R12R21R22R23
  20739665.628                          35.890        -427.770  
  22453251.437                          38.135        1448.402  
  20435045.013                          35.711       -1268.740  
  20432358.273                          34.110         263.903  
  22425150.092                          26.512       -1892.616  
  22699846.923                          28.589       -1692.634  
  22215688.399                          27.733       -1782.879  
  21653242.972                          24.996        -409.424  
  20925185.895                          33.893        1390.614  
  22536654.299                          29.347       -3208.420  
  19633331.627                          28.421         588.379  
  21496232.668                          25.147        4279.842  
 19  1 15  9 35 18.0001326  0 12G13G15G17G19G28G30R02R11R12R21R22R23
  20739749.870                          35.543        -427.845  
  22452972.031                          38.076        1447.034  
  20435286.046                          35.350       -1269.522  
  20432309.107                          34.291         262.501  
  22425502.947                          26.132       -1891.970  
  22700168.001                          28.994       -1693.240  
  22216033.160                          28.062       -1784.568  
  21653290.639                          24.542        -409.836  
  20924915.782                          33.610        1391.328  
  22537244.290                          29.880       -3209.305  
  19633206.314                          27.861         587.252  
  21495430.423                          24.617        4279.244  
 19  1 15  9 35 19.0001326  0 12G13G15G17G19G28G30R02R11R12R21R22R23
  20739834.711                          35.768        -427.454  
  22452697.121                          37.842        1445.756  
  20435521.383                          35.274       -1271.034  
  20432259.941                          33.970         261.429  
  22425849.208                          25.813       -1891.293  
  22700488.779                          28.220       -1693.307  
  22216368.928                          27.922       -1784.713  
  21653347.899                          24.855        -407.908  
  20924656.462                          33.315        1390.807  
  22537836.680                          30.113       -3210.628  
  19633091.194                          27.718         585.512  
  21494662.355                          26.621        4278.353  
 19  1 15  9 35 20.0001326  0 12G13G15G17G19G28G30R02R11R12R21R22R23
  20739901.565                          35.340        -427.769  
  22452427.008                          37.933        1445.196  
  20435770.211                          35.336       -1272.299  
  20432211.974                          33.502         258.677  
  22426207.759                          25.021       -1892.014  
  22700815.552                          28.844       -1694.480  
  22216704.096                          27.806       -1785.799  
  21653453.126                          24.945        -408.672  
  20924406.435                          33.640        1390.088  
  22538426.072                          29.617       -3210.718  
  19632987.166                          27.910         584.729  
  21493870.603                          25.082        4277.304  
 19  1 15  9 35 21.0001326  0 12G13G15G17G19G28G30R02R11R12R21R22R23
  20739983.408                          35.714        -430.627  
  22452147.302                          37.989        1445.711  
  20436009.745                          36.026       -1272.449  
  20432151.716                          34.216         257.538  
  22426572.307                          24.665       -1893.312  
  22701146.223                          28.536       -1693.822  
  22217054.253                          28.310       -1786.367  
  21653542.165                          25.802        -409.119  
  20924118.634                          33.698        1387.302  
  22539045.444                          29.938       -3210.936  
  19632872.046                          28.248         584.643  
  21493040.777                          25.265        4276.800  
 19  1 15  9 35 22.0001326  0 12G13G15G17G19G28G30R02R11R12R21R22R23
  20740076.644                          35.637        -431.375  
  22451877.189                          37.945        1445.269  
  20436266.067                          36.299       -1272.311  
  20432109.745                          34.298         257.814  
  22426938.653                          24.495       -1893.925  
  22701469.400                          28.992       -1694.504  
  22217421.499                          28.098       -1787.875  
  21653614.415                          24.404        -409.866  
  20923856.615                          33.736        1387.566  
  22539666.913                          29.793       -3211.484  
  19632771.315                          27.887         584.146  
  21492227.740                          25.503        4276.417  
 19  1 15  9 35 23.0001326  0 12G13G15G17G19G28G30R02R11R12R21R22R23
  20740151.292                          35.920        -432.757  
  22451594.784                          37.812        1444.580  
  20436491.511                          36.083       -1271.896  
  20432065.975                          34.306         257.497  
  22427301.702                          24.756       -1892.781  
  22701792.276                          28.984       -1695.661  
  22217765.061                          28.153       -1788.411  
  21653707.350                          25.946        -412.024  
  20923588.901                          33.427        1388.663  
  22540266.498                          29.985       -3212.130  
  19632671.784                          28.228         583.322  
  21491445.582                          26.256        4275.017  
 19  1 15  9 35 24.0001326  0 12G13G15G17G19G28G30R02R11R12R21R22R23
  20740240.330                          35.893        -433.332  
  22451327.969                          38.034        1443.247  
  20436737.041                          36.206       -1273.105  
  20432020.107                          34.119         259.413  
  22427657.856                          24.611       -1891.283  
  22702122.947                          28.874       -1695.537  
  22218073.548                          28.383       -1787.235  
  21653779.600                          26.408        -410.613  
  20923375.449                          34.084        1389.212  
  22540866.683                          30.476       -3213.123  
  19632565.058                          28.178         581.982  
  21490680.811                          26.641        4275.144  
 19  1 15  9 35 25.0001326  0 12G13G15G17G19G28G30R02R11R12R21R22R23
  20740320.075                          36.007        -433.356  
  22451051.261                          37.993        1442.174  
  20436978.974                          36.361       -1272.896  
  20431962.846                          34.398         259.585  
  22428019.105                          24.262       -1890.125  
  22702442.526                          28.822       -1695.802  
  22218400.022                          28.609       -1787.171  
  21653844.056                          27.689        -409.322  
  20923093.943                          33.924        1390.322  
  22541457.274                          30.286       -3213.005  
  19632466.127                          28.007         581.088  
  21489884.562                          27.076        4275.154  
 19  1 15  9 35 26.0001326  0 12G13G15G17G19G28G30R02R11R12R21R22R23
  20740402.818                          36.122        -433.302  
  22450779.649                          37.872        1443.143  
  20437226.003                          36.182       -1274.601  
  20431907.385                          33.975         259.638  
  22428388.150                          24.905       -1890.199  
  22702758.807                          29.142       -1695.925  
  22218751.378                          28.358       -1786.821  
  21653935.492                          27.828        -408.694  
  20922840.919                          33.429        1390.576  
  22542045.467                          30.026       -3213.447  
  19632344.111                          27.179         581.112  
  21489070.326                          27.788        4276.097  
 19  1 15  9 35 27.0001326  0 12G13G15G17G19G28G30R02R11R12R21R22R23
  20740481.364                          35.922        -433.168  
  22450500.842                          37.885        1444.222  
  20437467.336                          36.459       -1274.734  
  20431861.217                          33.776         259.157  
  22428743.704                          24.974       -1890.535  
  22703083.183                          29.245       -1696.732  
  22219094.641                          28.045       -1787.826  
  21654040.720                          28.597        -408.159  
  20922576.801                          33.960        1390.330  
  22542648.649                          29.701       -3213.699  
  19632216.999                          27.157         581.086  
  21488277.075                          28.180        4277.450  
 19  1 15  9 35 28.0001326  0 12G13G15G17G19G28G30R02R11R12R21R22R23
  20740572.800                          36.174        -433.197  
  22450231.028                          38.023        1443.355  
  20437712.566                          36.549       -1274.990  
  20431819.845                          33.947         257.631  
  22429104.954                          24.926       -1890.697  
  22703409.057                          29.193       -1696.487  
  22219401.029                          28.728       -1788.661  
  21654108.473                          28.315        -407.706  
  20922325.575                          33.554        1390.781  
  22543247.035                          30.112       -3214.175  
  19632107.875                          27.588         580.507  
  21487471.233                          28.274        4277.012  
 19  1 15  9 35 29.0001326  0 12G13G15G17G19G28G30R02R11R12R21R22R23
  20740653.145                          36.278        -434.708  
  22449949.523                          37.967        1440.923  
  20437956.297                          36.701       -1275.730  
  20431762.885                          33.692         255.177  
  22429459.009                          24.752       -1890.457  
  22703741.227                          29.551       -1696.459  
  22219742.193                          28.142       -1788.614  
  21654171.729                          28.452        -407.824  
  20922034.477                          33.865        1390.617  
  22543849.917                          30.222       -3215.050  
  19631998.750                          27.329         579.581  
  21486667.190                          28.173        4275.631  
 19  1 15  9 35 30.0001326  0 12G13G15G17G19G28G30R02R11R12R21R22R23
  20740741.883                          36.181        -435.587  
  22449688.404                          37.626        1439.682  
  20438213.219                          36.540       -1276.460  
  20431717.616                          33.850         255.279  
  22429812.164                          24.753       -1890.461  
  22704062.605                          29.776       -1695.829  
  22220097.447                          28.523       -1789.989  
  21654266.463                          28.887        -408.433  
  20921802.138                          33.834        1392.620  
  22544455.498                          29.941       -3215.316  
  19631904.915                          27.395         578.450  
  21485879.335                          28.368        4275.145  
 19  1 15  9 35 31.0001326  0 12G13G15G17G19G28G30R02R11R12R21R22R23
  20740827.624                          36.384        -434.366  
  22449412.595                          37.679        1437.969  
  20438450.655                          36.582       -1277.439  
  20431671.148                          33.907         254.498  
  22430163.221                          24.084       -1891.146  
  22704383.682                          29.505       -1696.325  
  22220431.116                          28.822       -1789.933  
  21654326.722                          28.598        -409.342  
  20921538.320                          33.616        1391.267  
  22545047.888                          30.286       -3216.541  
  19631813.179                          27.846         577.230  
  21485073.793                          28.790        4273.308  
 19  1 15  9 35 32.0001326  0 12G13G15G17G19G28G30R02R11R12R21R22R23
  20740906.169                          36.357        -434.861  
  22449124.195                          37.531        1437.650  
  20438683.294                          36.491       -1277.456  
  20431614.787                          33.057         253.462  
  22430526.869                          23.844       -1890.862  
  22704699.663                          28.933       -1696.711  
  22220758.189                          28.734       -1790.264  
  21654390.278                          27.851        -410.103  
  20921269.706                          33.571        1390.829  
  22545688.844                          30.088       -3217.602  
  19631709.151                          28.548         575.170  
  21484286.238                          29.060        4273.215  
 19  1 15  9 35 33.0001326  0 12G13G15G17G19G28G30R02R11R12R21R22R23
  20740983.816                          35.918        -435.810  
  22448854.981                          37.734        1438.001  
  20438938.118                          36.485       -1277.360  
  20431571.617                          33.094         252.493  
  22430911.203                          23.455       -1890.458  
  22705027.337                          28.984       -1697.103  
  22221101.152                          28.491       -1790.795  
  21654480.215                          27.532        -411.540  
  20921011.885                          33.826        1390.480  
  22546290.828                          29.892       -3218.149  
  19631582.039                          28.553         574.554  
  21483511.275                          29.092        4272.068  
 19  1 15  9 35 34.0001326  0 12G13G15G17G19G28G30R02R11R12R21R22R23
  20741068.657                          36.451        -438.496  
  22448587.566                          37.773        1439.425  
  20439170.757                          36.554       -1279.028  
  20431529.047                          33.328         250.846  
  22431272.753                          24.519       -1890.661  
  22705357.108                          28.892       -1697.941  
  22221445.014                          28.294       -1791.597  
  21654544.671                          27.668        -411.728  
  20920748.967                          33.871        1389.494  
  22546873.624                          29.747       -3219.322  
  19631486.705                          28.449         572.734  
  21482714.726                          29.311        4271.674  
 19  1 15  9 35 35.0001326  0 12G13G15G17G19G28G30R02R11R12R21R22R23
  20741154.398                          36.285        -439.612  
  22448313.856                          37.597        1437.411  
  20439424.081                          36.457       -1279.948  
  20431472.986                          33.740         251.835  
  22431635.502                          24.813       -1891.049  
  22705671.291                          29.214       -1698.612  
  22221765.192                          28.523       -1792.505  
  21654610.625                          27.712        -412.642  
  20920490.846                          33.791        1387.264  
  22547453.123                          29.635       -3220.089  
  19631399.765                          27.859         572.021  
  21481912.481                          28.875        4271.055  
 19  1 15  9 35 36.0001326  0 12G13G15G17G19G28G30R02R11R12R21R22R23
  20741245.235                          36.293        -438.485  
  22448034.149                          37.286        1437.388  
  20439667.812                          36.655       -1280.246  
  20431438.210                          33.546         253.794  
  22431983.861                          24.729       -1891.453  
  22705986.673                          28.452       -1699.253  
  22222084.771                          28.535       -1793.087  
  21654712.255                          27.247        -411.706  
  20920242.318                          33.912        1387.081  
  22548054.507                          29.522       -3220.260  
  19631273.852                          28.260         572.167  
  21481103.342                          29.124        4270.507  
 19  1 15  9 35 37.0001326  0 12G13G15G17G19G28G30R02R11R12R21R22R23
  20741321.382                          36.197        -439.461  
  22447769.133                          37.439        1434.816  
  20439904.648                          36.701       -1281.436  
  20431383.348                          33.870         252.512  
  22432329.222                          24.796       -1891.076  
  22706295.759                          28.108       -1699.009  
  22222405.849                          28.492       -1794.268  
  21654777.909                          26.942        -411.417  
  20919991.691                          33.830        1388.336  
  22548650.194                          30.089       -3219.606  
  19631165.327                          28.496         571.450  
  21480299.298                          29.387        4270.296  
 19  1 15  9 35 38.0001326  0 12G13G15G17G19G28G30R02R11R12R21R22R23
  20741398.728                          35.943        -440.914  
  22447488.527                          37.121        1434.196  
  20440147.480                          36.231       -1283.138  
  20431347.073                          33.883         250.418  
  22432686.574                          24.507       -1890.463  
  22706618.935                          27.849       -1699.609  
  22222756.906                          28.531       -1794.646  
  21654827.075                          26.785        -410.494  
  20919715.282                          33.706        1388.376  
  22549257.574                          29.827       -3219.776  
  19631069.993                          28.541         570.707  
  21479493.156                          29.564        4271.137  
 19  1 15  9 35 39.0001326  0 12G13G15G17G19G28G30R02R11R12R21R22R23
  20741490.765                          35.743        -442.007  
  22447228.907                          37.140        1434.291  
  20440399.906                          36.289       -1283.533  
  20431300.005                          34.290         249.029  
  22433065.812                          25.851       -1890.490  
  22706952.304                          27.853       -1700.001  
  22223110.661                          27.951       -1795.003  
  21654933.801                          28.080        -410.705  
  20919455.662                          33.168        1387.947  
  22549875.446                          30.288       -3220.562  
  19630950.676                          28.983         569.547  
  21478697.507                          29.931        4270.926  
 19  1 15  9 35 40.0001326  0 12G13G15G17G19G28G30R02R11R12R21R22R23
  20741572.908                          35.605        -443.611  
  22446953.997                          37.272        1434.094  
  20440638.241                          36.234       -1283.896  
  20431244.844                          34.164         248.498  
  22433417.168                          25.919       -1890.774  
  22707272.482                          27.183       -1701.126  
  22223452.124                          28.144       -1795.109  
  21655033.033                          28.255        -411.571  
  20919206.235                          33.283        1389.037  
  22550493.918                          30.007       -3220.708  
  19630838.853                          29.325         568.350  
  21477917.447                          30.008        4270.329  
 19  1 15  9 35 41.0001326  0 12G13G15G17G19G28G30R02R11R12R21R22R23
  20741645.158                          35.667        -442.106  
  22446672.192                          36.354        1433.667  
  20440878.374                          35.604       -1283.183  
  20431201.973                          33.978         248.372  
  22433778.418                          25.884       -1891.374  
  22707581.868                          26.973       -1701.100  
  22223775.900                          27.532       -1795.339  
  21655110.379                          28.329        -411.906  
  20918930.426                          33.354        1390.338  
  22551075.515                          29.763       -3220.993  
  19630736.324                          28.862         567.514  
  21477098.414                          29.760        4269.711  
 19  1 15  9 35 42.0001326  0 12G13G15G17G19G28G30R02R11R12R21R22R23
  20741741.091                          35.746        -441.642  
  22446395.784                          36.663        1432.350  
  20441112.212                          35.837       -1283.449  
  20431141.715                          34.065         245.906  
  22434150.461                          25.872       -1891.793  
  22707905.044                          26.799       -1700.828  
  22224099.376                          28.685       -1794.601  
  21655176.333                          27.526        -411.805  
  20918658.214                          33.168        1388.740  
  22551673.002                          30.152       -3221.623  
  19630619.105                          28.446         566.538  
  21476283.878                          30.647        4268.952  
 19  1 15  9 35 43.0001326  0 12G13G15G17G19G28G30R02R11R12R21R22R23
  20741824.434                          35.529        -442.098  
  22446120.574                          36.422        1432.529  
  20441376.629                          35.757       -1284.329  
  20431098.245                          34.404         244.849  
  22434515.308                          25.859       -1891.457  
  22708231.219                          26.563       -1700.686  
  22224455.230                          29.187       -1794.634  
  21655242.288                          27.852        -412.642  
  20918407.288                          32.772        1388.768  
  22552265.991                          30.385       -3222.268  
  19630507.582                          28.046         566.130  
  21475502.619                          30.803        4268.322  
 19  1 15  9 35 44.0001326  0 12G13G15G17G19G28G30R02R11R12R21R22R23
  20741909.275                          35.664        -442.889  
  22445856.157                          36.449        1432.180  
  20441609.868                          35.842       -1285.312  
  20431046.681                          34.207         246.182  
  22434872.361                          25.690       -1891.703  
  22708552.896                          26.461       -1700.844  
  22224797.893                          29.430       -1795.653  
  21655339.420                          28.170        -412.673  
  20918150.366                          33.144        1387.404  
  22552872.171                          30.329       -3222.599  
  19630396.659                          28.482         565.001  
  21474714.764                          30.471        4267.821  
 19  1 15  9 35 45.0001326  0 12G13G15G17G19G28G30R02R11R12R21R22R23
  20741997.114                          35.804        -445.520  
  22445587.243                          36.318        1432.435  
  20441861.993                          35.900       -1287.092  
  20431011.305                          34.280         244.391  
  22435217.722                          25.625       -1890.927  
  22708882.068                          26.663       -1701.135  
  22225130.962                          29.636       -1796.070  
  21655429.358                          28.609        -411.775  
  20917885.050                          33.353        1388.308  
  22553516.425                          30.367       -3223.506  
  19630303.124                          27.943         564.404  
  21473931.407                          30.453        4267.644  
 19  1 15  9 35 46.0001326  0 12G13G15G17G19G28G30R02R11R12R21R22R23
  20742084.054                          35.700        -447.233  
  22445307.537                          36.187        1430.874  
  20442109.322                          35.940       -1287.685  
  20430967.835                          34.331         243.924  
  22435579.272                          25.994       -1889.883  
  22709217.836                          27.159       -1701.883  
  22225475.124                          29.704       -1796.797  
  21655487.818                          28.004        -412.197  
  20917647.014                          33.167        1388.474  
  22554083.633                          30.304       -3224.059  
  19630205.392                          27.735         562.908  
  21473121.967                          30.663        4267.838  
 19  1 15  9 35 47.0001326  0 12G13G15G17G19G28G30R02R11R12R21R22R23
  20742170.694                          35.835        -447.539  
  22445048.216                          36.068        1430.591  
  20442354.253                          35.626       -1288.507  
  20430920.168                          34.069         241.278  
  22435949.515                          25.556       -1889.389  
  22709546.408                          27.436       -1703.396  
  22225802.797                          29.705       -1797.300  
  21655574.158                          28.050        -412.832  
  20917378.100                          33.275        1389.457  
  22554679.320                          30.517       -3225.405  
  19630095.368                          26.713         562.610  
  21472326.917                          30.539        4268.097  
 19  1 15  9 35 48.0001326  0 12G13G15G17G19G28G30R02R11R12R21R22R23
  20742242.045                          36.023        -447.390  
  22444753.520                          35.780        1429.565  
  20442587.491                          35.679       -1288.921  
  20430860.809                          34.375         242.066  
  22436286.482                          25.667       -1890.676  
  22709864.488                          27.369       -1704.229  
  22226149.657                          30.011       -1797.936  
  21655651.504                          27.515        -412.990  
  20917115.182                          33.263        1389.084  
  22555278.006                          30.519       -3226.690  
  19629993.139                          25.602         560.895  
  21471515.979                          30.262        4268.077  
 19  1 15  9 35 49.0001326  0 12G13G15G17G19G28G30R02R11R12R21R22R23
  20742333.781                          35.879        -447.459  
  22444489.403                          35.490        1428.511  
  20442842.615                          35.609       -1289.675  
  20430817.040                          34.157         242.354  
  22436644.734                          25.049       -1890.466  
  22710182.868                          27.435       -1704.245  
  22226480.927                          29.871       -1798.253  
  21655712.662                          27.407        -414.222  
  20916843.271                          33.404        1386.814  
  22555882.088                          30.336       -3227.256  
  19629871.123                          25.123         557.455  
  21470734.120                          30.213        4267.212  
 19  1 15  9 35 50.0001326  0 12G13G15G17G19G28G30R02R11R12R21R22R23
  20742418.622                          36.334        -447.058  
  22444225.586                          35.587        1428.263  
  20443078.551                          35.788       -1288.908  
  20430772.970                          34.710         241.368  
  22437031.466                          25.470       -1890.431  
  22710513.539                          27.768       -1704.538  
  22226814.896                          30.339       -1799.260  
  21655823.286                          28.221        -414.772  
  20916595.043                          33.442        1387.310  
  22556485.570                          29.787       -3226.849  
  19629761.099                          24.319         555.142  
  21469927.678                          29.859        4266.792  
 19  1 15  9 35 51.0001326  0 12G13G15G17G19G28G30R02R11R12R21R22R23
  20742512.457                          36.624        -448.409  
  22443959.970                          36.113        1429.315  
  20443334.274                          35.479       -1287.642  
  20430731.899                          34.942         241.809  
  22437387.920                          25.122       -1891.350  
  22710850.805                          27.707       -1704.703  
  22227135.674                          30.078       -1800.282  
  21655908.127                          27.717        -414.639  
  20916327.328                          33.578        1389.404  
  22557111.537                          29.467       -3227.086  
  19629664.866                          25.050         555.187  
  21469116.440                          29.678        4266.305  
 19  1 15  9 35 52.0001326  0 12G13G15G17G19G28G30R02R11R12R21R22R23
  20742589.804                          36.222        -449.778  
  22443683.861                          36.189        1427.460  
