% program   : RTKPOST ver.2.4.2
% inp file  : D:\Google Drive\UERJ\_Projeto Final\Python\tcc-guilherme\20190211_Sta91500.19o
% inp file  : D:\Google Drive\UERJ\_Projeto Final\20190211_Marco91500 IBGE\riod0421.19o
% inp file  : D:\Google Drive\UERJ\_Projeto Final\20190211_Marco91500 IBGE\brdm0420.19p
% obs start : 2019/02/11 08:56:22.0 GPST (week2040 118582.0s)
% obs end   : 2019/02/11 10:26:05.0 GPST (week2040 123965.0s)
% pos mode  : dgps
% freqs     : L1
% solution  : forward
% elev mask : 15.0 deg
% dynamics  : off
% tidecorr  : off
% ionos opt : broadcast
% tropo opt : saastamoinen
% ephemeris : broadcast
% navi sys  : gps glonass galileo
% antenna1  :                       ( 0.0000  0.0000  0.0000)
% antenna2  :                       ( 0.0000  0.0000  0.0080)
% ref pos   :  4280294.8840  -4034431.2298  -2458141.3831
%
% (x/y/z-ecef=WGS84,Q=1:fix,2:float,3:sbas,4:dgps,5:single,6:ppp,ns=# of satellites)
%  GPST                      x-ecef(m)      y-ecef(m)      z-ecef(m)   Q  ns   sdx(m)   sdy(m)   sdz(m)  sdxy(m)  sdyz(m)  sdzx(m) age(s)  ratio
2019/02/11 08:56:35.000   4280222.4312  -4034414.8688  -2458255.1448   5  12  30.0000  30.0000  30.0000   0.0000   0.0000   0.0000   5.00    0.0
2019/02/11 08:56:42.000   4280228.4380  -4034422.7982  -2458258.1525   5  12  30.0000  30.0000  30.0000   0.0000   0.0000   0.0000  12.00    0.0
2019/02/11 08:56:43.000   4280230.1957  -4034418.4820  -2458263.2090   5  12  30.0000  30.0000  30.0000   0.0000   0.0000   0.0000  13.00    0.0
2019/02/11 08:56:51.000   4280219.0571  -4034411.7614  -2458251.7149   5  12  30.0000  30.0000  30.0000   0.0000   0.0000   0.0000   6.00    0.0
2019/02/11 08:56:56.000   4280220.4834  -4034414.1517  -2458255.9082   5  12  30.0000  30.0000  30.0000   0.0000   0.0000   0.0000  11.00    0.0
2019/02/11 08:56:57.000   4280219.2996  -4034406.6284  -2458263.5104   5  12  30.0000  30.0000  30.0000   0.0000   0.0000   0.0000  12.00    0.0
2019/02/11 08:57:00.000   4280218.1740  -4034422.0746  -2458265.2097   5  12  30.0000  30.0000  30.0000   0.0000   0.0000   0.0000  -0.00    0.0
2019/02/11 08:57:02.000   4280231.1841  -4034423.2408  -2458270.2990   5  12  30.0000  30.0000  30.0000   0.0000   0.0000   0.0000   2.00    0.0
2019/02/11 08:57:03.000   4280226.7612  -4034423.9229  -2458269.5614   5  12  30.0000  30.0000  30.0000   0.0000   0.0000   0.0000   3.00    0.0
2019/02/11 08:57:05.000   4280211.6891  -4034407.7133  -2458265.0185   5  12  30.0000  30.0000  30.0000   0.0000   0.0000   0.0000   5.00    0.0
2019/02/11 08:57:17.000   4280214.3517  -4034399.6756  -2458263.3535   5  12  30.0000  30.0000  30.0000   0.0000   0.0000   0.0000   2.00    0.0
2019/02/11 08:57:20.000   4280234.3222  -4034413.7926  -2458268.2024   5  12  30.0000  30.0000  30.0000   0.0000   0.0000   0.0000   5.00    0.0
2019/02/11 08:57:22.000   4280207.9116  -4034395.6265  -2458258.9612   5  12  30.0000  30.0000  30.0000   0.0000   0.0000   0.0000   7.00    0.0
2019/02/11 08:57:26.000   4280211.7861  -4034392.3315  -2458259.5119   5  12  30.0000  30.0000  30.0000   0.0000   0.0000   0.0000  11.00    0.0
2019/02/11 08:57:27.000   4280219.6350  -4034397.6275  -2458255.1300   5  12  30.0000  30.0000  30.0000   0.0000   0.0000   0.0000  12.00    0.0
2019/02/11 08:57:30.000   4280223.2447  -4034412.8930  -2458273.3194   5  11  30.0000  30.0000  30.0000   0.0000   0.0000   0.0000  -0.00    0.0
2019/02/11 08:57:36.000   4280222.5544  -4034410.3599  -2458272.2348   5  11  30.0000  30.0000  30.0000   0.0000   0.0000   0.0000   6.00    0.0
2019/02/11 08:57:37.000   4280211.3203  -4034401.2520  -2458267.1634   5  11  30.0000  30.0000  30.0000   0.0000   0.0000   0.0000   7.00    0.0
2019/02/11 08:57:42.000   4280231.1675  -4034430.2560  -2458273.9849   5  11  30.0000  30.0000  30.0000   0.0000   0.0000   0.0000  12.00    0.0
2019/02/11 08:57:43.000   4280222.8395  -4034422.8725  -2458276.6375   5  11  30.0000  30.0000  30.0000   0.0000   0.0000   0.0000  13.00    0.0
2019/02/11 08:57:47.000   4280233.2824  -4034434.6899  -2458276.2318   5  11  30.0000  30.0000  30.0000   0.0000   0.0000   0.0000   2.00    0.0
2019/02/11 08:57:52.000   4280214.2801  -4034423.5366  -2458264.1965   5  11  30.0000  30.0000  30.0000   0.0000   0.0000   0.0000   7.00    0.0
2019/02/11 08:57:54.000   4280219.4911  -4034425.7080  -2458275.8991   5  11  30.0000  30.0000  30.0000   0.0000   0.0000   0.0000   9.00    0.0
2019/02/11 08:57:55.000   4280196.1199  -4034400.3712  -2458253.1632   5  11  30.0000  30.0000  30.0000   0.0000   0.0000   0.0000  10.00    0.0
2019/02/11 08:57:56.000   4280222.1350  -4034428.9090  -2458271.1224   5  12  30.0000  30.0000  30.0000   0.0000   0.0000   0.0000  11.00    0.0
2019/02/11 08:58:04.000   4280228.6109  -4034427.7050  -2458267.8720   5  11  30.0000  30.0000  30.0000   0.0000   0.0000   0.0000   4.00    0.0
2019/02/11 08:58:25.000   4280205.6428  -4034403.0811  -2458255.8779   5  11  30.0000  30.0000  30.0000   0.0000   0.0000   0.0000  10.00    0.0
2019/02/11 08:58:27.000   4280240.5733  -4034437.1644  -2458279.5526   5  11  30.0000  30.0000  30.0000   0.0000   0.0000   0.0000  12.00    0.0
2019/02/11 08:58:36.000   4280213.1742  -4034425.9556  -2458279.3878   5  11  30.0000  30.0000  30.0000   0.0000   0.0000   0.0000   6.00    0.0
2019/02/11 08:58:41.000   4280206.4402  -4034408.3775  -2458265.6759   5  12  30.0000  30.0000  30.0000   0.0000   0.0000   0.0000  11.00    0.0
2019/02/11 08:58:46.000   4280220.8100  -4034428.0926  -2458284.5142   5  12  30.0000  30.0000  30.0000   0.0000   0.0000   0.0000   1.00    0.0
2019/02/11 08:58:57.000   4280223.3278  -4034418.7783  -2458264.9516   5  11  30.0000  30.0000  30.0000   0.0000   0.0000   0.0000  12.00    0.0
2019/02/11 08:59:01.000   4280226.4248  -4034425.5127  -2458265.1715   5  11  30.0000  30.0000  30.0000   0.0000   0.0000   0.0000   1.00    0.0
2019/02/11 08:59:02.000   4280218.0311  -4034407.8209  -2458252.6444   5  11  30.0000  30.0000  30.0000   0.0000   0.0000   0.0000   2.00    0.0
2019/02/11 08:59:09.000   4280229.5531  -4034431.3282  -2458268.3814   5  11  30.0000  30.0000  30.0000   0.0000   0.0000   0.0000   9.00    0.0
2019/02/11 08:59:11.000   4280217.4921  -4034411.7079  -2458259.2954   5  11  30.0000  30.0000  30.0000   0.0000   0.0000   0.0000  11.00    0.0
2019/02/11 08:59:17.000   4280221.0145  -4034423.9124  -2458261.7357   5  11  30.0000  30.0000  30.0000   0.0000   0.0000   0.0000   2.00    0.0
2019/02/11 08:59:18.000   4280221.8642  -4034421.2638  -2458265.2175   5  11  30.0000  30.0000  30.0000   0.0000   0.0000   0.0000   3.00    0.0
2019/02/11 08:59:19.000   4280227.7305  -4034436.5857  -2458277.4568   5  11  30.0000  30.0000  30.0000   0.0000   0.0000   0.0000   4.00    0.0
2019/02/11 08:59:22.000   4280216.9042  -4034413.5478  -2458260.2880   5  11  30.0000  30.0000  30.0000   0.0000   0.0000   0.0000   7.00    0.0
2019/02/11 08:59:23.000   4280212.0203  -4034410.3933  -2458258.1586   5  11  30.0000  30.0000  30.0000   0.0000   0.0000   0.0000   8.00    0.0
2019/02/11 08:59:28.000   4280218.7936  -4034410.7392  -2458254.2947   5  11  30.0000  30.0000  30.0000   0.0000   0.0000   0.0000  13.00    0.0
2019/02/11 08:59:32.000   4280215.7761  -4034403.2331  -2458249.5048   5  11  30.0000  30.0000  30.0000   0.0000   0.0000   0.0000   2.00    0.0
2019/02/11 08:59:34.000   4280220.1093  -4034419.1259  -2458264.8677   5  11  30.0000  30.0000  30.0000   0.0000   0.0000   0.0000   4.00    0.0
2019/02/11 08:59:35.000   4280216.4426  -4034404.9608  -2458250.9308   5  11  30.0000  30.0000  30.0000   0.0000   0.0000   0.0000   5.00    0.0
2019/02/11 08:59:39.000   4280223.7104  -4034413.7972  -2458259.8725   5  11  30.0000  30.0000  30.0000   0.0000   0.0000   0.0000   9.00    0.0
2019/02/11 08:59:44.000   4280207.6162  -4034421.0212  -2458264.7312   5  11  30.0000  30.0000  30.0000   0.0000   0.0000   0.0000  14.00    0.0
2019/02/11 08:59:47.000   4280216.7177  -4034420.4345  -2458274.7490   5  11  30.0000  30.0000  30.0000   0.0000   0.0000   0.0000   2.00    0.0
2019/02/11 08:59:48.000   4280224.0229  -4034432.9773  -2458276.5688   5  11  30.0000  30.0000  30.0000   0.0000   0.0000   0.0000   3.00    0.0
2019/02/11 08:59:52.000   4280220.2769  -4034407.6115  -2458261.4733   5  11  30.0000  30.0000  30.0000   0.0000   0.0000   0.0000   7.00    0.0
2019/02/11 08:59:55.000   4280224.3306  -4034426.0439  -2458273.8502   5  11  30.0000  30.0000  30.0000   0.0000   0.0000   0.0000  10.00    0.0
2019/02/11 08:59:57.000   4280211.3510  -4034402.2528  -2458260.5677   5  11  30.0000  30.0000  30.0000   0.0000   0.0000   0.0000  12.00    0.0
2019/02/11 08:59:58.000   4280214.4833  -4034408.5769  -2458259.3872   5  11  30.0000  30.0000  30.0000   0.0000   0.0000   0.0000  13.00    0.0
2019/02/11 09:00:00.000   4280219.3196  -4034404.4591  -2458266.4782   5  11  30.0000  30.0000  30.0000   0.0000   0.0000   0.0000  -0.00    0.0
2019/02/11 09:00:01.000   4280217.8724  -4034403.2967  -2458271.9339   5  11  30.0000  30.0000  30.0000   0.0000   0.0000   0.0000   1.00    0.0
2019/02/11 09:00:09.000   4280237.6421  -4034424.9429  -2458282.0014   5  11  30.0000  30.0000  30.0000   0.0000   0.0000   0.0000   9.00    0.0
2019/02/11 09:00:12.000   4280236.1475  -4034423.6216  -2458274.3180   5  11  30.0000  30.0000  30.0000   0.0000   0.0000   0.0000  12.00    0.0
2019/02/11 09:00:13.000   4280223.4009  -4034396.9221  -2458260.8315   5  11  30.0000  30.0000  30.0000   0.0000   0.0000   0.0000  13.00    0.0
2019/02/11 09:00:19.000   4280207.5968  -4034393.9862  -2458252.9379   5  11  30.0000  30.0000  30.0000   0.0000   0.0000   0.0000   4.00    0.0
2019/02/11 09:00:20.000   4280202.8142  -4034381.4231  -2458243.3847   5  11  30.0000  30.0000  30.0000   0.0000   0.0000   0.0000   5.00    0.0
2019/02/11 09:00:21.000   4280214.9405  -4034398.3534  -2458261.5481   5  11  30.0000  30.0000  30.0000   0.0000   0.0000   0.0000   6.00    0.0
2019/02/11 09:00:23.000   4280204.9278  -4034393.8546  -2458260.7576   5  11  30.0000  30.0000  30.0000   0.0000   0.0000   0.0000   8.00    0.0
2019/02/11 09:00:25.000   4280214.1554  -4034402.5701  -2458250.5020   5  11  30.0000  30.0000  30.0000   0.0000   0.0000   0.0000  10.00    0.0
2019/02/11 09:00:26.000   4280206.4447  -4034387.4789  -2458251.1409   5  11  30.0000  30.0000  30.0000   0.0000   0.0000   0.0000  11.00    0.0
2019/02/11 09:00:27.000   4280211.2791  -4034394.5583  -2458260.9841   5  11  30.0000  30.0000  30.0000   0.0000   0.0000   0.0000  12.00    0.0
2019/02/11 09:00:28.000   4280200.2239  -4034393.5282  -2458247.4940   5  11  30.0000  30.0000  30.0000   0.0000   0.0000   0.0000  13.00    0.0
2019/02/11 09:00:30.000   4280194.7806  -4034384.2627  -2458239.9228   5  11  30.0000  30.0000  30.0000   0.0000   0.0000   0.0000  -0.00    0.0
2019/02/11 09:00:37.000   4280204.4538  -4034412.1982  -2458263.9923   5  11  30.0000  30.0000  30.0000   0.0000   0.0000   0.0000   7.00    0.0
2019/02/11 09:00:41.000   4280235.2063  -4034426.9362  -2458271.2775   5  11  30.0000  30.0000  30.0000   0.0000   0.0000   0.0000  11.00    0.0
2019/02/11 09:00:42.000   4280238.1626  -4034442.3700  -2458278.0802   5  11  30.0000  30.0000  30.0000   0.0000   0.0000   0.0000  12.00    0.0
2019/02/11 09:00:43.000   4280212.1200  -4034406.9736  -2458270.5623   5  11  30.0000  30.0000  30.0000   0.0000   0.0000   0.0000  13.00    0.0
2019/02/11 09:00:44.000   4280217.8503  -4034425.3740  -2458275.8513   5  11  30.0000  30.0000  30.0000   0.0000   0.0000   0.0000  14.00    0.0
2019/02/11 09:00:45.000   4280230.8290  -4034444.8022  -2458284.0042   5  11  30.0000  30.0000  30.0000   0.0000   0.0000   0.0000  -0.00    0.0
2019/02/11 09:00:46.000   4280226.9977  -4034422.3362  -2458269.1867   5  11  30.0000  30.0000  30.0000   0.0000   0.0000   0.0000   1.00    0.0
2019/02/11 09:00:50.000   4280235.4534  -4034429.2514  -2458267.0678   5  11  30.0000  30.0000  30.0000   0.0000   0.0000   0.0000   5.00    0.0
2019/02/11 09:00:51.000   4280230.3596  -4034420.8994  -2458260.4801   5  11  30.0000  30.0000  30.0000   0.0000   0.0000   0.0000   6.00    0.0
2019/02/11 09:00:53.000   4280226.3699  -4034419.7085  -2458264.4111   5  11  30.0000  30.0000  30.0000   0.0000   0.0000   0.0000   8.00    0.0
2019/02/11 09:00:54.000   4280204.6445  -4034396.9454  -2458247.8826   5  11  30.0000  30.0000  30.0000   0.0000   0.0000   0.0000   9.00    0.0
2019/02/11 09:00:55.000   4280206.3190  -4034399.0438  -2458251.9234   5  11  30.0000  30.0000  30.0000   0.0000   0.0000   0.0000  10.00    0.0
2019/02/11 09:00:56.000   4280230.1614  -4034438.3801  -2458284.6805   5  12  30.0000  30.0000  30.0000   0.0000   0.0000   0.0000  11.00    0.0
2019/02/11 09:00:58.000   4280212.5147  -4034410.9298  -2458263.4312   5  11  30.0000  30.0000  30.0000   0.0000   0.0000   0.0000  13.00    0.0
2019/02/11 09:00:59.000   4280215.1429  -4034415.7783  -2458258.7180   5  11  30.0000  30.0000  30.0000   0.0000   0.0000   0.0000  14.00    0.0
2019/02/11 09:01:06.000   4280209.6929  -4034418.3982  -2458268.5169   5  11  30.0000  30.0000  30.0000   0.0000   0.0000   0.0000   6.00    0.0
2019/02/11 09:01:08.000   4280224.8226  -4034419.8333  -2458266.3108   5  11  30.0000  30.0000  30.0000   0.0000   0.0000   0.0000   8.00    0.0
2019/02/11 09:01:10.000   4280204.0004  -4034395.1685  -2458256.5031   5  11  30.0000  30.0000  30.0000   0.0000   0.0000   0.0000  10.00    0.0
2019/02/11 09:01:12.000   4280218.4759  -4034408.2420  -2458262.7780   5  11  30.0000  30.0000  30.0000   0.0000   0.0000   0.0000  12.00    0.0
2019/02/11 09:01:13.000   4280225.1108  -4034422.6099  -2458270.6546   5  11  30.0000  30.0000  30.0000   0.0000   0.0000   0.0000  13.00    0.0
2019/02/11 09:01:14.000   4280208.7826  -4034402.2388  -2458267.1400   5  11  30.0000  30.0000  30.0000   0.0000   0.0000   0.0000  14.00    0.0
2019/02/11 09:01:16.000   4280241.0252  -4034423.3666  -2458275.0974   5  11  30.0000  30.0000  30.0000   0.0000   0.0000   0.0000   1.00    0.0
2019/02/11 09:01:17.000   4280230.0709  -4034419.9058  -2458274.3480   5  11  30.0000  30.0000  30.0000   0.0000   0.0000   0.0000   2.00    0.0
2019/02/11 09:01:22.000   4280227.1600  -4034414.5221  -2458267.4275   5  11  30.0000  30.0000  30.0000   0.0000   0.0000   0.0000   7.00    0.0
2019/02/11 09:01:24.000   4280236.9756  -4034422.3836  -2458262.6332   5  11  30.0000  30.0000  30.0000   0.0000   0.0000   0.0000   9.00    0.0
2019/02/11 09:01:25.000   4280239.5764  -4034427.4162  -2458269.2780   5  11  30.0000  30.0000  30.0000   0.0000   0.0000   0.0000  10.00    0.0
2019/02/11 09:01:28.000   4280203.6673  -4034403.2864  -2458260.6563   5  11  30.0000  30.0000  30.0000   0.0000   0.0000   0.0000  13.00    0.0
2019/02/11 09:01:31.000   4280215.6982  -4034409.4999  -2458261.8210   5  11  30.0000  30.0000  30.0000   0.0000   0.0000   0.0000   1.00    0.0
2019/02/11 09:01:50.000   4280222.1276  -4034425.2874  -2458272.6391   5  11  30.0000  30.0000  30.0000   0.0000   0.0000   0.0000   5.00    0.0
2019/02/11 09:01:52.000   4280233.0670  -4034425.3586  -2458271.1187   5  11  30.0000  30.0000  30.0000   0.0000   0.0000   0.0000   7.00    0.0
2019/02/11 09:01:53.000   4280233.2313  -4034414.2156  -2458270.1147   5  11  30.0000  30.0000  30.0000   0.0000   0.0000   0.0000   8.00    0.0
2019/02/11 09:01:55.000   4280218.4330  -4034419.5026  -2458269.9974   5  11  30.0000  30.0000  30.0000   0.0000   0.0000   0.0000  10.00    0.0
2019/02/11 09:02:05.000   4280220.5046  -4034395.3252  -2458256.1551   5  12  30.0000  30.0000  30.0000   0.0000   0.0000   0.0000   5.00    0.0
2019/02/11 09:02:10.000   4280223.3853  -4034411.6332  -2458267.5919   5  12  30.0000  30.0000  30.0000   0.0000   0.0000   0.0000  10.00    0.0
2019/02/11 09:02:19.000   4280211.0757  -4034411.2393  -2458261.1953   5  12  30.0000  30.0000  30.0000   0.0000   0.0000   0.0000   4.00    0.0
2019/02/11 09:02:25.000   4280230.6603  -4034429.9999  -2458272.5314   5  12  30.0000  30.0000  30.0000   0.0000   0.0000   0.0000  10.00    0.0
2019/02/11 09:02:31.000   4280217.8327  -4034425.5690  -2458279.1455   5  12  30.0000  30.0000  30.0000   0.0000   0.0000   0.0000   1.00    0.0
2019/02/11 09:02:41.000   4280231.9748  -4034433.5688  -2458266.1623   5  11  30.0000  30.0000  30.0000   0.0000   0.0000   0.0000  11.00    0.0
2019/02/11 09:02:47.000   4280238.3686  -4034423.6154  -2458264.7325   5  12  30.0000  30.0000  30.0000   0.0000   0.0000   0.0000   2.00    0.0
2019/02/11 09:02:54.000   4280222.3093  -4034430.3125  -2458275.5579   5  12  30.0000  30.0000  30.0000   0.0000   0.0000   0.0000   9.00    0.0
2019/02/11 09:02:57.000   4280210.3708  -4034396.2321  -2458263.1424   5  12  30.0000  30.0000  30.0000   0.0000   0.0000   0.0000  12.00    0.0
2019/02/11 09:03:06.000   4280199.8993  -4034370.2177  -2458250.0257   5  12  30.0000  30.0000  30.0000   0.0000   0.0000   0.0000   6.00    0.0
2019/02/11 09:03:09.000   4280194.0454  -4034365.2545  -2458247.1867   5  12  30.0000  30.0000  30.0000   0.0000   0.0000   0.0000   9.00    0.0
2019/02/11 09:03:38.000   4280223.4445  -4034435.5876  -2458272.6117   5  12  30.0000  30.0000  30.0000   0.0000   0.0000   0.0000   8.00    0.0
2019/02/11 09:03:40.000   4280207.2705  -4034411.2674  -2458262.3996   5  12  30.0000  30.0000  30.0000   0.0000   0.0000   0.0000  10.00    0.0
2019/02/11 09:03:46.000   4280232.2396  -4034430.4327  -2458274.8469   5  12  30.0000  30.0000  30.0000   0.0000   0.0000   0.0000   1.00    0.0
2019/02/11 09:03:52.000   4280215.8688  -4034413.8245  -2458273.7205   5  12  30.0000  30.0000  30.0000   0.0000   0.0000   0.0000   7.00    0.0
2019/02/11 09:03:53.000   4280246.0443  -4034451.0027  -2458287.7850   5  12  30.0000  30.0000  30.0000   0.0000   0.0000   0.0000   8.00    0.0
2019/02/11 09:03:56.000   4280229.6243  -4034416.0818  -2458268.7457   5  12  30.0000  30.0000  30.0000   0.0000   0.0000   0.0000  11.00    0.0
2019/02/11 09:03:59.000   4280211.8877  -4034408.2863  -2458254.9836   5  12  30.0000  30.0000  30.0000   0.0000   0.0000   0.0000  14.00    0.0
2019/02/11 09:04:04.000   4280224.7956  -4034403.9842  -2458263.8504   5  12  30.0000  30.0000  30.0000   0.0000   0.0000   0.0000   4.00    0.0
2019/02/11 09:04:08.000   4280236.8361  -4034411.8557  -2458259.8740   5  11  30.0000  30.0000  30.0000   0.0000   0.0000   0.0000   8.00    0.0
2019/02/11 09:04:09.000   4280239.1829  -4034418.1548  -2458266.5767   5  11  30.0000  30.0000  30.0000   0.0000   0.0000   0.0000   9.00    0.0
2019/02/11 09:04:10.000   4280226.7666  -4034420.9913  -2458270.1439   5  11  30.0000  30.0000  30.0000   0.0000   0.0000   0.0000  10.00    0.0
2019/02/11 09:04:19.000   4280209.2478  -4034389.3380  -2458252.4339   5  12  30.0000  30.0000  30.0000   0.0000   0.0000   0.0000   4.00    0.0
2019/02/11 09:04:22.000   4280211.0222  -4034406.8112  -2458259.0205   5  12  30.0000  30.0000  30.0000   0.0000   0.0000   0.0000   7.00    0.0
2019/02/11 09:04:23.000   4280205.0881  -4034401.9964  -2458263.6579   5  12  30.0000  30.0000  30.0000   0.0000   0.0000   0.0000   8.00    0.0
2019/02/11 09:04:29.000   4280188.9382  -4034377.2343  -2458244.2772   5  12  30.0000  30.0000  30.0000   0.0000   0.0000   0.0000  14.00    0.0
2019/02/11 09:04:36.000   4280204.1628  -4034398.9743  -2458254.5926   5  12  30.0000  30.0000  30.0000   0.0000   0.0000   0.0000   6.00    0.0
2019/02/11 09:04:39.000   4280218.2669  -4034407.2439  -2458261.3285   5  12  30.0000  30.0000  30.0000   0.0000   0.0000   0.0000   9.00    0.0
2019/02/11 09:04:50.000   4280223.7304  -4034402.4786  -2458265.5743   5  12  30.0000  30.0000  30.0000   0.0000   0.0000   0.0000   5.00    0.0
2019/02/11 09:05:00.000   4280222.9785  -4034409.0177  -2458276.8120   5  12  30.0000  30.0000  30.0000   0.0000   0.0000   0.0000  -0.00    0.0
2019/02/11 09:05:10.000   4280224.1736  -4034417.5876  -2458265.6011   5  12  30.0000  30.0000  30.0000   0.0000   0.0000   0.0000  10.00    0.0
2019/02/11 09:05:16.000   4280230.3601  -4034427.2151  -2458268.4161   5  12  30.0000  30.0000  30.0000   0.0000   0.0000   0.0000   1.00    0.0
2019/02/11 09:05:44.000   4280230.1787  -4034429.0235  -2458266.5388   5  12  30.0000  30.0000  30.0000   0.0000   0.0000   0.0000  14.00    0.0
2019/02/11 09:05:46.000   4280211.0573  -4034398.7065  -2458259.2637   5  12  30.0000  30.0000  30.0000   0.0000   0.0000   0.0000   1.00    0.0
2019/02/11 09:05:53.000   4280225.6532  -4034428.1859  -2458266.9057   5  12  30.0000  30.0000  30.0000   0.0000   0.0000   0.0000   8.00    0.0
2019/02/11 09:06:06.000   4280217.4245  -4034408.9155  -2458260.7628   5  12  30.0000  30.0000  30.0000   0.0000   0.0000   0.0000   6.00    0.0
2019/02/11 09:06:12.000   4280221.6324  -4034418.4970  -2458272.8683   5  12  30.0000  30.0000  30.0000   0.0000   0.0000   0.0000  12.00    0.0
2019/02/11 09:06:18.000   4280248.3663  -4034443.2113  -2458276.0646   5  12  30.0000  30.0000  30.0000   0.0000   0.0000   0.0000   3.00    0.0
2019/02/11 09:06:20.000   4280212.6632  -4034400.0940  -2458266.5447   5  12  30.0000  30.0000  30.0000   0.0000   0.0000   0.0000   5.00    0.0
2019/02/11 09:06:21.000   4280229.1632  -4034424.9739  -2458264.4686   5  12  30.0000  30.0000  30.0000   0.0000   0.0000   0.0000   6.00    0.0
2019/02/11 09:06:42.000   4280217.2427  -4034423.6477  -2458272.5064   5  11  30.0000  30.0000  30.0000   0.0000   0.0000   0.0000  12.00    0.0
2019/02/11 09:06:43.000   4280208.2039  -4034411.2468  -2458259.0799   5  11  30.0000  30.0000  30.0000   0.0000   0.0000   0.0000  13.00    0.0
2019/02/11 09:06:44.000   4280212.9781  -4034411.2853  -2458261.1977   5  11  30.0000  30.0000  30.0000   0.0000   0.0000   0.0000  14.00    0.0
2019/02/11 09:06:50.000   4280203.4433  -4034390.2516  -2458258.7194   5  11  30.0000  30.0000  30.0000   0.0000   0.0000   0.0000   5.00    0.0
2019/02/11 09:06:52.000   4280219.4397  -4034411.7667  -2458259.1536   5  11  30.0000  30.0000  30.0000   0.0000   0.0000   0.0000   7.00    0.0
2019/02/11 09:06:55.000   4280213.8072  -4034398.0071  -2458253.8738   5  12  30.0000  30.0000  30.0000   0.0000   0.0000   0.0000  10.00    0.0
2019/02/11 09:06:57.000   4280192.4052  -4034378.4374  -2458254.4194   5  11  30.0000  30.0000  30.0000   0.0000   0.0000   0.0000  12.00    0.0
2019/02/11 09:06:58.000   4280208.7220  -4034408.8787  -2458264.5467   5  11  30.0000  30.0000  30.0000   0.0000   0.0000   0.0000  13.00    0.0
2019/02/11 09:07:01.000   4280204.4373  -4034383.6169  -2458243.2332   5  11  30.0000  30.0000  30.0000   0.0000   0.0000   0.0000   1.00    0.0
2019/02/11 09:07:04.000   4280219.9943  -4034414.6308  -2458273.1303   5  11  30.0000  30.0000  30.0000   0.0000   0.0000   0.0000   4.00    0.0
2019/02/11 09:07:08.000   4280210.6973  -4034403.4735  -2458259.0258   5  11  30.0000  30.0000  30.0000   0.0000   0.0000   0.0000   8.00    0.0
2019/02/11 09:07:16.000   4280213.7976  -4034414.9264  -2458268.1114   5  11  30.0000  30.0000  30.0000   0.0000   0.0000   0.0000   1.00    0.0
2019/02/11 09:07:17.000   4280216.5359  -4034413.0706  -2458268.2930   5  11  30.0000  30.0000  30.0000   0.0000   0.0000   0.0000   2.00    0.0
2019/02/11 09:07:22.000   4280235.0051  -4034422.2011  -2458279.0445   5  12  30.0000  30.0000  30.0000   0.0000   0.0000   0.0000   7.00    0.0
2019/02/11 09:07:28.000   4280235.4599  -4034420.1244  -2458266.4655   5  12  30.0000  30.0000  30.0000   0.0000   0.0000   0.0000  13.00    0.0
2019/02/11 09:07:29.000   4280226.5463  -4034420.8071  -2458268.3495   5  12  30.0000  30.0000  30.0000   0.0000   0.0000   0.0000  14.00    0.0
2019/02/11 09:07:31.000   4280236.9284  -4034429.3363  -2458271.5754   5  12  30.0000  30.0000  30.0000   0.0000   0.0000   0.0000   1.00    0.0
2019/02/11 09:08:00.000   4280225.7723  -4034407.6953  -2458266.2427   5  11  30.0000  30.0000  30.0000   0.0000   0.0000   0.0000  -0.00    0.0
2019/02/11 09:08:06.000   4280225.7707  -4034408.9318  -2458256.6156   5  11  30.0000  30.0000  30.0000   0.0000   0.0000   0.0000   6.00    0.0
2019/02/11 09:08:10.000   4280222.1061  -4034408.6613  -2458262.2691   5  11  30.0000  30.0000  30.0000   0.0000   0.0000   0.0000  10.00    0.0
2019/02/11 09:08:11.000   4280218.1963  -4034408.8448  -2458265.7315   5  11  30.0000  30.0000  30.0000   0.0000   0.0000   0.0000  11.00    0.0
2019/02/11 09:08:13.000   4280225.3734  -4034416.0420  -2458269.4835   5  11  30.0000  30.0000  30.0000   0.0000   0.0000   0.0000  13.00    0.0
2019/02/11 09:08:14.000   4280227.0016  -4034423.5635  -2458270.0789   5  11  30.0000  30.0000  30.0000   0.0000   0.0000   0.0000  14.00    0.0
2019/02/11 09:08:15.000   4280214.7958  -4034395.2286  -2458252.6092   5  12  30.0000  30.0000  30.0000   0.0000   0.0000   0.0000  -0.00    0.0
2019/02/11 09:08:27.000   4280229.5181  -4034422.1118  -2458267.6870   5  11  30.0000  30.0000  30.0000   0.0000   0.0000   0.0000  12.00    0.0
2019/02/11 09:08:42.000   4280218.6398  -4034414.4114  -2458266.0761   5  12  30.0000  30.0000  30.0000   0.0000   0.0000   0.0000  12.00    0.0
2019/02/11 09:08:43.000   4280210.5295  -4034418.7549  -2458259.5930   5  12  30.0000  30.0000  30.0000   0.0000   0.0000   0.0000  13.00    0.0
2019/02/11 09:09:29.000   4280200.1569  -4034380.8427  -2458251.1675   5  12  30.0000  30.0000  30.0000   0.0000   0.0000   0.0000  14.00    0.0
2019/02/11 09:09:31.000   4280210.9412  -4034395.3783  -2458270.4164   5  12  30.0000  30.0000  30.0000   0.0000   0.0000   0.0000   1.00    0.0
2019/02/11 09:09:32.000   4280215.4043  -4034400.0642  -2458265.0380   5  12  30.0000  30.0000  30.0000   0.0000   0.0000   0.0000   2.00    0.0
2019/02/11 09:09:33.000   4280208.5134  -4034397.2660  -2458258.1496   5  12  30.0000  30.0000  30.0000   0.0000   0.0000   0.0000   3.00    0.0
2019/02/11 09:09:35.000   4280204.0129  -4034394.2442  -2458263.7613   5  12  30.0000  30.0000  30.0000   0.0000   0.0000   0.0000   5.00    0.0
2019/02/11 09:09:51.000   4280220.7381  -4034417.5241  -2458268.3597   5  11  30.0000  30.0000  30.0000   0.0000   0.0000   0.0000   6.00    0.0
2019/02/11 09:09:55.000   4280227.4798  -4034415.1358  -2458268.7534   5  11  30.0000  30.0000  30.0000   0.0000   0.0000   0.0000  10.00    0.0
2019/02/11 09:09:56.000   4280217.0376  -4034404.8498  -2458257.0307   5  11  30.0000  30.0000  30.0000   0.0000   0.0000   0.0000  11.00    0.0
2019/02/11 09:09:57.000   4280225.9420  -4034421.5739  -2458266.7712   5  12  30.0000  30.0000  30.0000   0.0000   0.0000   0.0000  12.00    0.0
2019/02/11 09:09:59.000   4280213.3894  -4034411.0050  -2458262.8577   5  11  30.0000  30.0000  30.0000   0.0000   0.0000   0.0000  14.00    0.0
2019/02/11 09:10:11.000   4280225.4723  -4034415.2978  -2458259.7189   5  12  30.0000  30.0000  30.0000   0.0000   0.0000   0.0000  11.00    0.0
2019/02/11 09:10:13.000   4280226.6026  -4034428.0083  -2458279.0438   5  12  30.0000  30.0000  30.0000   0.0000   0.0000   0.0000  13.00    0.0
2019/02/11 09:10:14.000   4280210.7422  -4034397.1841  -2458261.0285   5  12  30.0000  30.0000  30.0000   0.0000   0.0000   0.0000  14.00    0.0
2019/02/11 09:10:24.000   4280220.6247  -4034401.9749  -2458257.7817   5  12  30.0000  30.0000  30.0000   0.0000   0.0000   0.0000   9.00    0.0
2019/02/11 09:10:25.000   4280210.7520  -4034407.8499  -2458258.4549   5  12  30.0000  30.0000  30.0000   0.0000   0.0000   0.0000  10.00    0.0
2019/02/11 09:10:26.000   4280208.8380  -4034393.7224  -2458250.7108   5  12  30.0000  30.0000  30.0000   0.0000   0.0000   0.0000  11.00    0.0
2019/02/11 09:10:27.000   4280227.4803  -4034416.2416  -2458260.2329   5  12  30.0000  30.0000  30.0000   0.0000   0.0000   0.0000  12.00    0.0
2019/02/11 09:10:28.000   4280230.1098  -4034414.4517  -2458270.9208   5  12  30.0000  30.0000  30.0000   0.0000   0.0000   0.0000  13.00    0.0
2019/02/11 09:10:33.000   4280212.1433  -4034412.8652  -2458265.8609   5  11  30.0000  30.0000  30.0000   0.0000   0.0000   0.0000   3.00    0.0
2019/02/11 09:10:35.000   4280226.7702  -4034416.6729  -2458270.3272   5  11  30.0000  30.0000  30.0000   0.0000   0.0000   0.0000   5.00    0.0
2019/02/11 09:10:39.000   4280222.1650  -4034420.3533  -2458267.3442   5  12  30.0000  30.0000  30.0000   0.0000   0.0000   0.0000   9.00    0.0
2019/02/11 09:10:40.000   4280223.5042  -4034412.0818  -2458268.6033   5  12  30.0000  30.0000  30.0000   0.0000   0.0000   0.0000  10.00    0.0
2019/02/11 09:11:11.000   4280221.4018  -4034408.7388  -2458260.4072   5  12  30.0000  30.0000  30.0000   0.0000   0.0000   0.0000  11.00    0.0
2019/02/11 09:11:16.000   4280211.0497  -4034408.3167  -2458257.9937   5  11  30.0000  30.0000  30.0000   0.0000   0.0000   0.0000   1.00    0.0
2019/02/11 09:11:21.000   4280201.4097  -4034395.2255  -2458256.1374   5  12  30.0000  30.0000  30.0000   0.0000   0.0000   0.0000   6.00    0.0
2019/02/11 09:11:24.000   4280223.9142  -4034407.4727  -2458262.6003   5  12  30.0000  30.0000  30.0000   0.0000   0.0000   0.0000   9.00    0.0
2019/02/11 09:11:28.000   4280215.4407  -4034390.6749  -2458255.2314   5  12  30.0000  30.0000  30.0000   0.0000   0.0000   0.0000  13.00    0.0
2019/02/11 09:11:40.000   4280211.7312  -4034413.7464  -2458260.2673   5  12  30.0000  30.0000  30.0000   0.0000   0.0000   0.0000  10.00    0.0
2019/02/11 09:11:44.000   4280246.2746  -4034425.9839  -2458271.1957   5  12  30.0000  30.0000  30.0000   0.0000   0.0000   0.0000  14.00    0.0
2019/02/11 09:11:45.000   4280237.2758  -4034424.8645  -2458266.4758   5  12  30.0000  30.0000  30.0000   0.0000   0.0000   0.0000  -0.00    0.0
2019/02/11 09:11:50.000   4280216.7570  -4034425.2279  -2458276.8462   5  11  30.0000  30.0000  30.0000   0.0000   0.0000   0.0000   5.00    0.0
2019/02/11 09:11:52.000   4280195.4235  -4034406.9263  -2458258.8858   5  12  30.0000  30.0000  30.0000   0.0000   0.0000   0.0000   7.00    0.0
2019/02/11 09:11:53.000   4280201.6543  -4034395.0233  -2458260.2268   5  12  30.0000  30.0000  30.0000   0.0000   0.0000   0.0000   8.00    0.0
2019/02/11 09:11:54.000   4280212.4252  -4034416.2982  -2458263.9334   5  11  30.0000  30.0000  30.0000   0.0000   0.0000   0.0000   9.00    0.0
2019/02/11 09:11:56.000   4280216.4644  -4034420.0467  -2458268.0582   5  11  30.0000  30.0000  30.0000   0.0000   0.0000   0.0000  11.00    0.0
2019/02/11 09:11:57.000   4280205.4821  -4034411.3233  -2458257.3697   5  11  30.0000  30.0000  30.0000   0.0000   0.0000   0.0000  12.00    0.0
2019/02/11 09:11:58.000   4280218.3070  -4034408.7307  -2458264.8035   5  11  30.0000  30.0000  30.0000   0.0000   0.0000   0.0000  13.00    0.0
2019/02/11 09:12:00.000   4280214.6407  -4034415.9959  -2458261.2486   5  12  30.0000  30.0000  30.0000   0.0000   0.0000   0.0000  -0.00    0.0
2019/02/11 09:12:29.000   4280235.0304  -4034410.0537  -2458266.4184   5  12  30.0000  30.0000  30.0000   0.0000   0.0000   0.0000  14.00    0.0
2019/02/11 09:12:54.000   4280222.7562  -4034434.1701  -2458270.4181   5  12  30.0000  30.0000  30.0000   0.0000   0.0000   0.0000   9.00    0.0
2019/02/11 09:12:59.000   4280227.9296  -4034431.6984  -2458267.1320   5  12  30.0000  30.0000  30.0000   0.0000   0.0000   0.0000  14.00    0.0
2019/02/11 09:13:04.000   4280245.6843  -4034443.0932  -2458278.1612   5  11  30.0000  30.0000  30.0000   0.0000   0.0000   0.0000   4.00    0.0
2019/02/11 09:13:05.000   4280233.2687  -4034419.2974  -2458263.6617   5  11  30.0000  30.0000  30.0000   0.0000   0.0000   0.0000   5.00    0.0
2019/02/11 09:13:08.000   4280244.1516  -4034441.9916  -2458281.6465   5  11  30.0000  30.0000  30.0000   0.0000   0.0000   0.0000   8.00    0.0
2019/02/11 09:13:12.000   4280232.2600  -4034418.0482  -2458263.8180   5  12  30.0000  30.0000  30.0000   0.0000   0.0000   0.0000  12.00    0.0
2019/02/11 09:13:13.000   4280212.8266  -4034411.5500  -2458259.4219   5  12  30.0000  30.0000  30.0000   0.0000   0.0000   0.0000  13.00    0.0
2019/02/11 09:13:32.000   4280207.9159  -4034400.4543  -2458254.2205   5  12  30.0000  30.0000  30.0000   0.0000   0.0000   0.0000   2.00    0.0
2019/02/11 09:13:34.000   4280219.1987  -4034413.6844  -2458260.9541   5  12  30.0000  30.0000  30.0000   0.0000   0.0000   0.0000   4.00    0.0
2019/02/11 09:13:35.000   4280215.2944  -4034412.2628  -2458257.5081   5  12  30.0000  30.0000  30.0000   0.0000   0.0000   0.0000   5.00    0.0
2019/02/11 09:13:38.000   4280208.0088  -4034400.7081  -2458255.4261   5  12  30.0000  30.0000  30.0000   0.0000   0.0000   0.0000   8.00    0.0
2019/02/11 09:14:03.000   4280223.8929  -4034427.2692  -2458268.1830   5  12  30.0000  30.0000  30.0000   0.0000   0.0000   0.0000   3.00    0.0
2019/02/11 09:14:06.000   4280224.6707  -4034420.0658  -2458265.5612   5  12  30.0000  30.0000  30.0000   0.0000   0.0000   0.0000   6.00    0.0
2019/02/11 09:14:12.000   4280218.9524  -4034411.8565  -2458259.2314   5  12  30.0000  30.0000  30.0000   0.0000   0.0000   0.0000  12.00    0.0
2019/02/11 09:14:20.000   4280217.5522  -4034410.4666  -2458257.8974   5  12  30.0000  30.0000  30.0000   0.0000   0.0000   0.0000   5.00    0.0
2019/02/11 09:14:21.000   4280233.1980  -4034436.6475  -2458269.6454   5  12  30.0000  30.0000  30.0000   0.0000   0.0000   0.0000   6.00    0.0
2019/02/11 09:14:31.000   4280217.8139  -4034424.6628  -2458266.8754   5  11  30.0000  30.0000  30.0000   0.0000   0.0000   0.0000   1.00    0.0
2019/02/11 09:14:41.000   4280207.3536  -4034402.3445  -2458253.9242   5  12  30.0000  30.0000  30.0000   0.0000   0.0000   0.0000  11.00    0.0
2019/02/11 09:14:51.000   4280231.1342  -4034438.2018  -2458279.6765   5  12  30.0000  30.0000  30.0000   0.0000   0.0000   0.0000   6.00    0.0
2019/02/11 09:15:21.000   4280214.4655  -4034401.8537  -2458257.9566   5  12  30.0000  30.0000  30.0000   0.0000   0.0000   0.0000   6.00    0.0
2019/02/11 09:15:22.000   4280207.0434  -4034398.7721  -2458251.1664   5  12  30.0000  30.0000  30.0000   0.0000   0.0000   0.0000   7.00    0.0
2019/02/11 09:15:25.000   4280212.2029  -4034421.5728  -2458265.4553   5  12  30.0000  30.0000  30.0000   0.0000   0.0000   0.0000  10.00    0.0
2019/02/11 09:15:28.000   4280225.7201  -4034418.3177  -2458269.0830   5  12  30.0000  30.0000  30.0000   0.0000   0.0000   0.0000  13.00    0.0
2019/02/11 09:15:30.000   4280219.0861  -4034420.7034  -2458276.1430   5  12  30.0000  30.0000  30.0000   0.0000   0.0000   0.0000  -0.00    0.0
2019/02/11 09:15:38.000   4280221.3045  -4034412.7621  -2458259.2896   5  12  30.0000  30.0000  30.0000   0.0000   0.0000   0.0000   8.00    0.0
2019/02/11 09:15:39.000   4280223.1524  -4034413.7055  -2458266.8645   5  12  30.0000  30.0000  30.0000   0.0000   0.0000   0.0000   9.00    0.0
2019/02/11 09:15:41.000   4280216.5067  -4034411.8259  -2458267.9491   5  12  30.0000  30.0000  30.0000   0.0000   0.0000   0.0000  11.00    0.0
2019/02/11 09:15:46.000   4280217.3627  -4034394.2620  -2458259.9729   5  12  30.0000  30.0000  30.0000   0.0000   0.0000   0.0000   1.00    0.0
2019/02/11 09:15:54.000   4280205.2646  -4034393.2428  -2458259.5240   5  12  30.0000  30.0000  30.0000   0.0000   0.0000   0.0000   9.00    0.0
2019/02/11 09:16:05.000   4280224.0465  -4034424.7198  -2458271.3426   5  12  30.0000  30.0000  30.0000   0.0000   0.0000   0.0000   5.00    0.0
2019/02/11 09:16:13.000   4280223.7406  -4034406.5092  -2458256.2128   5  12  30.0000  30.0000  30.0000   0.0000   0.0000   0.0000  13.00    0.0
2019/02/11 09:16:26.000   4280229.9069  -4034430.3298  -2458273.5905   5  12  30.0000  30.0000  30.0000   0.0000   0.0000   0.0000  11.00    0.0
2019/02/11 09:16:29.000   4280200.6132  -4034394.9264  -2458246.8657   5  12  30.0000  30.0000  30.0000   0.0000   0.0000   0.0000  14.00    0.0
2019/02/11 09:16:32.000   4280214.3087  -4034409.8551  -2458262.2311   5  12  30.0000  30.0000  30.0000   0.0000   0.0000   0.0000   2.00    0.0
2019/02/11 09:16:33.000   4280207.4416  -4034417.5824  -2458265.4721   5  12  30.0000  30.0000  30.0000   0.0000   0.0000   0.0000   3.00    0.0
2019/02/11 09:16:46.000   4280222.2817  -4034416.2267  -2458258.7373   5  12  30.0000  30.0000  30.0000   0.0000   0.0000   0.0000   1.00    0.0
2019/02/11 09:16:47.000   4280216.6945  -4034415.0262  -2458264.9469   5  12  30.0000  30.0000  30.0000   0.0000   0.0000   0.0000   2.00    0.0
2019/02/11 09:17:08.000   4280229.3149  -4034417.4914  -2458269.4262   5  12  30.0000  30.0000  30.0000   0.0000   0.0000   0.0000   8.00    0.0
2019/02/11 09:17:12.000   4280239.6581  -4034433.9683  -2458277.2880   5  12  30.0000  30.0000  30.0000   0.0000   0.0000   0.0000  12.00    0.0
2019/02/11 09:17:14.000   4280236.0837  -4034423.0675  -2458260.5892   5  12  30.0000  30.0000  30.0000   0.0000   0.0000   0.0000  14.00    0.0
2019/02/11 09:17:27.000   4280223.8350  -4034417.2150  -2458270.6141   5  12  30.0000  30.0000  30.0000   0.0000   0.0000   0.0000  12.00    0.0
2019/02/11 09:17:28.000   4280211.2964  -4034405.5369  -2458266.0121   5  12  30.0000  30.0000  30.0000   0.0000   0.0000   0.0000  13.00    0.0
2019/02/11 09:17:38.000   4280229.4332  -4034414.8640  -2458262.8523   5  12  30.0000  30.0000  30.0000   0.0000   0.0000   0.0000   8.00    0.0
2019/02/11 09:17:40.000   4280225.8867  -4034419.3700  -2458263.0816   5  12  30.0000  30.0000  30.0000   0.0000   0.0000   0.0000  10.00    0.0
2019/02/11 09:17:41.000   4280228.3220  -4034412.4628  -2458258.9077   5  12  30.0000  30.0000  30.0000   0.0000   0.0000   0.0000  11.00    0.0
2019/02/11 09:17:44.000   4280199.7614  -4034399.9650  -2458265.2212   5  12  30.0000  30.0000  30.0000   0.0000   0.0000   0.0000  14.00    0.0
2019/02/11 09:17:47.000   4280213.9653  -4034409.9051  -2458269.3562   5  12  30.0000  30.0000  30.0000   0.0000   0.0000   0.0000   2.00    0.0
2019/02/11 09:18:03.000   4280215.7510  -4034402.9658  -2458251.9537   5  12  30.0000  30.0000  30.0000   0.0000   0.0000   0.0000   3.00    0.0
2019/02/11 09:18:05.000   4280211.0239  -4034410.9679  -2458269.8212   5  12  30.0000  30.0000  30.0000   0.0000   0.0000   0.0000   5.00    0.0
2019/02/11 09:18:14.000   4280234.1935  -4034420.5921  -2458262.7159   5  12  30.0000  30.0000  30.0000   0.0000   0.0000   0.0000  14.00    0.0
2019/02/11 09:18:15.000   4280237.2912  -4034425.3215  -2458259.0907   5  12  30.0000  30.0000  30.0000   0.0000   0.0000   0.0000  -0.00    0.0
2019/02/11 09:18:17.000   4280235.9767  -4034438.5291  -2458271.5419   5  12  30.0000  30.0000  30.0000   0.0000   0.0000   0.0000   2.00    0.0
2019/02/11 09:18:22.000   4280227.0035  -4034426.5423  -2458276.8098   5  12  30.0000  30.0000  30.0000   0.0000   0.0000   0.0000   7.00    0.0
2019/02/11 09:18:29.000   4280219.3418  -4034419.8780  -2458278.7014   5  12  30.0000  30.0000  30.0000   0.0000   0.0000   0.0000  14.00    0.0
2019/02/11 09:18:32.000   4280234.3623  -4034431.9962  -2458268.8169   5  12  30.0000  30.0000  30.0000   0.0000   0.0000   0.0000   2.00    0.0
2019/02/11 09:18:34.000   4280229.9707  -4034422.3712  -2458279.1647   5  11  30.0000  30.0000  30.0000   0.0000   0.0000   0.0000   4.00    0.0
2019/02/11 09:18:41.000   4280219.1340  -4034420.5811  -2458273.5229   5  11  30.0000  30.0000  30.0000   0.0000   0.0000   0.0000  11.00    0.0
2019/02/11 09:18:42.000   4280231.2302  -4034437.8145  -2458291.7686   5  11  30.0000  30.0000  30.0000   0.0000   0.0000   0.0000  12.00    0.0
2019/02/11 09:18:49.000   4280207.9608  -4034397.6431  -2458255.3831   5  11  30.0000  30.0000  30.0000   0.0000   0.0000   0.0000   4.00    0.0
2019/02/11 09:18:53.000   4280206.0280  -4034400.4938  -2458257.0103   5  11  30.0000  30.0000  30.0000   0.0000   0.0000   0.0000   8.00    0.0
2019/02/11 09:19:01.000   4280225.9464  -4034389.7860  -2458258.6648   5  12  30.0000  30.0000  30.0000   0.0000   0.0000   0.0000   1.00    0.0
2019/02/11 09:19:08.000   4280206.1028  -4034392.0191  -2458255.5106   5  12  30.0000  30.0000  30.0000   0.0000   0.0000   0.0000   8.00    0.0
2019/02/11 09:19:12.000   4280210.6854  -4034384.6263  -2458249.7737   5  12  30.0000  30.0000  30.0000   0.0000   0.0000   0.0000  12.00    0.0
2019/02/11 09:19:18.000   4280244.7509  -4034419.0506  -2458263.9786   5  11  30.0000  30.0000  30.0000   0.0000   0.0000   0.0000   3.00    0.0
2019/02/11 09:19:19.000   4280227.8010  -4034411.1158  -2458260.7013   5  11  30.0000  30.0000  30.0000   0.0000   0.0000   0.0000   4.00    0.0
2019/02/11 09:19:20.000   4280218.1462  -4034407.8690  -2458253.3386   5  11  30.0000  30.0000  30.0000   0.0000   0.0000   0.0000   5.00    0.0
2019/02/11 09:19:24.000   4280218.0406  -4034419.4828  -2458265.3821   5  11  30.0000  30.0000  30.0000   0.0000   0.0000   0.0000   9.00    0.0
2019/02/11 09:19:32.000   4280228.6726  -4034431.0683  -2458282.7039   5  11  30.0000  30.0000  30.0000   0.0000   0.0000   0.0000   2.00    0.0
2019/02/11 09:19:40.000   4280233.7723  -4034427.3253  -2458279.3133   5  11  30.0000  30.0000  30.0000   0.0000   0.0000   0.0000  10.00    0.0
2019/02/11 09:19:41.000   4280223.2910  -4034422.7005  -2458265.0485   5  11  30.0000  30.0000  30.0000   0.0000   0.0000   0.0000  11.00    0.0
2019/02/11 09:19:44.000   4280235.4992  -4034425.9044  -2458271.3576   5  11  30.0000  30.0000  30.0000   0.0000   0.0000   0.0000  14.00    0.0
2019/02/11 09:19:46.000   4280233.6406  -4034429.1227  -2458274.6568   5  11  30.0000  30.0000  30.0000   0.0000   0.0000   0.0000   1.00    0.0
2019/02/11 09:19:47.000   4280220.8313  -4034413.9636  -2458265.8506   5  11  30.0000  30.0000  30.0000   0.0000   0.0000   0.0000   2.00    0.0
2019/02/11 09:19:55.000   4280223.0474  -4034412.7864  -2458252.5733   5  11  30.0000  30.0000  30.0000   0.0000   0.0000   0.0000  10.00    0.0
2019/02/11 09:19:56.000   4280201.2030  -4034404.4363  -2458233.2842   5  11  30.0000  30.0000  30.0000   0.0000   0.0000   0.0000  11.00    0.0
2019/02/11 09:20:10.000   4280203.1490  -4034386.9685  -2458254.2280   5  12  30.0000  30.0000  30.0000   0.0000   0.0000   0.0000  10.00    0.0
2019/02/11 09:20:16.000   4280200.4302  -4034393.8463  -2458255.9365   5  12  30.0000  30.0000  30.0000   0.0000   0.0000   0.0000   1.00    0.0
2019/02/11 09:20:26.000   4280228.2001  -4034426.8961  -2458268.7587   5  12  30.0000  30.0000  30.0000   0.0000   0.0000   0.0000  11.00    0.0
2019/02/11 09:20:30.000   4280217.7428  -4034416.1879  -2458249.2437   5  12  30.0000  30.0000  30.0000   0.0000   0.0000   0.0000  -0.00    0.0
2019/02/11 09:20:38.000   4280233.3171  -4034431.0946  -2458271.6552   5  12  30.0000  30.0000  30.0000   0.0000   0.0000   0.0000   8.00    0.0
2019/02/11 09:20:39.000   4280237.4015  -4034434.6282  -2458265.6620   5  12  30.0000  30.0000  30.0000   0.0000   0.0000   0.0000   9.00    0.0
2019/02/11 09:20:50.000   4280212.3673  -4034406.5289  -2458261.4978   5  11  30.0000  30.0000  30.0000   0.0000   0.0000   0.0000   5.00    0.0
2019/02/11 09:20:51.000   4280216.9100  -4034420.9145  -2458267.5444   5  11  30.0000  30.0000  30.0000   0.0000   0.0000   0.0000   6.00    0.0
2019/02/11 09:20:52.000   4280210.1357  -4034413.4642  -2458256.0232   5  11  30.0000  30.0000  30.0000   0.0000   0.0000   0.0000   7.00    0.0
2019/02/11 09:20:54.000   4280225.3328  -4034422.2538  -2458275.4104   5  11  30.0000  30.0000  30.0000   0.0000   0.0000   0.0000   9.00    0.0
2019/02/11 09:20:55.000   4280229.8158  -4034411.7894  -2458267.5048   5  12  30.0000  30.0000  30.0000   0.0000   0.0000   0.0000  10.00    0.0
2019/02/11 09:21:10.000   4280216.3669  -4034423.1610  -2458272.6992   5  12  30.0000  30.0000  30.0000   0.0000   0.0000   0.0000  10.00    0.0
2019/02/11 09:21:38.000   4280218.4872  -4034433.6455  -2458265.6687   5  12  30.0000  30.0000  30.0000   0.0000   0.0000   0.0000   8.00    0.0
2019/02/11 09:21:45.000   4280226.4378  -4034425.6834  -2458269.1775   5  11  30.0000  30.0000  30.0000   0.0000   0.0000   0.0000  -0.00    0.0
2019/02/11 09:21:49.000   4280221.9061  -4034440.4613  -2458276.9851   5  11  30.0000  30.0000  30.0000   0.0000   0.0000   0.0000   4.00    0.0
2019/02/11 09:21:54.000   4280221.0704  -4034433.1002  -2458267.3203   5  11  30.0000  30.0000  30.0000   0.0000   0.0000   0.0000   9.00    0.0
2019/02/11 09:21:55.000   4280201.3130  -4034420.9734  -2458267.8231   5  11  30.0000  30.0000  30.0000   0.0000   0.0000   0.0000  10.00    0.0
2019/02/11 09:22:26.000   4280220.2009  -4034396.1748  -2458263.1612   5  12  30.0000  30.0000  30.0000   0.0000   0.0000   0.0000  11.00    0.0
2019/02/11 09:22:27.000   4280221.5718  -4034404.0382  -2458267.1613   5  12  30.0000  30.0000  30.0000   0.0000   0.0000   0.0000  12.00    0.0
2019/02/11 09:22:39.000   4280227.6347  -4034425.5733  -2458262.1569   5  12  30.0000  30.0000  30.0000   0.0000   0.0000   0.0000   9.00    0.0
2019/02/11 09:22:42.000   4280223.2051  -4034424.7260  -2458258.1166   5  12  30.0000  30.0000  30.0000   0.0000   0.0000   0.0000  12.00    0.0
2019/02/11 09:22:46.000   4280217.4411  -4034435.7515  -2458267.8172   5  12  30.0000  30.0000  30.0000   0.0000   0.0000   0.0000   1.00    0.0
2019/02/11 09:22:52.000   4280218.4254  -4034429.5936  -2458269.8307   5  12  30.0000  30.0000  30.0000   0.0000   0.0000   0.0000   7.00    0.0
2019/02/11 09:22:55.000   4280232.1317  -4034423.9010  -2458262.5156   5  12  30.0000  30.0000  30.0000   0.0000   0.0000   0.0000  10.00    0.0
2019/02/11 09:23:04.000   4280237.0256  -4034431.3054  -2458275.8607   5  11  30.0000  30.0000  30.0000   0.0000   0.0000   0.0000   4.00    0.0
2019/02/11 09:23:10.000   4280223.4805  -4034424.3670  -2458275.6403   5  12  30.0000  30.0000  30.0000   0.0000   0.0000   0.0000  10.00    0.0
2019/02/11 09:23:11.000   4280214.1390  -4034411.7353  -2458266.4164   5  12  30.0000  30.0000  30.0000   0.0000   0.0000   0.0000  11.00    0.0
2019/02/11 09:23:52.000   4280213.4972  -4034433.2330  -2458266.1244   5  12  30.0000  30.0000  30.0000   0.0000   0.0000   0.0000   7.00    0.0
2019/02/11 09:23:56.000   4280211.5025  -4034422.7060  -2458261.3514   5  12  30.0000  30.0000  30.0000   0.0000   0.0000   0.0000  11.00    0.0
2019/02/11 09:23:57.000   4280205.3463  -4034428.4022  -2458269.2113   5  12  30.0000  30.0000  30.0000   0.0000   0.0000   0.0000  12.00    0.0
2019/02/11 09:24:03.000   4280229.7037  -4034436.7605  -2458266.9318   5  12  30.0000  30.0000  30.0000   0.0000   0.0000   0.0000   3.00    0.0
2019/02/11 09:24:04.000   4280228.5139  -4034456.2485  -2458270.6907   5  12  30.0000  30.0000  30.0000   0.0000   0.0000   0.0000   4.00    0.0
2019/02/11 09:24:05.000   4280221.8419  -4034440.3622  -2458268.7575   5  12  30.0000  30.0000  30.0000   0.0000   0.0000   0.0000   5.00    0.0
2019/02/11 09:24:09.000   4280242.9887  -4034437.2116  -2458269.1890   5  12  30.0000  30.0000  30.0000   0.0000   0.0000   0.0000   9.00    0.0
2019/02/11 09:24:13.000   4280223.9297  -4034423.9244  -2458267.4318   5  11  30.0000  30.0000  30.0000   0.0000   0.0000   0.0000  13.00    0.0
2019/02/11 09:24:15.000   4280233.8134  -4034426.3889  -2458267.8111   5  11  30.0000  30.0000  30.0000   0.0000   0.0000   0.0000  -0.00    0.0
2019/02/11 09:24:20.000   4280228.8629  -4034426.1225  -2458272.9261   5  11  30.0000  30.0000  30.0000   0.0000   0.0000   0.0000   5.00    0.0
2019/02/11 09:24:21.000   4280213.4597  -4034415.6964  -2458268.1872   5  11  30.0000  30.0000  30.0000   0.0000   0.0000   0.0000   6.00    0.0
2019/02/11 09:24:23.000   4280229.3969  -4034418.7977  -2458262.5931   5  11  30.0000  30.0000  30.0000   0.0000   0.0000   0.0000   8.00    0.0
2019/02/11 09:24:27.000   4280213.5816  -4034404.4237  -2458261.7779   5  11  30.0000  30.0000  30.0000   0.0000   0.0000   0.0000  12.00    0.0
2019/02/11 09:24:31.000   4280197.0717  -4034400.5359  -2458261.0842   5  11  30.0000  30.0000  30.0000   0.0000   0.0000   0.0000   1.00    0.0
2019/02/11 09:24:32.000   4280210.0933  -4034412.8293  -2458261.7307   5  11  30.0000  30.0000  30.0000   0.0000   0.0000   0.0000   2.00    0.0
2019/02/11 09:24:53.000   4280217.4550  -4034406.1343  -2458260.8289   5  12  30.0000  30.0000  30.0000   0.0000   0.0000   0.0000   8.00    0.0
2019/02/11 09:25:00.000   4280205.2100  -4034415.9381  -2458256.8887   5   9  30.0000  30.0000  30.0000   0.0000   0.0000   0.0000  -0.00    0.0
2019/02/11 09:25:02.000   4280214.2363  -4034438.7237  -2458267.7672   5   9  30.0000  30.0000  30.0000   0.0000   0.0000   0.0000   2.00    0.0
2019/02/11 09:25:09.000   4280229.8068  -4034427.3751  -2458273.8703   5  11  30.0000  30.0000  30.0000   0.0000   0.0000   0.0000   9.00    0.0
2019/02/11 09:25:11.000   4280238.8946  -4034450.8489  -2458273.3953   5  11  30.0000  30.0000  30.0000   0.0000   0.0000   0.0000  11.00    0.0
2019/02/11 09:25:15.000   4280229.6317  -4034426.0112  -2458276.3429   5  12  30.0000  30.0000  30.0000   0.0000   0.0000   0.0000  -0.00    0.0
2019/02/11 09:25:16.000   4280226.5142  -4034440.4267  -2458275.8909   5  12  30.0000  30.0000  30.0000   0.0000   0.0000   0.0000   1.00    0.0
2019/02/11 09:25:36.000   4280221.5813  -4034420.1637  -2458263.7341   5  11  30.0000  30.0000  30.0000   0.0000   0.0000   0.0000   6.00    0.0
2019/02/11 09:25:37.000   4280232.0705  -4034432.2272  -2458271.3061   5  11  30.0000  30.0000  30.0000   0.0000   0.0000   0.0000   7.00    0.0
2019/02/11 09:26:18.000   4280217.9848  -4034421.4696  -2458263.0336   5  12  30.0000  30.0000  30.0000   0.0000   0.0000   0.0000   3.00    0.0
2019/02/11 09:26:39.000   4280224.9187  -4034419.4048  -2458263.2058   5  12  30.0000  30.0000  30.0000   0.0000   0.0000   0.0000   9.00    0.0
2019/02/11 09:26:41.000   4280221.5282  -4034429.4725  -2458268.4578   5  12  30.0000  30.0000  30.0000   0.0000   0.0000   0.0000  11.00    0.0
2019/02/11 09:26:44.000   4280225.0501  -4034407.8078  -2458260.2694   5  12  30.0000  30.0000  30.0000   0.0000   0.0000   0.0000  14.00    0.0
2019/02/11 09:27:02.000   4280213.0871  -4034407.3755  -2458270.5365   5  12  30.0000  30.0000  30.0000   0.0000   0.0000   0.0000   2.00    0.0
2019/02/11 09:27:07.000   4280224.3700  -4034400.6152  -2458253.8080   5  12  30.0000  30.0000  30.0000   0.0000   0.0000   0.0000   7.00    0.0
2019/02/11 09:27:15.000   4280226.0779  -4034413.1216  -2458261.1993   5  12  30.0000  30.0000  30.0000   0.0000   0.0000   0.0000  -0.00    0.0
2019/02/11 09:27:18.000   4280227.4235  -4034404.7822  -2458267.7905   5  11  30.0000  30.0000  30.0000   0.0000   0.0000   0.0000   3.00    0.0
2019/02/11 09:27:27.000   4280225.7710  -4034416.3141  -2458275.7301   5  12  30.0000  30.0000  30.0000   0.0000   0.0000   0.0000  12.00    0.0
2019/02/11 09:27:34.000   4280205.7661  -4034418.7465  -2458260.8828   5  12  30.0000  30.0000  30.0000   0.0000   0.0000   0.0000   4.00    0.0
2019/02/11 09:27:41.000   4280223.3062  -4034414.6313  -2458262.9605   5  12  30.0000  30.0000  30.0000   0.0000   0.0000   0.0000  11.00    0.0
2019/02/11 09:27:47.000   4280219.6969  -4034411.6384  -2458259.3535   5  12  30.0000  30.0000  30.0000   0.0000   0.0000   0.0000   2.00    0.0
2019/02/11 09:27:49.000   4280232.0688  -4034416.1851  -2458270.1783   5  12  30.0000  30.0000  30.0000   0.0000   0.0000   0.0000   4.00    0.0
2019/02/11 09:28:03.000   4280215.9109  -4034397.8415  -2458259.8306   5  12  30.0000  30.0000  30.0000   0.0000   0.0000   0.0000   3.00    0.0
2019/02/11 09:28:04.000   4280209.5394  -4034390.3847  -2458255.0528   5  12  30.0000  30.0000  30.0000   0.0000   0.0000   0.0000   4.00    0.0
2019/02/11 09:28:29.000   4280220.1504  -4034421.1217  -2458269.9864   5  12  30.0000  30.0000  30.0000   0.0000   0.0000   0.0000  14.00    0.0
2019/02/11 09:28:38.000   4280226.9589  -4034433.1396  -2458269.3422   5  12  30.0000  30.0000  30.0000   0.0000   0.0000   0.0000   8.00    0.0
2019/02/11 09:28:44.000   4280224.9589  -4034422.6949  -2458271.5958   5  12  30.0000  30.0000  30.0000   0.0000   0.0000   0.0000  14.00    0.0
2019/02/11 09:29:01.000   4280225.7440  -4034416.4147  -2458267.4357   5  12  30.0000  30.0000  30.0000   0.0000   0.0000   0.0000   1.00    0.0
2019/02/11 09:29:03.000   4280233.1709  -4034418.8610  -2458277.9885   5  12  30.0000  30.0000  30.0000   0.0000   0.0000   0.0000   3.00    0.0
2019/02/11 09:29:04.000   4280217.5876  -4034412.4246  -2458267.5785   5  12  30.0000  30.0000  30.0000   0.0000   0.0000   0.0000   4.00    0.0
2019/02/11 09:29:05.000   4280212.2358  -4034406.8064  -2458260.1186   5  12  30.0000  30.0000  30.0000   0.0000   0.0000   0.0000   5.00    0.0
2019/02/11 09:29:13.000   4280212.9810  -4034405.0834  -2458266.1359   5  11  30.0000  30.0000  30.0000   0.0000   0.0000   0.0000  13.00    0.0
2019/02/11 09:29:37.000   4280232.8647  -4034447.3721  -2458276.0852   5  12  30.0000  30.0000  30.0000   0.0000   0.0000   0.0000   7.00    0.0
2019/02/11 09:29:52.000   4280219.6022  -4034439.7783  -2458285.5407   5  11  30.0000  30.0000  30.0000   0.0000   0.0000   0.0000   7.00    0.0
2019/02/11 09:29:53.000   4280223.4250  -4034421.0950  -2458262.6329   5  12  30.0000  30.0000  30.0000   0.0000   0.0000   0.0000   8.00    0.0
2019/02/11 09:29:54.000   4280230.3148  -4034431.9924  -2458270.9828   5  12  30.0000  30.0000  30.0000   0.0000   0.0000   0.0000   9.00    0.0
2019/02/11 09:29:56.000   4280220.6035  -4034427.4204  -2458268.1216   4   9   1.2727   1.2841   1.0122  -0.9960   0.9370  -0.9121  11.00    0.0
2019/02/11 09:29:58.000   4280218.8610  -4034429.2222  -2458267.0381   4  10   1.1392   1.2806   1.0085  -1.0221   0.9413  -0.8845  13.00    0.0
2019/02/11 09:30:00.000   4280225.1390  -4034426.9314  -2458273.6658   4  11   1.1388   1.2490   0.9780  -1.0206   0.9036  -0.8832  -0.00    0.0
2019/02/11 09:30:01.000   4280214.1179  -4034426.0769  -2458267.3342   4  11   1.1388   1.2489   0.9780  -1.0205   0.9035  -0.8831   1.00    0.0
2019/02/11 09:30:03.000   4280225.0892  -4034426.4353  -2458273.3712   4  11   1.1387   1.2487   0.9780  -1.0203   0.9034  -0.8830   3.00    0.0
2019/02/11 09:30:04.000   4280215.5374  -4034425.0994  -2458264.3406   4  10   1.1387   1.2798   1.0084  -1.0213   0.9407  -0.8841   4.00    0.0
2019/02/11 09:30:09.000   4280217.4101  -4034419.7133  -2458278.9213   4  10   1.1387   1.2794   1.0087  -1.0209   0.9405  -0.8839   9.00    0.0
2019/02/11 09:30:12.000   4280211.0407  -4034413.9716  -2458264.7758   4  11   1.1386   1.2479   0.9782  -1.0196   0.9027  -0.8828  12.00    0.0
2019/02/11 09:30:14.000   4280224.9308  -4034417.8236  -2458273.9822   4  11   1.1386   1.2478   0.9783  -1.0194   0.9026  -0.8828  14.00    0.0
2019/02/11 09:30:16.000   4280212.7867  -4034411.0005  -2458267.5561   4  11   1.1383   1.2472   0.9780  -1.0190   0.9022  -0.8825   1.00    0.0
2019/02/11 09:30:18.000   4280219.6413  -4034422.9255  -2458274.7683   4  11   1.1383   1.2470   0.9780  -1.0188   0.9020  -0.8824   3.00    0.0
2019/02/11 09:30:19.000   4280223.3530  -4034417.2422  -2458271.5107   4  11   1.1382   1.2469   0.9780  -1.0187   0.9019  -0.8824   4.00    0.0
2019/02/11 09:30:23.000   4280217.6816  -4034402.8466  -2458262.6523   4  11   1.2501   1.2390   0.9423  -1.0228   0.9219  -0.8913   8.00    0.0
2019/02/11 09:30:26.000   4280210.3195  -4034401.8471  -2458262.6536   4  11   1.1324   1.2767   0.9511  -1.0221   0.9486  -0.8611  11.00    0.0
2019/02/11 09:30:28.000   4280221.8854  -4034419.5888  -2458270.1690   4  10   1.2484   1.5361   1.0113  -1.2221   1.0922  -0.9601  13.00    0.0
2019/02/11 09:30:37.000   4280212.2640  -4034404.2628  -2458251.9316   4  12   1.1317   1.2372   0.9380  -1.0249   0.9216  -0.8631   7.00    0.0
2019/02/11 09:30:40.000   4280205.4078  -4034401.3119  -2458252.9865   4  11   1.1320   1.2753   0.9516  -1.0208   0.9480  -0.8607  10.00    0.0
2019/02/11 09:30:41.000   4280216.5884  -4034410.1505  -2458263.1046   4  12   1.1317   1.2368   0.9381  -1.0246   0.9214  -0.8631  11.00    0.0
2019/02/11 09:30:47.000   4280223.6336  -4034415.8142  -2458262.9181   4  12   1.1314   1.2358   0.9381  -1.0239   0.9208  -0.8628   2.00    0.0
2019/02/11 09:30:52.000   4280230.4646  -4034419.8287  -2458260.9420   4  11   1.1316   1.2740   0.9520  -1.0196   0.9474  -0.8603   7.00    0.0
2019/02/11 09:30:59.000   4280232.0374  -4034424.8481  -2458268.7171   4  11   1.2491   1.2348   0.9432  -1.0188   0.9194  -0.8910  14.00    0.0
2019/02/11 09:31:00.000   4280227.6256  -4034420.1699  -2458270.2202   4  10   1.2587   1.2766   0.9539  -0.9929   0.9442  -0.8780  -0.00    0.0
2019/02/11 09:31:08.000   4280229.3957  -4034442.2756  -2458271.5160   5  12  30.0000  30.0000  30.0000   0.0000   0.0000   0.0000   8.00    0.0
2019/02/11 09:31:12.000   4280223.0763  -4034433.7691  -2458269.8990   5  12  30.0000  30.0000  30.0000   0.0000   0.0000   0.0000  12.00    0.0
2019/02/11 09:31:13.000   4280237.7005  -4034443.5000  -2458272.1839   5  12  30.0000  30.0000  30.0000   0.0000   0.0000   0.0000  13.00    0.0
2019/02/11 09:31:39.000   4280208.5056  -4034416.8453  -2458259.7185   5  12  30.0000  30.0000  30.0000   0.0000   0.0000   0.0000   9.00    0.0
2019/02/11 09:31:42.000   4280229.8013  -4034416.6273  -2458266.5488   5  12  30.0000  30.0000  30.0000   0.0000   0.0000   0.0000  12.00    0.0
2019/02/11 09:31:51.000   4280210.7973  -4034407.3276  -2458256.0677   5  12  30.0000  30.0000  30.0000   0.0000   0.0000   0.0000   6.00    0.0
2019/02/11 09:31:52.000   4280226.1907  -4034414.3290  -2458256.7341   5  12  30.0000  30.0000  30.0000   0.0000   0.0000   0.0000   7.00    0.0
2019/02/11 09:32:11.000   4280228.0548  -4034424.0387  -2458276.4821   5  12  30.0000  30.0000  30.0000   0.0000   0.0000   0.0000  11.00    0.0
2019/02/11 09:32:15.000   4280215.3820  -4034423.9229  -2458264.4805   5  11  30.0000  30.0000  30.0000   0.0000   0.0000   0.0000  -0.00    0.0
2019/02/11 09:32:18.000   4280223.7508  -4034427.0261  -2458259.4765   5  11  30.0000  30.0000  30.0000   0.0000   0.0000   0.0000   3.00    0.0
2019/02/11 09:32:20.000   4280221.7938  -4034421.2289  -2458273.0570   5  11  30.0000  30.0000  30.0000   0.0000   0.0000   0.0000   5.00    0.0
2019/02/11 09:32:25.000   4280236.4939  -4034436.9302  -2458267.8937   5  11  30.0000  30.0000  30.0000   0.0000   0.0000   0.0000  10.00    0.0
2019/02/11 09:32:31.000   4280216.4189  -4034432.1811  -2458277.3332   5  12  30.0000  30.0000  30.0000   0.0000   0.0000   0.0000   1.00    0.0
2019/02/11 09:32:32.000   4280224.5427  -4034423.6931  -2458259.4733   5  12  30.0000  30.0000  30.0000   0.0000   0.0000   0.0000   2.00    0.0
2019/02/11 09:33:18.000   4280222.0129  -4034414.4607  -2458263.3019   4   9   1.3144   1.5201   1.0136  -1.1342   1.0749  -0.9461   3.00    0.0
2019/02/11 09:33:26.000   4280212.7831  -4034423.8824  -2458272.9608   4  12   1.1283   1.2166   0.9412  -1.0092   0.9100  -0.8589  11.00    0.0
2019/02/11 09:33:28.000   4280214.0802  -4034423.6284  -2458271.1493   4  11   1.2443   1.2167   0.9469  -1.0020   0.9084  -0.8896  13.00    0.0
2019/02/11 09:33:32.000   4280231.0575  -4034427.4687  -2458273.3785   4  13   1.0374   1.1422   0.7747  -0.9125   0.7776  -0.7074   2.00    0.0
2019/02/11 09:33:36.000   4280216.0419  -4034423.0421  -2458270.8210   4  12   1.1280   1.2153   0.9413  -1.0082   0.9093  -0.8586   6.00    0.0
2019/02/11 09:33:40.000   4280228.3949  -4034427.0358  -2458277.6287   4  13   1.0372   1.1413   0.7747  -0.9117   0.7769  -0.7070  10.00    0.0
2019/02/11 09:33:42.000   4280240.3593  -4034443.5445  -2458282.2032   4  13   1.0372   1.1411   0.7748  -0.9115   0.7768  -0.7069  12.00    0.0
2019/02/11 09:33:43.000   4280232.4057  -4034429.7588  -2458266.6863   4  12   1.0993   1.2392   0.7922  -1.0034   0.8265  -0.7482  13.00    0.0
2019/02/11 09:33:50.000   4280217.5718  -4034424.4468  -2458270.7574   4  12   1.0381   1.1770   0.7877  -0.9019   0.8025  -0.7010   5.00    0.0
2019/02/11 09:33:54.000   4280232.5315  -4034424.1877  -2458272.6699   4   9   1.3177   1.4057   0.9984  -1.0951   1.0222  -0.9358   9.00    0.0
2019/02/11 09:34:00.000   4280224.2357  -4034417.0599  -2458263.7307   4   8   1.4325   1.7921   1.0919  -1.3504   1.2392  -1.0602  -0.00    0.0
2019/02/11 09:34:10.000   4280237.4326  -4034441.3873  -2458277.3717   4  10   1.2295   1.4819   1.0147  -1.1792   1.0686  -0.9449  10.00    0.0
