% program   : RTKPOST ver.2.4.2
% inp file  : D:\Google Drive\UERJ\_Projeto Final\Python\tcc-guilherme\20190212_Sta91500.19o
% inp file  : D:\Google Drive\UERJ\_Projeto Final\20190212_Marco91500 IBGE\brdm0430.19p
% obs start : 2019/02/12 08:38:50.0 GPST (week2040 203930.0s)
% obs end   : 2019/02/12 10:17:44.0 GPST (week2040 209864.0s)
% pos mode  : single
% elev mask : 15.0 deg
% ionos opt : broadcast
% tropo opt : saastamoinen
% ephemeris : broadcast
% navi sys  : gps glonass
%
% (x/y/z-ecef=WGS84,Q=1:fix,2:float,3:sbas,4:dgps,5:single,6:ppp,ns=# of satellites)
%  GPST                      x-ecef(m)      y-ecef(m)      z-ecef(m)   Q  ns   sdx(m)   sdy(m)   sdz(m)  sdxy(m)  sdyz(m)  sdzx(m) age(s)  ratio
2019/02/12 08:38:54.000   4280201.4827  -4034388.7752  -2458249.4079   5  11   4.8252   5.2620   3.0897  -4.5480   3.5000  -3.2874   0.00    0.0
2019/02/12 08:38:56.000   4280206.9924  -4034400.5871  -2458259.4567   5  10   5.2158   6.1201   3.6883  -5.1575   4.2751  -3.8474   0.00    0.0
2019/02/12 08:38:58.000   4280202.6172  -4034396.0633  -2458266.0943   5   9   5.3549   6.3433   3.9428  -5.1943   4.5136  -3.7036   0.00    0.0
2019/02/12 08:38:59.000   4280215.4979  -4034400.9433  -2458260.1700   5  10   5.4610   6.1923   3.3415  -5.3172   4.0775  -3.6623   0.00    0.0
2019/02/12 08:39:03.000   4280216.2253  -4034403.9358  -2458270.8028   5  12   4.8154   5.2656   3.0398  -4.5492   3.4957  -3.2575   0.00    0.0
2019/02/12 08:39:05.000   4280219.4625  -4034421.5917  -2458273.3232   5  11   5.0307   5.2971   3.0813  -4.4593   3.5371  -3.1455   0.00    0.0
2019/02/12 08:39:11.000   4280196.1180  -4034385.8025  -2458250.9497   5  11   4.9992   5.9282   3.3113  -4.9328   3.9746  -3.5166   0.00    0.0
2019/02/12 08:39:12.000   4280219.3359  -4034393.7134  -2458259.1706   5  11   5.0002   5.9291   3.3119  -4.9338   3.9755  -3.5174   0.00    0.0
2019/02/12 08:39:17.000   4280211.9536  -4034389.8492  -2458251.6579   5  11   4.9232   5.2989   3.2316  -4.6144   3.5833  -3.4228   0.00    0.0
2019/02/12 08:39:24.000   4280208.6260  -4034388.2304  -2458254.9742   5  12   5.0577   6.2167   2.9886  -5.1102   3.5971  -3.2603   0.00    0.0
2019/02/12 08:39:26.000   4280206.3924  -4034393.2056  -2458250.6536   5  12   4.9590   5.9353   3.2888  -4.9267   3.9719  -3.4805   0.00    0.0
2019/02/12 08:39:30.000   4280234.9674  -4034452.7800  -2458286.1135   5  11   6.0728   6.5515   3.4399  -5.7500   4.3103  -3.8905   0.00    0.0
2019/02/12 08:39:36.000   4280212.3496  -4034423.5765  -2458266.0448   5  11   6.3789   5.9660   3.7998  -5.5381   4.3156  -4.3138   0.00    0.0
2019/02/12 08:39:37.000   4280218.3179  -4034416.8526  -2458261.1545   5  13   4.7416   5.2300   2.9735  -4.4917   3.4402  -3.1723   0.00    0.0
2019/02/12 08:39:39.000   4280199.9266  -4034389.4794  -2458257.5531   5  12   5.0764   6.2370   2.9954  -5.1316   3.6124  -3.2731   0.00    0.0
2019/02/12 08:39:44.000   4280208.7587  -4034398.2610  -2458254.1918   5  12   4.0352   5.1681   3.2833  -4.1249   3.5865  -3.0598   0.00    0.0
2019/02/12 08:39:45.000   4280212.2081  -4034411.5753  -2458255.8896   5  12   4.2658   6.0210   3.6660  -4.6335   4.2448  -3.4095   0.00    0.0
2019/02/12 08:39:46.000   4280216.2354  -4034413.3870  -2458262.6717   5  11   4.7030   6.4095   3.8615  -4.8945   4.5127  -3.4459   0.00    0.0
2019/02/12 08:39:47.000   4280217.6855  -4034408.7981  -2458251.4371   5  12   4.0368   5.1689   3.2837  -4.1262   3.5873  -3.0608   0.00    0.0
2019/02/12 08:39:49.000   4280233.0664  -4034408.7080  -2458260.1499   5  12   4.0706   5.1684   3.4816  -4.1396   3.6465  -3.1724   0.00    0.0
2019/02/12 08:39:54.000   4280197.5665  -4034391.2162  -2458249.6246   5  12   4.2723   6.0269   3.6700  -4.6402   4.2505  -3.4150   0.00    0.0
2019/02/12 08:39:57.000   4280192.2587  -4034366.3211  -2458240.4037   5  11   5.1452   6.3625   3.8209  -5.2322   4.4984  -3.8348   0.00    0.0
2019/02/12 08:39:58.000   4280240.8958  -4034428.9912  -2458290.5588   5  11   5.8704   6.2390   4.2198  -5.6335   4.6892  -4.4751   0.00    0.0
2019/02/12 08:39:59.000   4280230.8023  -4034420.5921  -2458267.7855   5  11   5.0098   5.9094   4.1655  -5.0521   4.4958  -4.1193   0.00    0.0
2019/02/12 08:40:02.000   4280193.0813  -4034375.5668  -2458249.2731   5  11   4.9990   5.5134   3.6575  -4.7654   3.9313  -3.6506   0.00    0.0
2019/02/12 08:40:10.000   4280191.9631  -4034381.9380  -2458252.7838   5  12   4.8796   5.2772   3.1951  -4.5792   3.5513  -3.3727   0.00    0.0
2019/02/12 08:40:16.000   4280195.8360  -4034377.3241  -2458245.6670   5  12   4.2880   6.0408   3.6796  -4.6562   4.2642  -3.4283   0.00    0.0
2019/02/12 08:40:18.000   4280220.3073  -4034407.7773  -2458261.7265   5  12   5.0059   5.9816   3.3218  -4.9766   4.0177  -3.5220   0.00    0.0
2019/02/12 08:40:21.000   4280231.2889  -4034433.0335  -2458269.6451   5  12   5.0086   5.9842   3.3237  -4.9793   4.0203  -3.5244   0.00    0.0
2019/02/12 08:40:23.000   4280235.5009  -4034435.6340  -2458271.8727   5  12   4.2877   5.9695   3.2170  -4.6317   3.7718  -3.1376   0.00    0.0
2019/02/12 08:40:24.000   4280218.3411  -4034423.6819  -2458271.0634   5  12   5.0112   5.9868   3.3255  -4.9821   4.0229  -3.5267   0.00    0.0
2019/02/12 08:40:26.000   4280228.6581  -4034435.5690  -2458280.3522   5  12   4.2951   6.0469   3.6838  -4.6633   4.2703  -3.4341   0.00    0.0
2019/02/12 08:40:30.000   4280229.9627  -4034430.9030  -2458277.4364   5  13   4.7758   5.2534   2.9911  -4.5225   3.4658  -3.1978   0.00    0.0
2019/02/12 08:40:31.000   4280227.1773  -4034433.0788  -2458276.2448   5  13   4.1900   5.7091   3.2150  -4.4562   3.8278  -3.1753   0.00    0.0
2019/02/12 08:40:44.000   4280207.0340  -4034418.1306  -2458267.5210   5  13   4.7845   5.2591   2.9955  -4.5302   3.4722  -3.2042   0.00    0.0
2019/02/12 08:40:47.000   4280230.1997  -4034428.3200  -2458271.8560   5  14   3.9553   4.9813   2.8879  -3.9976   3.2732  -2.8498   0.00    0.0
2019/02/12 08:40:49.000   4280218.9319  -4034427.9125  -2458268.5610   5  13   3.9990   5.1377   3.2095  -4.0890   3.5322  -2.9903   0.00    0.0
2019/02/12 08:40:52.000   4280216.1423  -4034421.2851  -2458272.2138   5  12   4.3131   6.0623   3.6946  -4.6814   4.2856  -3.4491   0.00    0.0
2019/02/12 08:40:53.000   4280198.0712  -4034386.0802  -2458254.3102   5  12   4.0947   5.1774   3.4767  -4.1573   3.6507  -3.1800   0.00    0.0
2019/02/12 08:40:59.000   4280212.7600  -4034413.0308  -2458267.5062   5  12   4.0740   5.1859   3.2915  -4.1557   3.6045  -3.0830   0.00    0.0
2019/02/12 08:41:04.000   4280210.3120  -4034420.3353  -2458271.5108   5  12   4.0986   5.1786   3.4757  -4.1600   3.6511  -3.1810   0.00    0.0
2019/02/12 08:41:05.000   4280219.4822  -4034409.8537  -2458264.4202   5  13   4.0065   5.1409   3.2113  -4.0948   3.5357  -2.9947   0.00    0.0
2019/02/12 08:41:06.000   4280212.0588  -4034404.4907  -2458264.1298   5  12   4.0774   5.1874   3.2921  -4.1584   3.6060  -3.0850   0.00    0.0
2019/02/12 08:41:07.000   4280230.2128  -4034433.8192  -2458273.6902   5  12   4.0841   5.3408   3.4645  -3.9540   3.7925  -2.8192   0.00    0.0
2019/02/12 08:41:08.000   4280223.6535  -4034420.8704  -2458279.9266   5  12   4.8639   5.4471   3.3391  -4.6619   3.7615  -3.3899   0.00    0.0
2019/02/12 08:41:13.000   4280229.1420  -4034423.8253  -2458276.5092   5  13   4.6588   5.9615   3.2185  -4.9027   3.9202  -3.4080   0.00    0.0
2019/02/12 08:41:14.000   4280208.3026  -4034401.2475  -2458256.1700   5  13   4.0322   5.0252   2.9581  -4.0620   3.3383  -2.9354   0.00    0.0
2019/02/12 08:41:17.000   4280212.3875  -4034410.6235  -2458262.7285   5  14   3.9718   4.9925   2.8975  -4.0128   3.2869  -2.8639   0.00    0.0
2019/02/12 08:41:18.000   4280220.6208  -4034414.4731  -2458279.1269   5  13   3.9832   5.0192   3.0196  -3.9944   3.3529  -2.8204   0.00    0.0
2019/02/12 08:41:22.000   4280237.0614  -4034431.0986  -2458273.6739   5  14   3.9745   4.9943   2.8991  -4.0152   3.2891  -2.8661   0.00    0.0
2019/02/12 08:41:25.000   4280214.5079  -4034410.6297  -2458261.6127   5  13   4.8090   5.2749   3.0078  -4.5515   3.4899  -3.2221   0.00    0.0
2019/02/12 08:41:30.000   4280230.4199  -4034426.4130  -2458270.9337   5  12   4.3386   6.0834   3.7094  -4.7065   4.3066  -3.4699   0.00    0.0
2019/02/12 08:41:31.000   4280213.6596  -4034406.2742  -2458260.8229   5  12   4.8737   5.4498   3.3397  -4.6682   3.7639  -3.3931   0.00    0.0
2019/02/12 08:41:34.000   4280235.8857  -4034442.5416  -2458282.1862   5  13   4.1002   5.0556   2.9587  -3.9276   3.3595  -2.7720   0.00    0.0
2019/02/12 08:41:35.000   4280223.8525  -4034416.6962  -2458264.1597   5  13   4.0444   5.0332   2.9647  -4.0730   3.3478  -2.9455   0.00    0.0
2019/02/12 08:41:42.000   4280204.3200  -4034414.1504  -2458261.7810   5  11   5.0024   5.5279   3.4434  -4.7788   3.8659  -3.5286   0.00    0.0
2019/02/12 08:41:43.000   4280236.0306  -4034432.4807  -2458270.4239   5  13   4.0490   5.0362   2.9672  -4.0771   3.3514  -2.9492   0.00    0.0
2019/02/12 08:41:44.000   4280236.1609  -4034427.9742  -2458276.6078   5  12   4.9331   5.6659   3.7613  -4.8927   4.1513  -3.9002   0.00    0.0
2019/02/12 08:41:54.000   4280215.9741  -4034398.3362  -2458263.0665   5  12   4.1176   5.3263   3.4476  -3.9681   3.7759  -2.8261   0.00    0.0
2019/02/12 08:41:58.000   4280220.3496  -4034420.7653  -2458269.0685   5  13   4.0303   5.1501   3.2164  -4.1128   3.5457  -3.0083   0.00    0.0
2019/02/12 08:41:59.000   4280205.2257  -4034391.8578  -2458249.2888   5  11   5.1063   5.5415   3.5064  -4.5150   3.9040  -3.1541   0.00    0.0
2019/02/12 08:42:00.000   4280194.4268  -4034406.6175  -2458250.3379   5  11   5.8604   6.1948   4.1843  -5.6015   4.6472  -4.4378   0.00    0.0
2019/02/12 08:42:04.000   4280178.2658  -4034371.3226  -2458233.2276   5  11   5.8596   6.1929   4.1828  -5.6000   4.6454  -4.4362   0.00    0.0
2019/02/12 08:42:05.000   4280242.2885  -4034427.4550  -2458270.3543   5  11   5.1121   5.5397   3.5040  -4.5172   3.9016  -3.1546   0.00    0.0
2019/02/12 08:42:06.000   4280209.0554  -4034402.2483  -2458260.8631   5  12   4.8878   5.4528   3.3400  -4.6768   3.7666  -3.3971   0.00    0.0
2019/02/12 08:42:08.000   4280211.5838  -4034412.6588  -2458260.6885   5  12   4.8886   5.4530   3.3400  -4.6772   3.7667  -3.3973   0.00    0.0
2019/02/12 08:42:14.000   4280221.5046  -4034429.7066  -2458271.9148   5  11   5.0285   5.5107   3.6250  -4.7765   3.9125  -3.6320   0.00    0.0
2019/02/12 08:42:19.000   4280221.6263  -4034422.0126  -2458266.3056   5  12   4.1119   5.1998   3.2970  -4.1838   3.6187  -3.1035   0.00    0.0
2019/02/12 08:42:20.000   4280219.2857  -4034430.1170  -2458275.5974   5  12   4.1167   5.0558   3.1215  -4.1147   3.4026  -3.0622   0.00    0.0
2019/02/12 08:42:27.000   4280227.5995  -4034436.0356  -2458268.7451   5  13   4.0086   5.0225   2.9332  -4.0463   3.3053  -2.8934   0.00    0.0
2019/02/12 08:42:29.000   4280214.2145  -4034419.2079  -2458261.3801   5  13   4.0747   5.0523   2.9808  -4.0997   3.3710  -2.9700   0.00    0.0
2019/02/12 08:42:34.000   4280219.3865  -4034428.1317  -2458272.4734   5  13   4.1447   5.0655   2.9681  -3.9593   3.3736  -2.8008   0.00    0.0
2019/02/12 08:42:36.000   4280214.9051  -4034404.7668  -2458254.4086   5  14   4.0130   5.0191   2.9211  -4.0496   3.3199  -2.8983   0.00    0.0
2019/02/12 08:42:38.000   4280226.1608  -4034427.9463  -2458268.9958   5  13   4.1476   5.0660   2.9687  -3.9614   3.3745  -2.8026   0.00    0.0
2019/02/12 08:42:42.000   4280232.7858  -4034423.9367  -2458270.5130   5  13   4.0776   5.0314   3.0898  -4.0804   3.3708  -3.0202   0.00    0.0
2019/02/12 08:42:44.000   4280213.2275  -4034398.3591  -2458255.3613   5  14   4.0170   5.0215   2.9234  -4.0531   3.3230  -2.9015   0.00    0.0
2019/02/12 08:42:46.000   4280226.0113  -4034419.7033  -2458275.1993   5  13   4.1535   5.0672   2.9699  -3.9655   3.3762  -2.8063   0.00    0.0
2019/02/12 08:42:49.000   4280215.5629  -4034414.1139  -2458273.1343   5  14   4.0195   5.0230   2.9247  -4.0552   3.3249  -2.9035   0.00    0.0
2019/02/12 08:42:52.000   4280220.7940  -4034420.4926  -2458270.3303   5  13   4.0819   5.0340   3.0914  -4.0841   3.3737  -3.0232   0.00    0.0
2019/02/12 08:42:54.000   4280223.2496  -4034422.2875  -2458276.2025   5  13   4.0881   5.0604   2.9877  -4.1113   3.3810  -2.9807   0.00    0.0
2019/02/12 08:42:55.000   4280236.6525  -4034425.2114  -2458274.1120   5  13   4.7974   5.5706   3.6312  -4.7700   4.0299  -3.7504   0.00    0.0
2019/02/12 08:42:56.000   4280222.1906  -4034413.9361  -2458267.2030   5  13   4.0892   5.0610   2.9883  -4.1122   3.3817  -2.9815   0.00    0.0
2019/02/12 08:43:04.000   4280226.0504  -4034419.2109  -2458272.1750   5  12   4.2259   5.0791   3.1337  -4.0019   3.4251  -2.9363   0.00    0.0
2019/02/12 08:43:14.000   4280214.8723  -4034421.2889  -2458267.5376   5  13   4.0986   5.0664   2.9931  -4.1202   3.3886  -2.9889   0.00    0.0
2019/02/12 08:43:15.000   4280211.6405  -4034421.6021  -2458260.1155   5  14   4.0321   5.0304   2.9318  -4.0661   3.3346  -2.9138   0.00    0.0
2019/02/12 08:43:17.000   4280228.7270  -4034420.3150  -2458269.9139   5  14   4.0330   5.0310   2.9323  -4.0669   3.3353  -2.9146   0.00    0.0
2019/02/12 08:43:21.000   4280198.6833  -4034377.4781  -2458254.1232   5  11   5.4597   6.7077   3.1360  -5.2666   3.9314  -3.3624   0.00    0.0
2019/02/12 08:43:22.000   4280170.8611  -4034365.2228  -2458242.6965   5  12   5.3438   6.5235   3.0908  -5.4324   3.8248  -3.4511   0.00    0.0
2019/02/12 08:43:25.000   4280220.2647  -4034410.2050  -2458265.9355   5  12   5.1894   5.3163   3.0550  -4.5575   3.5434  -3.1788   0.00    0.0
2019/02/12 08:43:26.000   4280194.7108  -4034393.1654  -2458256.1531   5  13   4.1824   5.0725   2.9756  -3.9853   3.3844  -2.8245   0.00    0.0
2019/02/12 08:43:27.000   4280220.8353  -4034388.6620  -2458256.4022   5  12   5.1089   5.3466   3.0701  -4.5011   3.4959  -3.3670   0.00    0.0
2019/02/12 08:43:28.000   4280207.4765  -4034410.6110  -2458265.5201   5  12   5.1922   5.3168   3.0554  -4.5593   3.5441  -3.1802   0.00    0.0
2019/02/12 08:43:29.000   4280210.4527  -4034409.2856  -2458265.6724   5  12   5.1932   5.3170   3.0556  -4.5599   3.5443  -3.1807   0.00    0.0
2019/02/12 08:43:50.000   4280229.9180  -4034425.7375  -2458271.6528   5  13   4.2704   5.9597   2.9604  -4.5791   3.5049  -3.0049   0.00    0.0
2019/02/12 08:43:58.000   4280227.3112  -4034410.2901  -2458273.3013   5  14   4.0520   5.0415   2.9428  -4.0828   3.3494  -2.9298   0.00    0.0
2019/02/12 08:43:59.000   4280215.4389  -4034399.3766  -2458261.8295   5  14   4.0524   5.0417   2.9430  -4.0831   3.3497  -2.9302   0.00    0.0
2019/02/12 08:44:00.000   4280217.3898  -4034405.6537  -2458261.2851   5  13   4.0645   5.1895   2.9446  -4.0371   3.3338  -2.9352   0.00    0.0
2019/02/12 08:44:02.000   4280208.8341  -4034411.1653  -2458263.9432   5  14   4.0538   5.0424   2.9437  -4.0842   3.3507  -2.9312   0.00    0.0
2019/02/12 08:44:04.000   4280216.5481  -4034418.1442  -2458269.1268   5  13   4.1912   5.0753   2.9442  -4.1587   3.3507  -2.9307   0.00    0.0
2019/02/12 08:44:07.000   4280232.4001  -4034416.0463  -2458269.6196   5  14   4.0560   5.0436   2.9449  -4.0861   3.3523  -2.9330   0.00    0.0
2019/02/12 08:44:08.000   4280228.1513  -4034434.3163  -2458278.1734   5  13   4.2123   5.0770   2.9810  -4.0052   3.3922  -2.8428   0.00    0.0
2019/02/12 08:44:13.000   4280195.6158  -4034380.1849  -2458245.7492   5  13   4.2884   5.9796   2.9681  -4.5998   3.5216  -3.0185   0.00    0.0
2019/02/12 08:44:16.000   4280241.7715  -4034432.3543  -2458259.6688   5  13   4.1294   5.0831   3.0086  -4.1457   3.4102  -3.0128   0.00    0.0
2019/02/12 08:44:18.000   4280207.4602  -4034396.9343  -2458248.8547   5  13   4.8953   5.3221   3.0499  -4.6209   3.5477  -3.2812   0.00    0.0
2019/02/12 08:44:21.000   4280232.7164  -4034419.4358  -2458262.3580   5  13   4.1171   5.0542   3.1039  -4.1134   3.3960  -3.0465   0.00    0.0
2019/02/12 08:44:25.000   4280226.9912  -4034415.6596  -2458267.3810   5  14   4.0639   5.0476   2.9492  -4.0925   3.3580  -2.9392   0.00    0.0
2019/02/12 08:44:27.000   4280238.6725  -4034443.3464  -2458280.0365   5  13   4.0889   5.1633   3.2227  -4.1516   3.5621  -3.0363   0.00    0.0
2019/02/12 08:44:31.000   4280237.4628  -4034451.8448  -2458289.5941   5  13   4.0903   5.1634   3.2227  -4.1524   3.5623  -3.0369   0.00    0.0
2019/02/12 08:44:32.000   4280223.0396  -4034441.4549  -2458277.1445   5  13   4.3030   5.9957   2.9743  -4.6166   3.5351  -3.0294   0.00    0.0
2019/02/12 08:44:33.000   4280204.5163  -4034391.6778  -2458259.2227   5  13   4.8077   6.0772   3.3177  -5.0438   4.0521  -3.5414   0.00    0.0
2019/02/12 08:44:35.000   4280199.2817  -4034406.1328  -2458263.8995   5  13   4.2312   5.0794   2.9842  -4.0174   3.3967  -2.8542   0.00    0.0
2019/02/12 08:44:36.000   4280224.7304  -4034426.7428  -2458275.0079   5  13   4.2318   5.0794   2.9843  -4.0178   3.3969  -2.8546   0.00    0.0
2019/02/12 08:44:37.000   4280202.4754  -4034387.2649  -2458253.8736   5  14   4.0690   5.0502   2.9520  -4.0966   3.3616  -2.9432   0.00    0.0
2019/02/12 08:44:55.000   4280217.6088  -4034395.1915  -2458270.0521   5  12   4.3233   5.1159   3.0434  -4.0866   3.4509  -2.9451   0.00    0.0
2019/02/12 08:44:57.000   4280218.5627  -4034417.7614  -2458273.2157   5  12   4.1795   5.2062   3.0708  -4.2264   3.3316  -2.9789   0.00    0.0
2019/02/12 08:44:58.000   4280219.8217  -4034414.8588  -2458265.7518   5  13   4.1488   5.0924   3.0179  -4.1610   3.4231  -3.0274   0.00    0.0
2019/02/12 08:45:00.000   4280220.9576  -4034417.8188  -2458268.3523   5  13   4.2484   5.0812   2.9870  -4.0283   3.4005  -2.8644   0.00    0.0
2019/02/12 08:45:01.000   4280242.7287  -4034412.9188  -2458278.7385   5  13   4.8186   5.5639   3.6417  -4.7760   4.0358  -3.7629   0.00    0.0
2019/02/12 08:45:03.000   4280220.0018  -4034422.3039  -2458267.8521   5  14   4.0798   5.0552   2.9577  -4.1050   3.3691  -2.9516   0.00    0.0
2019/02/12 08:45:04.000   4280209.3458  -4034399.6407  -2458257.0070   5  14   4.0803   5.0554   2.9579  -4.1054   3.3694  -2.9519   0.00    0.0
2019/02/12 08:45:09.000   4280234.7558  -4034426.3260  -2458268.3550   5  13   4.1031   5.1636   3.2224  -4.1593   3.5635  -3.0414   0.00    0.0
2019/02/12 08:45:12.000   4280236.1475  -4034421.4979  -2458271.4554   5  14   4.0835   5.0568   2.9596  -4.1078   3.3715  -2.9544   0.00    0.0
2019/02/12 08:45:13.000   4280238.2068  -4034431.7468  -2458269.6777   5  13   4.9165   5.3300   3.0595  -4.6354   3.5600  -3.2941   0.00    0.0
2019/02/12 08:45:22.000   4280223.3121  -4034414.5253  -2458262.5826   5  13   4.3973   5.9058   3.3754  -4.6734   4.0399  -3.3722   0.00    0.0
2019/02/12 08:45:25.000   4280224.2766  -4034422.1321  -2458269.8455   5  13   4.1391   5.0646   3.1102  -4.1303   3.4081  -3.0598   0.00    0.0
2019/02/12 08:45:26.000   4280217.6411  -4034410.7703  -2458273.1971   5  13   4.1086   5.1633   3.2220  -4.1620   3.5636  -3.0431   0.00    0.0
2019/02/12 08:45:28.000   4280225.5421  -4034423.1375  -2458273.9586   5  13   4.1619   5.0981   3.0240  -4.1709   3.4314  -3.0370   0.00    0.0
2019/02/12 08:45:31.000   4280187.1881  -4034376.9093  -2458242.2934   5  13   4.8205   5.5589   3.6417  -4.7739   4.0339  -3.7628   0.00    0.0
2019/02/12 08:45:32.000   4280208.9636  -4034407.1935  -2458263.0454   5  14   4.0914   5.0601   2.9637  -4.1138   3.3768  -2.9603   0.00    0.0
2019/02/12 08:45:33.000   4280220.8875  -4034426.5717  -2458272.3160   5  14   4.0917   5.0603   2.9639  -4.1141   3.3770  -2.9606   0.00    0.0
2019/02/12 08:45:38.000   4280203.0960  -4034395.2686  -2458253.6554   5  13   4.1433   5.0663   3.1113  -4.1333   3.4102  -3.0622   0.00    0.0
2019/02/12 08:45:46.000   4280242.1019  -4034436.0507  -2458283.6496   5  13   4.8502   6.1035   3.3462  -5.0802   4.0872  -3.5787   0.00    0.0
2019/02/12 08:45:48.000   4280224.1689  -4034409.6419  -2458260.4456   5  13   4.1003   5.0784   2.9749  -4.1257   3.3677  -2.9593   0.00    0.0
2019/02/12 08:45:50.000   4280227.6499  -4034426.0356  -2458264.0710   5  13   4.8211   5.5550   3.6412  -4.7718   4.0320  -3.7621   0.00    0.0
2019/02/12 08:45:51.000   4280225.5087  -4034424.2627  -2458264.5733   5  14   4.0986   5.0629   2.9673  -4.1191   3.3814  -2.9657   0.00    0.0
2019/02/12 08:45:52.000   4280227.4411  -4034423.1063  -2458271.4748   5  13   4.4150   5.9207   3.3891  -4.6908   4.0571  -3.3886   0.00    0.0
2019/02/12 08:45:54.000   4280217.8577  -4034408.9470  -2458262.2661   5  13   4.4161   5.9216   3.3900  -4.6919   4.0582  -3.3896   0.00    0.0
2019/02/12 08:45:55.000   4280226.8443  -4034416.5455  -2458272.6145   5  13   4.2854   5.0838   2.9924  -4.0510   3.4078  -2.8858   0.00    0.0
2019/02/12 08:45:58.000   4280225.3726  -4034409.0593  -2458261.7275   5  13   4.1043   5.0803   2.9765  -4.1288   3.3700  -2.9619   0.00    0.0
2019/02/12 08:46:13.000   4280221.7433  -4034421.8903  -2458274.3955   5  13   4.1228   5.1612   3.2201  -4.1682   3.5628  -3.0468   0.00    0.0
2019/02/12 08:46:14.000   4280211.6286  -4034401.0556  -2458253.3108   5  14   4.1070   5.0659   2.9716  -4.1251   3.3867  -2.9719   0.00    0.0
2019/02/12 08:46:15.000   4280223.0146  -4034421.5620  -2458270.2771   5  13   4.1543   5.0702   3.1137  -4.1410   3.4152  -3.0681   0.00    0.0
2019/02/12 08:46:22.000   4280228.2796  -4034423.6497  -2458269.8140   5  13   4.1839   5.1061   3.0338  -4.1867   3.4443  -3.0526   0.00    0.0
2019/02/12 08:46:30.000   4280216.3312  -4034404.1326  -2458265.7536   5  13   4.3083   5.0844   2.9954  -4.0643   3.4115  -2.8986   0.00    0.0
2019/02/12 08:46:32.000   4280238.8411  -4034431.3737  -2458277.1935   5  12   4.3145   5.1024   3.0028  -4.0759   3.3986  -2.8919   0.00    0.0
2019/02/12 08:46:34.000   4280225.2054  -4034430.2851  -2458279.7378   5  12   4.3589   5.0879   3.1321  -4.0806   3.4368  -3.0000   0.00    0.0
2019/02/12 08:46:35.000   4280217.8530  -4034433.8947  -2458274.0668   5  12   4.3166   5.1026   3.0030  -4.0772   3.3989  -2.8929   0.00    0.0
2019/02/12 08:46:37.000   4280238.2316  -4034438.3192  -2458284.7014   5  13   4.1896   5.1078   3.0362  -4.1905   3.4474  -3.0565   0.00    0.0
2019/02/12 08:46:40.000   4280221.6579  -4034409.4214  -2458261.7587   5  13   4.1303   5.1591   3.2185  -4.1710   3.5616  -3.0482   0.00    0.0
2019/02/12 08:46:44.000   4280211.4416  -4034410.3050  -2458270.4810   5  13   4.1624   5.0725   3.1151  -4.1462   3.4184  -3.0720   0.00    0.0
2019/02/12 08:46:53.000   4280228.0479  -4034413.8813  -2458263.3830   5  13   4.9470   5.3354   3.0722  -4.6521   3.5746  -3.3100   0.00    0.0
2019/02/12 08:46:54.000   4280209.9307  -4034406.5556  -2458262.3445   5  13   4.1437   5.1581   3.0423  -4.1841   3.3066  -2.9360   0.00    0.0
2019/02/12 08:46:55.000   4280205.5891  -4034410.1401  -2458265.7522   5  14   4.1211   5.0699   2.9784  -4.1346   3.3949  -2.9820   0.00    0.0
2019/02/12 08:46:57.000   4280236.5646  -4034427.6012  -2458275.6829   5  13   4.3256   5.0844   2.9973  -4.0741   3.4139  -2.9080   0.00    0.0
2019/02/12 08:47:00.000   4280222.3618  -4034424.9051  -2458270.5843   5  13   4.1276   5.0909   2.9853  -4.1467   3.3829  -2.9767   0.00    0.0
2019/02/12 08:47:01.000   4280228.0200  -4034442.4028  -2458270.7417   5  13   4.1424   5.1910   2.9840  -4.0815   3.3683  -2.9946   0.00    0.0
2019/02/12 08:47:03.000   4280204.3257  -4034405.4541  -2458256.1201   5  13   4.1673   5.0736   3.1158  -4.1491   3.4201  -3.0742   0.00    0.0
2019/02/12 08:47:04.000   4280221.7975  -4034418.9090  -2458266.6006   5  14   4.1240   5.0706   2.9798  -4.1364   3.3965  -2.9840   0.00    0.0
2019/02/12 08:47:05.000   4280224.7202  -4034419.6461  -2458272.4631   5  13   4.1461   5.1560   3.0457  -4.1843   3.3089  -2.9391   0.00    0.0
2019/02/12 08:47:06.000   4280217.9731  -4034405.9212  -2458259.8149   5  13   4.1252   5.1708   3.1732  -4.1451   3.5556  -2.9968   0.00    0.0
2019/02/12 08:47:07.000   4280217.0771  -4034398.2817  -2458259.9525   5  13   4.2005   5.1106   3.0406  -4.1976   3.4531  -3.0638   0.00    0.0
2019/02/12 08:47:09.000   4280232.5890  -4034427.9487  -2458269.6057   5  14   4.1256   5.0709   2.9805  -4.1374   3.3974  -2.9851   0.00    0.0
2019/02/12 08:47:14.000   4280216.8283  -4034408.0505  -2458265.1406   5  13   4.1700   5.0741   3.1161  -4.1507   3.4209  -3.0754   0.00    0.0
2019/02/12 08:47:15.000   4280205.2031  -4034396.3431  -2458261.7713   5  13   4.1702   5.0742   3.1161  -4.1508   3.4210  -3.0755   0.00    0.0
2019/02/12 08:47:17.000   4280193.8927  -4034379.3039  -2458248.6383   5  13   4.4606   5.9562   3.4244  -4.7339   4.1002  -3.4304   0.00    0.0
2019/02/12 08:47:22.000   4280224.9680  -4034412.3600  -2458272.3056   5  13   4.1502   5.1893   2.9877  -4.0848   3.3706  -3.0002   0.00    0.0
2019/02/12 08:47:23.000   4280216.6233  -4034401.5408  -2458254.2732   5  13   4.1722   5.0744   3.1163  -4.1519   3.4215  -3.0763   0.00    0.0
2019/02/12 08:47:33.000   4280219.5959  -4034427.0404  -2458258.5483   5  13   4.2094   5.1123   3.0441  -4.2030   3.4573  -3.0695   0.00    0.0
2019/02/12 08:47:35.000   4280195.4342  -4034398.2769  -2458256.1086   5  13   4.2100   5.1124   3.0443  -4.2034   3.4576  -3.0699   0.00    0.0
2019/02/12 08:47:36.000   4280207.4153  -4034416.7281  -2458266.5498   5  13   4.2104   5.1124   3.0444  -4.2036   3.4578  -3.0701   0.00    0.0
2019/02/12 08:47:37.000   4280226.0158  -4034438.5497  -2458276.2583   5  14   4.1342   5.0724   2.9844  -4.1426   3.4018  -2.9909   0.00    0.0
2019/02/12 08:47:39.000   4280211.1081  -4034409.1164  -2458264.7871   5  14   4.1348   5.0725   2.9847  -4.1430   3.4021  -2.9913   0.00    0.0
2019/02/12 08:47:40.000   4280221.3726  -4034433.6084  -2458272.2618   5  13   4.2117   5.1126   3.0449  -4.2044   3.4583  -3.0709   0.00    0.0
2019/02/12 08:47:50.000   4280207.6681  -4034403.5242  -2458256.8002   5  13   4.9053   6.1259   3.3832  -5.1211   4.1287  -3.6263   0.00    0.0
2019/02/12 08:47:51.000   4280247.1585  -4034443.2139  -2458286.3792   5  13   4.8140   5.5182   3.6291  -4.7458   4.0081  -3.7462   0.00    0.0
2019/02/12 08:48:02.000   4280223.8890  -4034418.9461  -2458265.9676   5  13   4.1809   5.0750   3.1166  -4.1562   3.4234  -3.0794   0.00    0.0
2019/02/12 08:48:03.000   4280229.6697  -4034426.6745  -2458274.9634   5  14   4.1417   5.0731   2.9877  -4.1468   3.4054  -2.9958   0.00    0.0
2019/02/12 08:48:08.000   4280228.5306  -4034419.2663  -2458275.0425   5  13   4.1505   5.0989   2.9928  -4.1628   3.3936  -2.9899   0.00    0.0
2019/02/12 08:48:11.000   4280220.8189  -4034410.8796  -2458264.8987   5  13   4.4859   5.9734   3.4440  -4.7563   4.1231  -3.4530   0.00    0.0
2019/02/12 08:48:14.000   4280213.0170  -4034406.1899  -2458260.9041   5  14   4.1447   5.0732   2.9890  -4.1483   3.4067  -2.9977   0.00    0.0
2019/02/12 08:48:15.000   4280223.7796  -4034428.0606  -2458270.9449   5  13   4.4586   6.1589   3.0368  -4.7902   3.6714  -3.1414   0.00    0.0
2019/02/12 08:48:16.000   4280224.4475  -4034434.5111  -2458273.0507   5  13   4.4592   6.1595   3.0371  -4.7909   3.6720  -3.1418   0.00    0.0
2019/02/12 08:48:18.000   4280217.3179  -4034402.6227  -2458262.3658   5  14   4.1457   5.0732   2.9894  -4.1489   3.4071  -2.9984   0.00    0.0
2019/02/12 08:48:21.000   4280231.2370  -4034422.0115  -2458269.6799   5  13   4.4623   6.1625   3.0382  -4.7942   3.6745  -3.1440   0.00    0.0
2019/02/12 08:48:23.000   4280207.0731  -4034391.1507  -2458254.8283   5  14   4.1471   5.0732   2.9900  -4.1495   3.4077  -2.9992   0.00    0.0
2019/02/12 08:48:24.000   4280204.8880  -4034402.2169  -2458259.8161   5  13   4.2687   5.0978   2.9904  -4.2102   3.4045  -2.9919   0.00    0.0
2019/02/12 08:48:25.000   4280232.3016  -4034406.4386  -2458256.4946   5  13   4.3796   5.0808   3.0021  -4.1022   3.4188  -2.9361   0.00    0.0
2019/02/12 08:48:30.000   4280174.9109  -4034362.9722  -2458238.5047   5  13   4.9183   6.1268   3.3919  -5.1283   4.1370  -3.6371   0.00    0.0
2019/02/12 08:48:36.000   4280190.9808  -4034385.6667  -2458249.8989   5  13   4.1876   5.0744   3.1162  -4.1589   3.4239  -3.0812   0.00    0.0
2019/02/12 08:48:38.000   4280208.4704  -4034397.5153  -2458260.7442   5  13   4.3872   5.0798   3.0026  -4.1059   3.4192  -2.9398   0.00    0.0
2019/02/12 08:48:41.000   4280208.2093  -4034411.4218  -2458260.7723   5  13   4.2301   5.1135   3.0512  -4.2140   3.4655  -3.0818   0.00    0.0
2019/02/12 08:48:48.000   4280242.2107  -4034437.4936  -2458286.1627   5  13   4.1600   5.1407   3.2056  -4.1759   3.5477  -3.0476   0.00    0.0
2019/02/12 08:48:49.000   4280254.0450  -4034458.4902  -2458285.5321   5  14   4.1536   5.0727   2.9925  -4.1525   3.4102  -3.0031   0.00    0.0
2019/02/12 08:48:50.000   4280254.6443  -4034443.9647  -2458276.0810   5  13   4.3942   5.0788   3.0030  -4.1092   3.4194  -2.9432   0.00    0.0
2019/02/12 08:48:56.000   4280232.0933  -4034448.4605  -2458276.8890   5  13   4.5046   5.9843   3.4584  -4.7719   4.1393  -3.4695   0.00    0.0
2019/02/12 08:48:57.000   4280232.2386  -4034436.4131  -2458272.7055   5  13   4.5050   5.9845   3.4587  -4.7722   4.1396  -3.4698   0.00    0.0
2019/02/12 08:48:59.000   4280225.6003  -4034441.9482  -2458268.6708   5  13   4.3994   5.0780   3.0033  -4.1116   3.4195  -2.9457   0.00    0.0
2019/02/12 08:49:03.000   4280212.8037  -4034406.5853  -2458258.8287   5  13   4.2758   5.0955   2.9942  -4.2122   3.4076  -2.9965   0.00    0.0
2019/02/12 08:49:04.000   4280228.8014  -4034426.2372  -2458270.5543   5  14   4.1572   5.0721   2.9939  -4.1539   3.4113  -3.0052   0.00    0.0
2019/02/12 08:49:05.000   4280223.1425  -4034410.1789  -2458262.7461   5  14   4.1574   5.0721   2.9940  -4.1540   3.4114  -3.0053   0.00    0.0
2019/02/12 08:49:06.000   4280208.9965  -4034393.7905  -2458259.5596   5  14   4.1577   5.0720   2.9941  -4.1541   3.4115  -3.0054   0.00    0.0
2019/02/12 08:49:11.000   4280201.1704  -4034387.1582  -2458251.3965   5  14   4.1588   5.0718   2.9945  -4.1545   3.4118  -3.0060   0.00    0.0
2019/02/12 08:49:12.000   4280228.1667  -4034414.1501  -2458273.8598   5  13   4.9292   6.1244   3.3992  -5.1326   4.1429  -3.6459   0.00    0.0
2019/02/12 08:49:18.000   4280236.4043  -4034430.2637  -2458274.9117   5  13   4.2399   5.1121   3.0539  -4.2179   3.4681  -3.0869   0.00    0.0
2019/02/12 08:49:23.000   4280238.7358  -4034429.3285  -2458276.4163   5  14   4.1615   5.0711   2.9954  -4.1554   3.4125  -3.0075   0.00    0.0
2019/02/12 08:49:25.000   4280230.0022  -4034428.7587  -2458262.8711   5  13   4.2416   5.1117   3.0543  -4.2185   3.4685  -3.0878   0.00    0.0
2019/02/12 08:49:26.000   4280232.5275  -4034423.5256  -2458265.9960   5  13   4.2418   5.1116   3.0544  -4.2186   3.4685  -3.0879   0.00    0.0
2019/02/12 08:49:42.000   4280232.3285  -4034432.7014  -2458268.4225   5  13   4.5214   5.9922   3.4713  -4.7848   4.1532  -3.4840   0.00    0.0
2019/02/12 08:49:44.000   4280238.2781  -4034439.1067  -2458265.3119   5  14   4.1658   5.0695   2.9968  -4.1566   3.4135  -3.0097   0.00    0.0
2019/02/12 08:49:46.000   4280212.7749  -4034410.5722  -2458256.1955   5  13   4.1987   5.0698   3.1134  -4.1610   3.4220  -3.0820   0.00    0.0
2019/02/12 08:49:58.000   4280214.7538  -4034393.3038  -2458264.6521   5  13   4.9381   6.1178   3.4052  -5.1335   4.1461  -3.6527   0.00    0.0
2019/02/12 08:50:00.000   4280229.8996  -4034408.8676  -2458260.8310   5  13   4.2841   5.0896   2.9984  -4.2124   3.4097  -3.0010   0.00    0.0
2019/02/12 08:50:02.000   4280206.7081  -4034398.9754  -2458261.6030   5  13   4.9754   5.3124   3.0787  -4.6486   3.5738  -3.3122   0.00    0.0
2019/02/12 08:50:10.000   4280202.8678  -4034389.5711  -2458247.2189   5  13   4.1740   5.1217   3.1930  -4.1721   3.5321  -3.0413   0.00    0.0
2019/02/12 08:50:11.000   4280197.0110  -4034382.1293  -2458245.9532   5  14   4.1710   5.0669   2.9983  -4.1576   3.4142  -3.0120   0.00    0.0
2019/02/12 08:50:12.000   4280220.1633  -4034401.2348  -2458265.4866   5  13   4.1742   5.1211   3.1927  -4.1719   3.5317  -3.0411   0.00    0.0
2019/02/12 08:50:19.000   4280213.9865  -4034414.9545  -2458265.8849   5  13   4.2862   5.0869   2.9994  -4.2117   3.4098  -3.0019   0.00    0.0
2019/02/12 08:50:20.000   4280213.0880  -4034420.4181  -2458270.7907   5  13   4.1786   5.1079   3.0990  -4.1754   3.3384  -2.9834   0.00    0.0
2019/02/12 08:50:24.000   4280227.2289  -4034413.8069  -2458267.6369   5  13   4.5347   5.9965   3.4815  -4.7939   4.1633  -3.4951   0.00    0.0
2019/02/12 08:50:26.000   4280214.5723  -4034410.2101  -2458268.4040   5  14   4.1736   5.0651   2.9989  -4.1578   3.4142  -3.0131   0.00    0.0
2019/02/12 08:50:27.000   4280220.2956  -4034401.1698  -2458263.7719   5  13   4.5356   5.9967   3.4822  -4.7944   4.1640  -3.4958   0.00    0.0
2019/02/12 08:50:30.000   4280215.8095  -4034413.2985  -2458268.1095   5  13   4.5365   5.9969   3.4829  -4.7949   4.1646  -3.4965   0.00    0.0
2019/02/12 08:50:31.000   4280206.7614  -4034407.9499  -2458261.5890   5  13   4.2071   5.1557   3.0112  -4.0966   3.3759  -3.0367   0.00    0.0
2019/02/12 08:50:32.000   4280223.0293  -4034421.7690  -2458275.6094   5  13   4.1841   5.2291   3.2434  -4.2017   3.6421  -3.0705   0.00    0.0
2019/02/12 08:50:33.000   4280210.7500  -4034408.6958  -2458268.5931   5  13   4.4509   5.0660   3.0042  -4.1328   3.4176  -2.9688   0.00    0.0
2019/02/12 08:50:36.000   4280237.2268  -4034438.4894  -2458280.2131   5  13   4.2567   5.1047   3.0570  -4.2216   3.4696  -3.0939   0.00    0.0
2019/02/12 08:50:42.000   4280225.6290  -4034433.5775  -2458265.4280   5  13   4.2050   5.0630   3.1093  -4.1594   3.4175  -3.0800   0.00    0.0
2019/02/12 08:50:43.000   4280238.1073  -4034446.8216  -2458273.4750   5  13   4.5401   5.9975   3.4856  -4.7971   4.1671  -3.4994   0.00    0.0
2019/02/12 08:50:44.000   4280229.4844  -4034425.3703  -2458262.8009   5  14   4.1765   5.0627   2.9995  -4.1578   3.4141  -3.0141   0.00    0.0
2019/02/12 08:50:45.000   4280217.2535  -4034412.4505  -2458258.3955   5  13   4.9766   5.3012   3.0769  -4.6414   3.5685  -3.3076   0.00    0.0
2019/02/12 08:50:50.000   4280219.9507  -4034428.5770  -2458265.3693   5  13   4.5420   5.9977   3.4871  -4.7981   4.1684  -3.5009   0.00    0.0
2019/02/12 08:51:03.000   4280224.8602  -4034410.1325  -2458255.3921   5  12   4.5694   5.1009   3.0589  -4.2119   3.4695  -3.0675   0.00    0.0
2019/02/12 08:51:09.000   4280199.7538  -4034394.1921  -2458250.2497   5  13   4.9454   6.0995   3.4100  -5.1272   4.1443  -3.6572   0.00    0.0
2019/02/12 08:51:15.000   4280187.5302  -4034384.1360  -2458252.4316   5  13   4.5482   5.9979   3.4918  -4.8013   4.1725  -3.5058   0.00    0.0
2019/02/12 08:51:16.000   4280221.3675  -4034416.6180  -2458265.8418   5  13   4.2911   5.0766   3.0011  -4.2076   3.4082  -3.0029   0.00    0.0
2019/02/12 08:51:18.000   4280213.7318  -4034392.0257  -2458260.5212   5  13   4.2638   5.0981   3.0571  -4.2210   3.4680  -3.0955   0.00    0.0
2019/02/12 08:51:21.000   4280216.1221  -4034407.6336  -2458269.8485   5  14   4.1817   5.0567   3.0002  -4.1567   3.4129  -3.0154   0.00    0.0
2019/02/12 08:51:23.000   4280190.5315  -4034385.8451  -2458258.9684   5  13   4.1831   5.1002   3.1791  -4.1642   3.5141  -3.0318   0.00    0.0
2019/02/12 08:51:24.000   4280224.3085  -4034404.1215  -2458271.3977   5  13   4.7591   5.4074   3.5737  -4.6509   3.9203  -3.6747   0.00    0.0
2019/02/12 08:51:25.000   4280223.9267  -4034398.9101  -2458269.1939   5  13   4.2648   5.0969   3.0571  -4.2207   3.4676  -3.0957   0.00    0.0
2019/02/12 08:51:29.000   4280227.9103  -4034423.3032  -2458273.7333   5  13   4.2654   5.0961   3.0570  -4.2206   3.4674  -3.0957   0.00    0.0
2019/02/12 08:51:30.000   4280232.5958  -4034424.2573  -2458271.1479   5  12   4.5846   5.0959   3.0581  -4.2169   3.4675  -3.0733   0.00    0.0
2019/02/12 08:51:40.000   4280211.9663  -4034421.2414  -2458261.2186   5  13   4.7530   5.3970   3.5680  -4.6416   3.9116  -3.6673   0.00    0.0
2019/02/12 08:51:42.000   4280232.6477  -4034439.5943  -2458278.2962   5  13   4.2672   5.0936   3.0568  -4.2199   3.4664  -3.0958   0.00    0.0
2019/02/12 08:51:43.000   4280225.1204  -4034422.1560  -2458270.7193   5  13   4.2673   5.0934   3.0567  -4.2198   3.4663  -3.0958   0.00    0.0
2019/02/12 08:51:44.000   4280246.1593  -4034452.0041  -2458284.7675   5  12   5.2844   6.0918   3.4106  -5.1649   4.1412  -3.6623   0.00    0.0
2019/02/12 08:51:45.000   4280249.8175  -4034452.5399  -2458276.8966   5  13   4.9462   6.0864   3.4105  -5.1203   4.1404  -3.6566   0.00    0.0
2019/02/12 08:51:48.000   4280222.5187  -4034428.3656  -2458263.6763   5  12   4.5189   5.0518   3.1036  -4.1432   3.4096  -3.0518   0.00    0.0
2019/02/12 08:51:49.000   4280223.0729  -4034418.4462  -2458263.2256   5  12   4.5356   5.1334   3.0178  -4.0726   3.3712  -3.0165   0.00    0.0
2019/02/12 08:51:53.000   4280225.2690  -4034412.9408  -2458263.0861   5  12   4.5973   5.0913   3.0572  -4.2207   3.4654  -3.0778   0.00    0.0
2019/02/12 08:52:00.000   4280239.1544  -4034430.8803  -2458267.0100   5  13   4.1865   5.0877   3.1712  -4.1586   3.5035  -3.0257   0.00    0.0
2019/02/12 08:52:02.000   4280225.6103  -4034404.9135  -2458262.7160   5  12   4.2814   5.0911   3.1351  -4.2134   3.4510  -3.1312   0.00    0.0
2019/02/12 08:52:03.000   4280226.8301  -4034416.4077  -2458263.2345   5  13   4.2698   5.0891   3.0561  -4.2184   3.4646  -3.0956   0.00    0.0
2019/02/12 08:52:04.000   4280240.8218  -4034440.0736  -2458279.5707   5  13   4.2030   5.2456   3.2682  -4.2173   3.6711  -3.0946   0.00    0.0
2019/02/12 08:52:05.000   4280227.7979  -4034427.5674  -2458271.5595   5  14   4.1866   5.0479   3.0000  -4.1537   3.4099  -3.0155   0.00    0.0
2019/02/12 08:52:06.000   4280231.8821  -4034434.8611  -2458274.5476   5  14   4.1867   5.0477   3.0000  -4.1536   3.4098  -3.0155   0.00    0.0
2019/02/12 08:52:08.000   4280219.8118  -4034415.8630  -2458273.0489   5  12   4.3211   5.1572   3.0784  -4.1515   3.4187  -3.1349   0.00    0.0
2019/02/12 08:52:09.000   4280218.3267  -4034422.8980  -2458271.3143   5  14   4.1869   5.0470   2.9999  -4.1533   3.4096  -3.0154   0.00    0.0
2019/02/12 08:52:10.000   4280217.1873  -4034416.1884  -2458280.3102   5  12   4.2819   5.0895   3.1340  -4.2125   3.4497  -3.1303   0.00    0.0
2019/02/12 08:52:11.000   4280202.5494  -4034397.3794  -2458251.1252   5  12   4.3217   5.1561   3.0785  -4.1512   3.4183  -3.1351   0.00    0.0
2019/02/12 08:52:14.000   4280210.5964  -4034405.6459  -2458261.7566   5  14   4.1874   5.0459   2.9998  -4.1529   3.4091  -3.0153   0.00    0.0
2019/02/12 08:52:29.000   4280217.9852  -4034419.0465  -2458270.0549   5  13   4.2108   5.0426   3.0970  -4.1487   3.4019  -3.0696   0.00    0.0
2019/02/12 08:52:30.000   4280215.8483  -4034406.3487  -2458270.0528   5  13   4.2726   5.0827   3.0550  -4.2158   3.4616  -3.0949   0.00    0.0
2019/02/12 08:52:32.000   4280206.6745  -4034414.1064  -2458260.3267   5  14   4.1888   5.0416   2.9994  -4.1510   3.4073  -3.0148   0.00    0.0
2019/02/12 08:52:33.000   4280224.7452  -4034424.8049  -2458269.7126   5  13   4.5630   5.9918   3.5028  -4.8051   4.1794  -3.5161   0.00    0.0
2019/02/12 08:52:34.000   4280234.7409  -4034418.2107  -2458265.4323   5  13   4.2730   5.0817   3.0548  -4.2153   3.4612  -3.0947   0.00    0.0
2019/02/12 08:52:35.000   4280225.9011  -4034426.2902  -2458275.5662   5  13   4.5101   5.0408   3.0005  -4.1498   3.4070  -2.9908   0.00    0.0
2019/02/12 08:52:36.000   4280237.4394  -4034435.5574  -2458274.5326   5  13   4.2731   5.0812   3.0547  -4.2151   3.4609  -3.0946   0.00    0.0
2019/02/12 08:52:38.000   4280208.8209  -4034400.9016  -2458260.5587   5  14   4.1893   5.0401   2.9992  -4.1502   3.4066  -3.0146   0.00    0.0
2019/02/12 08:52:44.000   4280223.6605  -4034417.9621  -2458259.3150   5  14   4.1896   5.0386   2.9990  -4.1495   3.4059  -3.0143   0.00    0.0
2019/02/12 08:52:49.000   4280225.6152  -4034421.6416  -2458263.3976   5  12   4.2744   5.1126   3.2187  -4.2165   3.5457  -3.1010   0.00    0.0
2019/02/12 08:52:51.000   4280253.0506  -4034437.4923  -2458272.8924   5  12   4.8771   5.4306   3.6517  -4.7198   3.9777  -3.7782   0.00    0.0
2019/02/12 08:52:55.000   4280219.8304  -4034416.5207  -2458263.7993   5  14   4.1903   5.0357   2.9985  -4.1480   3.4045  -3.0138   0.00    0.0
2019/02/12 08:52:58.000   4280229.2669  -4034417.1840  -2458275.5974   5  13   4.7202   5.3427   3.5373  -4.5919   3.8656  -3.6276   0.00    0.0
2019/02/12 08:52:59.000   4280230.2428  -4034413.5759  -2458267.6156   5  13   4.5206   5.0346   2.9991  -4.1517   3.4038  -2.9940   0.00    0.0
2019/02/12 08:53:04.000   4280200.9629  -4034410.9709  -2458262.7800   5  14   4.1908   5.0332   2.9981  -4.1468   3.4033  -3.0133   0.00    0.0
2019/02/12 08:53:08.000   4280208.5376  -4034413.0242  -2458271.1754   5  13   4.2367   5.1037   3.0181  -4.0819   3.3588  -3.0488   0.00    0.0
2019/02/12 08:53:10.000   4280231.3761  -4034424.7190  -2458271.5950   5  13   4.2932   5.0470   2.9995  -4.1899   3.3966  -2.9972   0.00    0.0
2019/02/12 08:53:11.000   4280213.5975  -4034401.0161  -2458267.3876   5  12   5.1106   5.3146   3.1335  -4.7090   3.6151  -3.3981   0.00    0.0
2019/02/12 08:53:14.000   4280213.0094  -4034396.2247  -2458259.4754   5  12   4.6027   5.9858   3.5182  -4.8106   4.1840  -3.5416   0.00    0.0
2019/02/12 08:53:17.000   4280207.5062  -4034394.7435  -2458266.7915   5  13   4.2930   5.0448   2.9992  -4.1884   3.3956  -2.9965   0.00    0.0
2019/02/12 08:53:21.000   4280213.7319  -4034392.4205  -2458258.4727   5  12   4.2857   5.1077   3.0567  -4.2301   3.4383  -3.0837   0.00    0.0
2019/02/12 08:53:28.000   4280205.9867  -4034375.2820  -2458246.4832   5  12   4.7392   5.0434   2.9996  -4.2213   3.3921  -2.9694   0.00    0.0
2019/02/12 08:53:33.000   4280234.4832  -4034419.1491  -2458275.8596   5  12   4.6483   5.0664   3.0506  -4.2321   3.4524  -3.0935   0.00    0.0
2019/02/12 08:53:36.000   4280230.0166  -4034411.4593  -2458270.4769   5  12   4.5680   5.0830   2.9968  -4.2033   3.3938  -2.9948   0.00    0.0
2019/02/12 08:53:37.000   4280216.3353  -4034407.7620  -2458270.8070   5  12   5.5531   5.3894   3.6203  -4.8478   3.9383  -3.9366   0.00    0.0
2019/02/12 08:53:40.000   4280240.2507  -4034441.6778  -2458277.5059   5  12   4.6890   6.3145   3.1352  -4.9939   3.8274  -3.3081   0.00    0.0
2019/02/12 08:53:41.000   4280206.5852  -4034405.8268  -2458263.2697   5  13   4.2772   5.0625   3.0499  -4.2055   3.4508  -3.0900   0.00    0.0
2019/02/12 08:53:46.000   4280228.2968  -4034437.7462  -2458270.7738   5  13   4.2774   5.0609   3.0494  -4.2046   3.4499  -3.0895   0.00    0.0
2019/02/12 08:53:47.000   4280239.2269  -4034438.8550  -2458270.0437   5  13   4.5407   5.0209   2.9957  -4.1540   3.3963  -2.9994   0.00    0.0
2019/02/12 08:53:48.000   4280229.2788  -4034423.1414  -2458261.5881   5  13   4.5411   5.0206   2.9956  -4.1541   3.3962  -2.9995   0.00    0.0
2019/02/12 08:53:50.000   4280207.8547  -4034409.9989  -2458263.4932   5  13   4.2775   5.0596   3.0490  -4.2038   3.4491  -3.0891   0.00    0.0
2019/02/12 08:53:51.000   4280234.4807  -4034430.8334  -2458275.7361   5  13   4.1923   5.0322   3.1416  -4.1393   3.3452  -3.0080   0.00    0.0
2019/02/12 08:53:54.000   4280234.6063  -4034421.2063  -2458266.0269   5  14   4.1923   5.0182   2.9950  -4.1383   3.3955  -3.0093   0.00    0.0
2019/02/12 08:53:55.000   4280237.4835  -4034424.5900  -2458269.1127   5  13   4.1923   5.0305   3.1423  -4.1384   3.3450  -3.0082   0.00    0.0
2019/02/12 08:54:09.000   4280223.7617  -4034425.5868  -2458266.5606   5  12   4.6651   6.0277   3.7407  -4.8766   4.3031  -3.6861   0.00    0.0
2019/02/12 08:54:13.000   4280221.6808  -4034428.2924  -2458270.7275   5  12   4.2462   5.0748   3.0806  -4.1817   3.3876  -3.0592   0.00    0.0
2019/02/12 08:54:20.000   4280226.4539  -4034416.1387  -2458269.9855   5  12   4.2843   5.0552   3.1113  -4.1911   3.4205  -3.1091   0.00    0.0
2019/02/12 08:54:21.000   4280215.2021  -4034422.9063  -2458262.3865   5  12   4.6706   5.0518   3.0461  -4.2345   3.4438  -3.0987   0.00    0.0
2019/02/12 08:54:22.000   4280219.1733  -4034417.2235  -2458270.3284   5  12   4.5944   6.0847   3.5129  -4.7381   4.1509  -3.5292   0.00    0.0
2019/02/12 08:54:23.000   4280207.8585  -4034410.2625  -2458255.2531   5  12   4.5747   5.9668   3.6814  -4.7935   4.1651  -3.5433   0.00    0.0
2019/02/12 08:54:24.000   4280218.8824  -4034425.0779  -2458273.8819   5  13   4.2781   5.0479   3.0454  -4.1969   3.4421  -3.0851   0.00    0.0
2019/02/12 08:54:25.000   4280210.2733  -4034412.9250  -2458266.3172   5  13   4.2233   5.0721   2.9925  -4.1813   3.3874  -3.0043   0.00    0.0
2019/02/12 08:54:28.000   4280219.8478  -4034420.5336  -2458266.2816   5  14   4.1923   5.0068   2.9921  -4.1313   3.3890  -3.0055   0.00    0.0
2019/02/12 08:54:32.000   4280217.5085  -4034402.7688  -2458260.6750   5  13   4.2781   5.0450   3.0445  -4.1951   3.4404  -3.0840   0.00    0.0
2019/02/12 08:54:40.000   4280218.2789  -4034414.7631  -2458264.5643   5  14   4.1922   5.0025   2.9910  -4.1285   3.3865  -3.0040   0.00    0.0
2019/02/12 08:54:42.000   4280236.1736  -4034441.9893  -2458276.2360   5  13   4.2781   5.0413   3.0433  -4.1927   3.4380  -3.0826   0.00    0.0
2019/02/12 08:54:43.000   4280209.5557  -4034408.2620  -2458266.8344   5  14   4.1921   5.0014   2.9907  -4.1278   3.3858  -3.0036   0.00    0.0
2019/02/12 08:54:45.000   4280208.4213  -4034405.5575  -2458263.0082   5  12   5.3061   6.3218   3.6222  -5.4361   4.3947  -3.9582   0.00    0.0
2019/02/12 08:54:48.000   4280229.9084  -4034422.3475  -2458269.5891   5  12   4.6072   5.9589   3.5191  -4.7965   4.1755  -3.5385   0.00    0.0
2019/02/12 08:54:49.000   4280225.4266  -4034421.2083  -2458271.9683   5  11   4.8930   5.9676   3.5264  -4.7394   4.1843  -3.4848   0.00    0.0
2019/02/12 08:54:50.000   4280221.0324  -4034413.3014  -2458267.1415   5  12   4.6072   5.9582   3.5190  -4.7960   4.1752  -3.5383   0.00    0.0
2019/02/12 08:54:51.000   4280234.4337  -4034422.1051  -2458269.2929   5  11   4.6745   6.0082   3.7316  -4.8593   4.2889  -3.6743   0.00    0.0
2019/02/12 08:54:57.000   4280235.4114  -4034429.6052  -2458271.1105   5  13   4.2779   5.0356   3.0413  -4.1890   3.4344  -3.0803   0.00    0.0
2019/02/12 08:54:59.000   4280227.9984  -4034425.2828  -2458275.9276   5  13   4.2778   5.0348   3.0411  -4.1885   3.4339  -3.0800   0.00    0.0
2019/02/12 08:55:02.000   4280229.3681  -4034422.0767  -2458271.4014   5  14   4.1916   4.9943   2.9887  -4.1231   3.3816  -3.0008   0.00    0.0
2019/02/12 08:55:05.000   4280224.8443  -4034419.4456  -2458269.7873   5  11   5.3761   6.1467   3.5808  -5.2168   4.2932  -3.7886   0.00    0.0
2019/02/12 08:55:06.000   4280236.3433  -4034426.3492  -2458272.1738   5  13   4.2777   5.0321   3.0401  -4.1867   3.4322  -3.0789   0.00    0.0
2019/02/12 08:55:09.000   4280225.1193  -4034401.4704  -2458257.2558   5  13   4.5716   5.9500   3.5080  -4.7851   4.1685  -3.5148   0.00    0.0
2019/02/12 08:55:10.000   4280235.8468  -4034428.2036  -2458275.5929   5  13   4.5715   5.9496   3.5080  -4.7848   4.1683  -3.5147   0.00    0.0
2019/02/12 08:55:12.000   4280229.5225  -4034425.0515  -2458260.4910   5  12   4.6557   5.9969   3.7265  -4.8537   4.2807  -3.6689   0.00    0.0
2019/02/12 08:55:18.000   4280217.4444  -4034403.7493  -2458254.6682   5  13   4.2043   4.9913   3.0662  -4.1117   3.3594  -3.0368   0.00    0.0
2019/02/12 08:55:19.000   4280231.9963  -4034420.2171  -2458261.6245   5  13   4.5750   4.9901   2.9868  -4.1532   3.3780  -3.0055   0.00    0.0
2019/02/12 08:55:23.000   4280212.7316  -4034410.8561  -2458254.3516   5  13   4.2771   5.0252   3.0377  -4.1821   3.4277  -3.0760   0.00    0.0
2019/02/12 08:55:24.000   4280198.5131  -4034393.9695  -2458257.3810   5  12   4.6975   5.0300   3.0388  -4.2345   3.4303  -3.1031   0.00    0.0
2019/02/12 08:55:25.000   4280241.7771  -4034426.3049  -2458269.1426   5  12   5.0864   5.2433   3.1051  -4.6490   3.5654  -3.3518   0.00    0.0
2019/02/12 08:55:27.000   4280215.5706  -4034394.8326  -2458252.6061   5  13   4.2770   5.0235   3.0371  -4.1810   3.4266  -3.0753   0.00    0.0
2019/02/12 08:55:29.000   4280212.2984  -4034411.1621  -2458256.6029   5  13   4.2769   5.0227   3.0368  -4.1805   3.4261  -3.0749   0.00    0.0
2019/02/12 08:55:39.000   4280234.5111  -4034433.3322  -2458272.6650   5  12   4.6055   5.9385   3.5162  -4.7833   4.1659  -3.5324   0.00    0.0
2019/02/12 08:55:43.000   4280209.5245  -4034393.7462  -2458261.3917   5  12   5.5145   8.3011   3.9149  -6.3812   5.2370  -4.2072   0.00    0.0
2019/02/12 08:55:44.000   4280221.5801  -4034403.6952  -2458270.3853   5  12   5.5149   8.3014   3.9152  -6.3816   5.2374  -4.2075   0.00    0.0
2019/02/12 08:55:51.000   4280231.0578  -4034419.9911  -2458264.7635   5  12   4.2792   5.0232   3.0906  -4.1675   3.3925  -3.0872   0.00    0.0
2019/02/12 08:55:52.000   4280242.8014  -4034438.5213  -2458274.0211   5  13   4.2008   4.9783   3.0585  -4.1015   3.3484  -3.0279   0.00    0.0
2019/02/12 08:55:53.000   4280220.5513  -4034415.5839  -2458263.2503   5  13   4.2756   5.0124   3.0331  -4.1734   3.4193  -3.0703   0.00    0.0
2019/02/12 08:55:54.000   4280226.8866  -4034434.4006  -2458269.3366   5  12   4.2790   5.0220   3.0898  -4.1666   3.3915  -3.0864   0.00    0.0
2019/02/12 08:55:55.000   4280245.2857  -4034464.5601  -2458287.8362   5  13   4.5689   5.9304   3.5053  -4.7723   4.1590  -3.5090   0.00    0.0
2019/02/12 08:55:56.000   4280217.3631  -4034407.3248  -2458261.7020   5  13   4.2513   5.0260   3.0135  -4.0429   3.3204  -3.0440   0.00    0.0
2019/02/12 08:56:00.000   4280220.5432  -4034417.5810  -2458264.7114   5  13   4.2752   5.0094   3.0319  -4.1713   3.4172  -3.0689   0.00    0.0
2019/02/12 08:56:02.000   4280221.6616  -4034414.7443  -2458270.2825   5  14   4.1882   4.9699   2.9812  -4.1063   3.3663  -2.9906   0.00    0.0
2019/02/12 08:56:04.000   4280205.9242  -4034404.3488  -2458265.5085   5  13   4.5681   5.9262   3.5046  -4.7695   4.1569  -3.5076   0.00    0.0
2019/02/12 08:56:10.000   4280204.8012  -4034405.2746  -2458270.1344   5  12   4.7160   6.2283   3.5539  -4.9990   4.2905  -3.6045   0.00    0.0
2019/02/12 08:56:11.000   4280187.9268  -4034383.5580  -2458256.1898   5  12   4.7161   6.2282   3.5539  -4.9989   4.2905  -3.6045   0.00    0.0
2019/02/12 08:56:14.000   4280192.2385  -4034372.5202  -2458253.9598   5  13   4.8929   5.9155   3.3733  -4.9973   4.0493  -3.5963   0.00    0.0
2019/02/12 08:56:23.000   4280197.1007  -4034374.3116  -2458247.8719   5  13   4.2735   4.9989   3.0280  -4.1639   3.4102  -3.0640   0.00    0.0
2019/02/12 08:56:24.000   4280195.7638  -4034389.5162  -2458256.4300   5  13   4.8891   5.9069   3.3707  -4.9905   4.0440  -3.5923   0.00    0.0
2019/02/12 08:56:32.000   4280205.1311  -4034403.7382  -2458271.7954   5  12   4.2770   5.0061   3.1461  -4.1532   3.4496  -3.0353   0.00    0.0
2019/02/12 08:56:33.000   4280218.9871  -4034407.8922  -2458270.1127   5  13   4.2727   4.9943   3.0262  -4.1605   3.4070  -3.0617   0.00    0.0
2019/02/12 08:56:34.000   4280217.7412  -4034413.4560  -2458270.0958   5  13   4.6056   5.1676   3.4330  -4.4264   3.7115  -3.4917   0.00    0.0
2019/02/12 08:56:40.000   4280229.1967  -4034427.7117  -2458271.4411   5  13   4.2721   4.9909   3.0249  -4.1581   3.4047  -3.0601   0.00    0.0
2019/02/12 08:56:41.000   4280238.4382  -4034441.9483  -2458282.5460   5  13   4.2720   4.9905   3.0247  -4.1578   3.4044  -3.0598   0.00    0.0
2019/02/12 08:56:42.000   4280224.3422  -4034422.4073  -2458259.7383   5  13   4.2723   4.9613   2.9791  -4.1254   3.3477  -2.9604   0.00    0.0
2019/02/12 08:56:45.000   4280238.8408  -4034428.7513  -2458265.8697   5  12   4.7281   4.9977   3.0272  -4.2295   3.4093  -3.1049   0.00    0.0
2019/02/12 08:56:47.000   4280243.9766  -4034424.1835  -2458266.2292   5  12   5.0639   5.1911   3.0830  -4.6027   3.5275  -3.3155   0.00    0.0
2019/02/12 08:56:48.000   4280199.7646  -4034376.9057  -2458248.6687   5  12   4.7317   6.3111   3.1280  -5.0141   3.8310  -3.3145   0.00    0.0
2019/02/12 08:56:50.000   4280245.4938  -4034448.8657  -2458276.8468   5  12   4.5983   5.9036   3.5084  -4.7587   4.1469  -3.5189   0.00    0.0
2019/02/12 08:56:54.000   4280210.4730  -4034407.6537  -2458255.1676   5  13   4.2707   4.9842   3.0222  -4.1532   3.4000  -3.0567   0.00    0.0
2019/02/12 08:56:55.000   4280213.3709  -4034416.0672  -2458262.8678   5  12   4.7340   5.2155   3.5130  -4.5152   3.7831  -3.6057   0.00    0.0
2019/02/12 08:56:56.000   4280204.7471  -4034400.9978  -2458259.8399   5  12   4.7333   5.2145   3.5124  -4.5143   3.7823  -3.6049   0.00    0.0
2019/02/12 08:56:57.000   4280206.8262  -4034398.2602  -2458263.2413   5  12   4.7327   5.2136   3.5118  -4.5133   3.7814  -3.6041   0.00    0.0
2019/02/12 08:56:58.000   4280231.9509  -4034428.8279  -2458276.4310   5  13   4.2703   4.9822   3.0215  -4.1518   3.3987  -3.0557   0.00    0.0
2019/02/12 08:56:59.000   4280251.0999  -4034448.2958  -2458288.4719   5  12   4.7313   5.2117   3.5105  -4.5115   3.7796  -3.6025   0.00    0.0
2019/02/12 08:57:01.000   4280217.0458  -4034413.3754  -2458270.1311   5  12   5.2475   6.1890   3.5749  -5.3323   4.3089  -3.8940   0.00    0.0
2019/02/12 08:57:03.000   4280192.4619  -4034391.4360  -2458254.3548   5  12   4.5965   5.8964   3.5065  -4.7535   4.1428  -3.5158   0.00    0.0
2019/02/12 08:57:04.000   4280193.6140  -4034380.9122  -2458249.8094   5  12   4.2755   4.9884   3.1343  -4.1415   3.4335  -3.0236   0.00    0.0
2019/02/12 08:57:11.000   4280233.1864  -4034416.4906  -2458268.0905   5  14   4.1815   4.9382   2.9705  -4.0833   3.3454  -2.9757   0.00    0.0
2019/02/12 08:57:12.000   4280209.1248  -4034393.4109  -2458258.3591   5  14   4.1814   4.9377   2.9703  -4.0829   3.3451  -2.9754   0.00    0.0
2019/02/12 08:57:13.000   4280219.6757  -4034401.3304  -2458267.0466   5  13   4.1899   4.9444   3.0382  -4.0738   3.3193  -3.0040   0.00    0.0
2019/02/12 08:57:14.000   4280205.4284  -4034407.4263  -2458262.4999   5  13   4.1897   4.9439   3.0380  -4.0734   3.3189  -3.0036   0.00    0.0
2019/02/12 08:57:21.000   4280207.5382  -4034406.0091  -2458262.7318   5  14   4.1803   4.9333   2.9687  -4.0796   3.3421  -2.9733   0.00    0.0
2019/02/12 08:57:23.000   4280189.0410  -4034378.4516  -2458252.6120   5  12   4.7153   5.1886   3.4953  -4.4890   3.7583  -3.5833   0.00    0.0
2019/02/12 08:57:27.000   4280191.5759  -4034393.6777  -2458258.6129   5  12   5.2331   6.1600   3.5637  -5.3087   4.2893  -3.8788   0.00    0.0
2019/02/12 08:57:28.000   4280211.4320  -4034408.0004  -2458267.7786   5  12   4.5924   5.8819   3.5024  -4.7428   4.1342  -3.5094   0.00    0.0
2019/02/12 08:57:33.000   4280236.8518  -4034434.4427  -2458273.1352   5  12   5.0489   5.1593   3.0692  -4.5738   3.5040  -3.2927   0.00    0.0
2019/02/12 08:57:36.000   4280193.1885  -4034393.7144  -2458259.8085   5  12   5.2280   6.1497   3.5597  -5.3003   4.2823  -3.8733   0.00    0.0
2019/02/12 08:57:37.000   4280178.8052  -4034380.7395  -2458241.3498   5  13   4.2657   4.9625   3.0135  -4.1371   3.3848  -3.0456   0.00    0.0
2019/02/12 08:57:38.000   4280221.7043  -4034418.9126  -2458267.3091   5  13   4.2656   4.9619   3.0133  -4.1367   3.3844  -3.0453   0.00    0.0
2019/02/12 08:57:39.000   4280237.8559  -4034459.4467  -2458287.8017   5  12   4.7364   6.2999   3.1220  -5.0102   3.8243  -3.3098   0.00    0.0
2019/02/12 08:57:40.000   4280212.5219  -4034422.8350  -2458273.4602   5  13   4.2653   4.9609   3.0129  -4.1359   3.3837  -3.0447   0.00    0.0
2019/02/12 08:57:41.000   4280224.1106  -4034425.3888  -2458271.6622   5  12   5.0462   5.1536   3.0667  -4.5686   3.4997  -3.2885   0.00    0.0
2019/02/12 08:57:42.000   4280206.9847  -4034415.6507  -2458270.4803   5  13   4.2651   4.9598   3.0125  -4.1351   3.3829  -3.0442   0.00    0.0
2019/02/12 08:57:43.000   4280224.1948  -4034422.2075  -2458267.4368   5  13   4.2649   4.9593   3.0123  -4.1347   3.3825  -3.0439   0.00    0.0
2019/02/12 08:57:44.000   4280211.5309  -4034403.9231  -2458256.8054   5  12   4.7476   4.9713   3.0172  -4.2223   3.3914  -3.1034   0.00    0.0
2019/02/12 08:57:45.000   4280256.9487  -4034442.6356  -2458283.5549   5  12   5.2227   6.1392   3.5556  -5.2918   4.2753  -3.8677   0.00    0.0
2019/02/12 08:57:46.000   4280242.3012  -4034433.1057  -2458269.6382   5  12   5.2221   6.1381   3.5551  -5.2908   4.2745  -3.8671   0.00    0.0
2019/02/12 08:57:47.000   4280240.6182  -4034440.2945  -2458281.0985   5  12   4.2656   4.9736   3.0592  -4.1282   3.3487  -3.0515   0.00    0.0
2019/02/12 08:57:56.000   4280238.6299  -4034427.1740  -2458278.3348   5  14   4.1755   4.9156   2.9623  -4.0662   3.3300  -2.9642   0.00    0.0
2019/02/12 08:58:00.000   4280221.8445  -4034398.2661  -2458261.8575   5  13   4.5504   5.8616   3.4889  -4.7230   4.1200  -3.4812   0.00    0.0
2019/02/12 08:58:03.000   4280216.8212  -4034406.2593  -2458264.3527   5  14   4.1745   4.9120   2.9610  -4.0634   3.3275  -2.9624   0.00    0.0
2019/02/12 08:58:06.000   4280225.0245  -4034425.1648  -2458272.9741   5  13   4.1844   4.9156   3.0641  -4.0540   3.3531  -2.9218   0.00    0.0
2019/02/12 08:58:10.000   4280231.6551  -4034432.8872  -2458272.6452   5  12   5.2075   6.1097   3.5439  -5.2675   4.2550  -3.8517   0.00    0.0
2019/02/12 08:58:11.000   4280215.6179  -4034414.9121  -2458263.1255   5  13   4.2610   4.9443   3.0061  -4.1232   3.3718  -3.0358   0.00    0.0
2019/02/12 08:58:13.000   4280205.5484  -4034396.1755  -2458255.0159   5  13   4.2513   4.9481   3.0014  -3.9950   3.2752  -3.0278   0.00    0.0
2019/02/12 08:58:14.000   4280224.5372  -4034413.6628  -2458272.9788   5  13   4.2543   4.9133   2.9639  -4.0859   3.3165  -2.9349   0.00    0.0
2019/02/12 08:58:16.000   4280208.3719  -4034404.6830  -2458263.4111   5  14   4.1725   4.9051   2.9584  -4.0581   3.3227  -2.9588   0.00    0.0
2019/02/12 08:58:20.000   4280211.7716  -4034405.8578  -2458265.6886   5  14   4.1718   4.9030   2.9576  -4.0565   3.3212  -2.9576   0.00    0.0
2019/02/12 08:58:22.000   4280218.5697  -4034418.9134  -2458263.1262   5  13   4.6543   6.2536   3.0692  -4.9461   3.7703  -3.2310   0.00    0.0
2019/02/12 08:58:23.000   4280206.8795  -4034403.6969  -2458262.8323   5  14   4.1713   4.9014   2.9570  -4.0552   3.3201  -2.9568   0.00    0.0
2019/02/12 08:58:24.000   4280222.7269  -4034418.8711  -2458272.5499   5  13   4.5451   5.8460   3.4843  -4.7112   4.1104  -3.4740   0.00    0.0
2019/02/12 08:58:28.000   4280194.7345  -4034390.9838  -2458253.0087   5  11   5.2934   5.9911   3.5299  -5.0718   4.1941  -3.6850   0.00    0.0
2019/02/12 08:58:34.000   4280229.9444  -4034430.2982  -2458268.2831   5  13   4.5428   5.8392   3.4823  -4.7061   4.1062  -3.4708   0.00    0.0
2019/02/12 08:58:35.000   4280218.0727  -4034429.6716  -2458261.9071   5  13   4.1753   4.9058   3.0154  -4.0412   3.2857  -2.9759   0.00    0.0
2019/02/12 08:58:37.000   4280207.0063  -4034399.0458  -2458255.0626   5  13   4.6541   6.2485   3.0671  -4.9432   3.7671  -3.2287   0.00    0.0
2019/02/12 08:58:38.000   4280203.6226  -4034407.9077  -2458251.3312   5  14   4.1689   4.8933   2.9540  -4.0489   3.3144  -2.9524   0.00    0.0
2019/02/12 08:58:42.000   4280214.6226  -4034414.3931  -2458258.6038   5  13   4.6312   4.9016   2.9566  -4.1266   3.3198  -3.0000   0.00    0.0
2019/02/12 08:58:43.000   4280222.1776  -4034427.3142  -2458264.4974   5  13   4.6314   4.9011   2.9564  -4.1264   3.3195  -2.9999   0.00    0.0
2019/02/12 08:58:44.000   4280205.7770  -4034410.5032  -2458262.4134   5  13   4.8752   5.0490   2.9889  -4.4218   3.3989  -3.1431   0.00    0.0
2019/02/12 08:58:45.000   4280199.5409  -4034395.3348  -2458252.2512   5  13   4.2555   4.9253   2.9981  -4.1085   3.3580  -3.0254   0.00    0.0
2019/02/12 08:58:46.000   4280190.2921  -4034377.3652  -2458246.3923   5  12   5.1843   6.0657   3.5261  -5.2309   4.2246  -3.8273   0.00    0.0
