% program   : RTKPOST ver.2.4.2
% inp file  : D:\Google Drive\UERJ\_Projeto Final\Python\tcc-guilherme\20190212_Sta91500.19o
% inp file  : D:\Google Drive\UERJ\_Projeto Final\20190212_Marco91500 IBGE\riod0431.19o
% inp file  : D:\Google Drive\UERJ\_Projeto Final\20190212_Marco91500 IBGE\brdm0430.19p
% obs start : 2019/02/12 08:38:50.0 GPST (week2040 203930.0s)
% obs end   : 2019/02/12 10:17:44.0 GPST (week2040 209864.0s)
% pos mode  : dgps
% freqs     : L1
% solution  : forward
% elev mask : 15.0 deg
% dynamics  : off
% tidecorr  : off
% ionos opt : broadcast
% tropo opt : saastamoinen
% ephemeris : broadcast
% navi sys  : gps glonass galileo
% antenna1  :                       ( 0.0000  0.0000  0.0000)
% antenna2  :                       ( 0.0000  0.0000  0.0080)
% ref pos   :  4280294.8840  -4034431.2298  -2458141.3831
%
% (x/y/z-ecef=WGS84,Q=1:fix,2:float,3:sbas,4:dgps,5:single,6:ppp,ns=# of satellites)
%  GPST                      x-ecef(m)      y-ecef(m)      z-ecef(m)   Q  ns   sdx(m)   sdy(m)   sdz(m)  sdxy(m)  sdyz(m)  sdzx(m) age(s)  ratio
2019/02/12 08:38:56.000   4280210.7641  -4034406.8410  -2458266.1667   4   7   1.5482   1.9957   1.4213  -1.4512   1.5752  -1.1095  11.00    0.0
2019/02/12 08:39:03.000   4280213.5282  -4034401.2578  -2458267.9042   4   8   1.3425   1.9470   1.4115  -1.3331   1.5533  -1.0596   3.00    0.0
2019/02/12 08:39:37.000   4280233.4246  -4034436.8071  -2458276.3078   4   7   1.5530   1.9750   1.4027  -1.4434   1.5542  -1.0990   7.00    0.0
2019/02/12 08:39:47.000   4280216.8323  -4034410.8319  -2458254.9002   4   9   1.2652   1.4645   1.0725  -1.0883   1.1118  -0.8347   2.00    0.0
2019/02/12 08:40:47.000   4280226.0996  -4034426.3989  -2458272.2525   4  10   1.2259   1.4065   0.9596  -1.0267   1.0201  -0.7314   2.00    0.0
2019/02/12 08:40:49.000   4280206.5079  -4034420.5372  -2458264.7083   4   9   1.2727   1.4549   1.0600  -1.0869   1.0991  -0.8297   4.00    0.0
2019/02/12 08:41:05.000   4280230.5535  -4034417.1624  -2458268.3247   4  10   1.2287   1.4047   0.9568  -1.0273   1.0175  -0.7307   5.00    0.0
2019/02/12 08:41:08.000   4280227.9822  -4034417.5960  -2458276.7655   4  10   1.2292   1.4045   0.9564  -1.0274   1.0171  -0.7307   8.00    0.0
2019/02/12 08:41:17.000   4280211.0047  -4034403.5862  -2458257.5861   4  11   1.2258   1.4033   0.9497  -1.0285   1.0166  -0.7229   2.00    0.0
2019/02/12 08:41:22.000   4280232.6746  -4034429.7367  -2458273.6818   4  11   1.2266   1.4029   0.9490  -1.0287   1.0159  -0.7228   7.00    0.0
2019/02/12 08:41:43.000   4280240.5687  -4034432.3673  -2458269.8760   4   9   1.2797   1.4469   1.0496  -1.0859   1.0884  -0.8255  13.00    0.0
2019/02/12 08:41:58.000   4280220.3966  -4034420.8855  -2458266.7461   4  10   1.2793   1.4434   1.0457  -1.0877   1.0867  -0.8221  13.00    0.0
2019/02/12 08:42:06.000   4280214.1688  -4034408.0775  -2458264.4143   4   7   1.9044   2.3155   1.3550  -1.8506   1.6630  -1.2685   6.00    0.0
2019/02/12 08:42:08.000   4280212.7517  -4034414.4911  -2458262.5149   4  11   1.2332   1.3984   0.9425  -1.0304   1.0095  -0.7211   8.00    0.0
2019/02/12 08:42:36.000   4280218.8602  -4034411.3792  -2458259.0933   4  11   1.1065   1.3841   0.9402  -0.9791   0.9980  -0.6990   6.00    0.0
2019/02/12 08:42:38.000   4280227.5469  -4034432.3731  -2458270.7765   4  10   1.2058   1.3890   0.9448  -1.0077   0.9921  -0.6656   8.00    0.0
2019/02/12 08:42:44.000   4280208.5834  -4034401.9981  -2458260.2480   4  10   1.2069   1.3887   0.9440  -1.0082   0.9914  -0.6656  14.00    0.0
2019/02/12 08:42:49.000   4280224.2408  -4034418.3546  -2458276.4723   4  10   1.2589   1.3300   0.8136  -1.0734   0.8898  -0.7768   4.00    0.0
2019/02/12 08:43:15.000   4280211.6405  -4034421.6021  -2458260.1155   5  14  30.0000  30.0000  30.0000   0.0000   0.0000   0.0000  -0.00    0.0
2019/02/12 08:43:17.000   4280228.7270  -4034420.3150  -2458269.9139   5  14  30.0000  30.0000  30.0000   0.0000   0.0000   0.0000   2.00    0.0
2019/02/12 08:43:26.000   4280194.7108  -4034393.1654  -2458256.1531   5  13  30.0000  30.0000  30.0000   0.0000   0.0000   0.0000  11.00    0.0
2019/02/12 08:43:29.000   4280210.4527  -4034409.2856  -2458265.6724   5  12  30.0000  30.0000  30.0000   0.0000   0.0000   0.0000  14.00    0.0
2019/02/12 08:43:58.000   4280227.3112  -4034410.2901  -2458273.3013   5  14  30.0000  30.0000  30.0000   0.0000   0.0000   0.0000  13.00    0.0
2019/02/12 08:43:59.000   4280215.4389  -4034399.3766  -2458261.8295   5  14  30.0000  30.0000  30.0000   0.0000   0.0000   0.0000  14.00    0.0
2019/02/12 08:44:02.000   4280208.8341  -4034411.1653  -2458263.9432   5  14  30.0000  30.0000  30.0000   0.0000   0.0000   0.0000   2.00    0.0
2019/02/12 08:44:07.000   4280232.4001  -4034416.0463  -2458269.6196   5  14  30.0000  30.0000  30.0000   0.0000   0.0000   0.0000   7.00    0.0
2019/02/12 08:44:25.000   4280226.9912  -4034415.6596  -2458267.3810   5  14  30.0000  30.0000  30.0000   0.0000   0.0000   0.0000  10.00    0.0
2019/02/12 08:44:37.000   4280202.4754  -4034387.2649  -2458253.8736   5  14  30.0000  30.0000  30.0000   0.0000   0.0000   0.0000   7.00    0.0
2019/02/12 08:44:58.000   4280219.8217  -4034414.8588  -2458265.7518   5  13  30.0000  30.0000  30.0000   0.0000   0.0000   0.0000  13.00    0.0
2019/02/12 08:45:03.000   4280220.0018  -4034422.3039  -2458267.8521   5  14  30.0000  30.0000  30.0000   0.0000   0.0000   0.0000   3.00    0.0
2019/02/12 08:45:04.000   4280209.3458  -4034399.6407  -2458257.0070   5  14  30.0000  30.0000  30.0000   0.0000   0.0000   0.0000   4.00    0.0
2019/02/12 08:45:12.000   4280236.1475  -4034421.4979  -2458271.4554   5  14  30.0000  30.0000  30.0000   0.0000   0.0000   0.0000  12.00    0.0
2019/02/12 08:45:32.000   4280208.9636  -4034407.1935  -2458263.0454   5  14  30.0000  30.0000  30.0000   0.0000   0.0000   0.0000   2.00    0.0
2019/02/12 08:45:33.000   4280220.8875  -4034426.5717  -2458272.3160   5  14  30.0000  30.0000  30.0000   0.0000   0.0000   0.0000   3.00    0.0
2019/02/12 08:45:51.000   4280225.5087  -4034424.2627  -2458264.5733   5  14  30.0000  30.0000  30.0000   0.0000   0.0000   0.0000   6.00    0.0
2019/02/12 08:46:14.000   4280211.6286  -4034401.0556  -2458253.3108   5  14  30.0000  30.0000  30.0000   0.0000   0.0000   0.0000  14.00    0.0
2019/02/12 08:46:30.000   4280216.3312  -4034404.1326  -2458265.7536   5  13  30.0000  30.0000  30.0000   0.0000   0.0000   0.0000  -0.00    0.0
2019/02/12 08:46:55.000   4280205.5891  -4034410.1401  -2458265.7522   5  14  30.0000  30.0000  30.0000   0.0000   0.0000   0.0000  10.00    0.0
2019/02/12 08:47:04.000   4280221.7975  -4034418.9090  -2458266.6006   5  14  30.0000  30.0000  30.0000   0.0000   0.0000   0.0000   4.00    0.0
2019/02/12 08:47:09.000   4280232.5890  -4034427.9487  -2458269.6057   5  14  30.0000  30.0000  30.0000   0.0000   0.0000   0.0000   9.00    0.0
2019/02/12 08:47:37.000   4280226.0158  -4034438.5497  -2458276.2583   5  14  30.0000  30.0000  30.0000   0.0000   0.0000   0.0000   7.00    0.0
2019/02/12 08:47:39.000   4280211.1081  -4034409.1164  -2458264.7871   5  14  30.0000  30.0000  30.0000   0.0000   0.0000   0.0000   9.00    0.0
2019/02/12 08:48:03.000   4280229.6697  -4034426.6745  -2458274.9634   5  14  30.0000  30.0000  30.0000   0.0000   0.0000   0.0000   3.00    0.0
2019/02/12 08:48:14.000   4280213.0170  -4034406.1899  -2458260.9041   5  14  30.0000  30.0000  30.0000   0.0000   0.0000   0.0000  14.00    0.0
2019/02/12 08:48:18.000   4280217.3179  -4034402.6227  -2458262.3658   5  14  30.0000  30.0000  30.0000   0.0000   0.0000   0.0000   3.00    0.0
2019/02/12 08:48:23.000   4280207.0731  -4034391.1507  -2458254.8283   5  14  30.0000  30.0000  30.0000   0.0000   0.0000   0.0000   8.00    0.0
2019/02/12 08:48:49.000   4280254.0450  -4034458.4902  -2458285.5321   5  14  30.0000  30.0000  30.0000   0.0000   0.0000   0.0000   4.00    0.0
2019/02/12 08:49:04.000   4280228.8014  -4034426.2372  -2458270.5543   5  14  30.0000  30.0000  30.0000   0.0000   0.0000   0.0000   4.00    0.0
2019/02/12 08:49:05.000   4280223.1425  -4034410.1789  -2458262.7461   5  14  30.0000  30.0000  30.0000   0.0000   0.0000   0.0000   5.00    0.0
2019/02/12 08:49:06.000   4280208.9965  -4034393.7905  -2458259.5596   5  14  30.0000  30.0000  30.0000   0.0000   0.0000   0.0000   6.00    0.0
2019/02/12 08:49:11.000   4280201.1704  -4034387.1582  -2458251.3965   5  14  30.0000  30.0000  30.0000   0.0000   0.0000   0.0000  11.00    0.0
2019/02/12 08:49:18.000   4280236.4043  -4034430.2637  -2458274.9117   5  13  30.0000  30.0000  30.0000   0.0000   0.0000   0.0000   3.00    0.0
2019/02/12 08:49:23.000   4280238.7358  -4034429.3285  -2458276.4163   5  14  30.0000  30.0000  30.0000   0.0000   0.0000   0.0000   8.00    0.0
2019/02/12 08:49:44.000   4280238.2781  -4034439.1067  -2458265.3119   5  14  30.0000  30.0000  30.0000   0.0000   0.0000   0.0000  14.00    0.0
2019/02/12 08:50:11.000   4280192.0074  -4034379.9148  -2458244.4779   4  12   1.1585   1.3025   0.7609  -1.0168   0.8579  -0.7331  11.00    0.0
2019/02/12 08:50:26.000   4280221.6415  -4034416.2808  -2458270.5195   4  12   1.1600   1.3028   0.7610  -1.0179   0.8582  -0.7342  11.00    0.0
2019/02/12 08:50:44.000   4280229.4844  -4034425.3703  -2458262.8009   5  14  30.0000  30.0000  30.0000   0.0000   0.0000   0.0000  14.00    0.0
2019/02/12 08:51:21.000   4280216.1221  -4034407.6336  -2458269.8485   5  14  30.0000  30.0000  30.0000   0.0000   0.0000   0.0000   6.00    0.0
2019/02/12 08:51:29.000   4280227.9103  -4034423.3032  -2458273.7333   5  13  30.0000  30.0000  30.0000   0.0000   0.0000   0.0000  14.00    0.0
2019/02/12 08:52:05.000   4280227.7979  -4034427.5674  -2458271.5595   5  14  30.0000  30.0000  30.0000   0.0000   0.0000   0.0000   5.00    0.0
2019/02/12 08:52:06.000   4280231.8821  -4034434.8611  -2458274.5476   5  14  30.0000  30.0000  30.0000   0.0000   0.0000   0.0000   6.00    0.0
2019/02/12 08:52:09.000   4280218.3267  -4034422.8980  -2458271.3143   5  14  30.0000  30.0000  30.0000   0.0000   0.0000   0.0000   9.00    0.0
2019/02/12 08:52:14.000   4280210.5964  -4034405.6459  -2458261.7566   5  14  30.0000  30.0000  30.0000   0.0000   0.0000   0.0000  14.00    0.0
2019/02/12 08:52:32.000   4280212.0770  -4034409.2960  -2458255.1246   4  10   1.2082   1.5410   0.9886  -1.0834   1.1062  -0.7636   2.00    0.0
2019/02/12 08:52:38.000   4280204.9880  -4034396.4780  -2458260.2847   4  11   1.1875   1.3349   0.8664  -0.9996   0.9258  -0.6891   8.00    0.0
2019/02/12 08:52:44.000   4280223.9642  -4034417.5323  -2458258.6471   4  10   1.2101   1.5389   0.9867  -1.0833   1.1039  -0.7630  14.00    0.0
2019/02/12 08:52:55.000   4280219.8304  -4034416.5207  -2458263.7993   5  14  30.0000  30.0000  30.0000   0.0000   0.0000   0.0000  10.00    0.0
2019/02/12 08:53:04.000   4280200.9629  -4034410.9709  -2458262.7800   5  14  30.0000  30.0000  30.0000   0.0000   0.0000   0.0000   4.00    0.0
2019/02/12 08:53:41.000   4280206.5852  -4034405.8268  -2458263.2697   5  13  30.0000  30.0000  30.0000   0.0000   0.0000   0.0000  11.00    0.0
2019/02/12 08:53:46.000   4280228.2968  -4034437.7462  -2458270.7738   5  13  30.0000  30.0000  30.0000   0.0000   0.0000   0.0000   1.00    0.0
2019/02/12 08:53:50.000   4280207.8547  -4034409.9989  -2458263.4932   5  13  30.0000  30.0000  30.0000   0.0000   0.0000   0.0000   5.00    0.0
2019/02/12 08:53:54.000   4280234.6063  -4034421.2063  -2458266.0269   5  14  30.0000  30.0000  30.0000   0.0000   0.0000   0.0000   9.00    0.0
2019/02/12 08:54:28.000   4280219.1408  -4034422.8872  -2458267.5102   4   8   1.2537   1.7054   1.6777  -1.1281   1.4898  -0.8367  13.00    0.0
2019/02/12 08:54:40.000   4280219.7782  -4034419.2919  -2458268.4209   4   9   1.3976   1.5217   0.9669  -1.1198   1.0804  -0.7593  10.00    0.0
2019/02/12 08:54:43.000   4280201.6326  -4034401.2556  -2458261.6973   4  10   1.2514   1.4818   0.9033  -1.1493   1.0269  -0.8720  13.00    0.0
2019/02/12 08:54:48.000   4280225.8633  -4034423.7179  -2458270.4380   4  11   1.2139   1.4568   0.8334  -1.1130   0.9801  -0.8091   3.00    0.0
2019/02/12 08:55:02.000   4280224.3506  -4034420.2150  -2458271.1514   4  10   1.2521   1.4799   0.9023  -1.1486   1.0253  -0.8719   2.00    0.0
2019/02/12 08:55:06.000   4280240.5006  -4034427.6164  -2458276.0808   4  10   1.2523   1.4797   0.9022  -1.1486   1.0251  -0.8720   6.00    0.0
2019/02/12 08:55:09.000   4280222.8984  -4034401.2636  -2458259.5623   4  10   1.2525   1.4795   0.9022  -1.1486   1.0250  -0.8721   9.00    0.0
2019/02/12 08:55:10.000   4280231.3781  -4034424.4570  -2458274.7195   4  10   1.2526   1.4794   0.9022  -1.1486   1.0250  -0.8721  10.00    0.0
2019/02/12 08:55:27.000   4280220.4176  -4034401.8179  -2458256.2993   4  10   1.2534   1.4781   0.9016  -1.1482   1.0238  -0.8722  12.00    0.0
2019/02/12 08:55:29.000   4280215.3909  -4034418.8652  -2458262.3570   4  10   1.2536   1.4780   0.9016  -1.1482   1.0238  -0.8723  14.00    0.0
2019/02/12 08:55:53.000   4280223.2439  -4034424.1941  -2458268.4611   4  11   1.2186   1.4537   0.8327  -1.1140   0.9784  -0.8116   8.00    0.0
2019/02/12 08:56:00.000   4280220.5432  -4034417.5810  -2458264.7114   5  13  30.0000  30.0000  30.0000   0.0000   0.0000   0.0000  -0.00    0.0
2019/02/12 08:56:02.000   4280221.6616  -4034414.7443  -2458270.2825   5  14  30.0000  30.0000  30.0000   0.0000   0.0000   0.0000   2.00    0.0
2019/02/12 08:56:33.000   4280218.9871  -4034407.8922  -2458270.1127   5  13  30.0000  30.0000  30.0000   0.0000   0.0000   0.0000   3.00    0.0
2019/02/12 08:56:54.000   4280210.4730  -4034407.6537  -2458255.1676   5  13  30.0000  30.0000  30.0000   0.0000   0.0000   0.0000   9.00    0.0
2019/02/12 08:56:58.000   4280231.9509  -4034428.8279  -2458276.4310   5  13  30.0000  30.0000  30.0000   0.0000   0.0000   0.0000  13.00    0.0
2019/02/12 08:57:11.000   4280233.1864  -4034416.4906  -2458268.0905   5  14  30.0000  30.0000  30.0000   0.0000   0.0000   0.0000  11.00    0.0
2019/02/12 08:57:12.000   4280209.1248  -4034393.4109  -2458258.3591   5  14  30.0000  30.0000  30.0000   0.0000   0.0000   0.0000  12.00    0.0
2019/02/12 08:57:21.000   4280207.5382  -4034406.0091  -2458262.7318   5  14  30.0000  30.0000  30.0000   0.0000   0.0000   0.0000   6.00    0.0
2019/02/12 08:57:28.000   4280211.4320  -4034408.0004  -2458267.7786   5  12  30.0000  30.0000  30.0000   0.0000   0.0000   0.0000  13.00    0.0
2019/02/12 08:57:37.000   4280178.8052  -4034380.7395  -2458241.3498   5  13  30.0000  30.0000  30.0000   0.0000   0.0000   0.0000   7.00    0.0
2019/02/12 08:57:38.000   4280221.7043  -4034418.9126  -2458267.3091   5  13  30.0000  30.0000  30.0000   0.0000   0.0000   0.0000   8.00    0.0
2019/02/12 08:57:40.000   4280212.5219  -4034422.8350  -2458273.4602   5  13  30.0000  30.0000  30.0000   0.0000   0.0000   0.0000  10.00    0.0
2019/02/12 08:57:42.000   4280206.9847  -4034415.6507  -2458270.4803   5  13  30.0000  30.0000  30.0000   0.0000   0.0000   0.0000  12.00    0.0
2019/02/12 08:57:43.000   4280224.1948  -4034422.2075  -2458267.4368   5  13  30.0000  30.0000  30.0000   0.0000   0.0000   0.0000  13.00    0.0
2019/02/12 08:57:56.000   4280238.6299  -4034427.1740  -2458278.3348   5  14  30.0000  30.0000  30.0000   0.0000   0.0000   0.0000  11.00    0.0
2019/02/12 08:58:03.000   4280216.8212  -4034406.2593  -2458264.3527   5  14  30.0000  30.0000  30.0000   0.0000   0.0000   0.0000   3.00    0.0
2019/02/12 08:58:11.000   4280215.6179  -4034414.9121  -2458263.1255   5  13  30.0000  30.0000  30.0000   0.0000   0.0000   0.0000  11.00    0.0
2019/02/12 08:58:16.000   4280208.3719  -4034404.6830  -2458263.4111   5  14  30.0000  30.0000  30.0000   0.0000   0.0000   0.0000   1.00    0.0
2019/02/12 08:58:20.000   4280211.7716  -4034405.8578  -2458265.6886   5  14  30.0000  30.0000  30.0000   0.0000   0.0000   0.0000   5.00    0.0
2019/02/12 08:58:23.000   4280206.8795  -4034403.6969  -2458262.8323   5  14  30.0000  30.0000  30.0000   0.0000   0.0000   0.0000   8.00    0.0
2019/02/12 08:58:24.000   4280222.7269  -4034418.8711  -2458272.5499   5  13  30.0000  30.0000  30.0000   0.0000   0.0000   0.0000   9.00    0.0
2019/02/12 08:58:38.000   4280203.6226  -4034407.9077  -2458251.3312   5  14  30.0000  30.0000  30.0000   0.0000   0.0000   0.0000   8.00    0.0
2019/02/12 08:58:45.000   4280199.5409  -4034395.3348  -2458252.2512   5  13  30.0000  30.0000  30.0000   0.0000   0.0000   0.0000  -0.00    0.0
2019/02/12 08:58:47.000   4280204.5930  -4034387.7727  -2458254.7809   5  13  30.0000  30.0000  30.0000   0.0000   0.0000   0.0000   2.00    0.0
2019/02/12 08:59:04.000   4280210.0143  -4034401.3414  -2458267.3319   5  14  30.0000  30.0000  30.0000   0.0000   0.0000   0.0000   4.00    0.0
2019/02/12 08:59:23.000   4280231.5185  -4034426.5672  -2458276.4150   5  12  30.0000  30.0000  30.0000   0.0000   0.0000   0.0000   8.00    0.0
2019/02/12 08:59:24.000   4280233.5658  -4034429.6325  -2458275.7835   5  12  30.0000  30.0000  30.0000   0.0000   0.0000   0.0000   9.00    0.0
2019/02/12 08:59:25.000   4280236.8458  -4034439.4712  -2458277.4235   5  12  30.0000  30.0000  30.0000   0.0000   0.0000   0.0000  10.00    0.0
2019/02/12 08:59:29.000   4280223.4482  -4034427.3833  -2458268.2305   5  12  30.0000  30.0000  30.0000   0.0000   0.0000   0.0000  14.00    0.0
2019/02/12 08:59:39.000   4280238.2309  -4034425.9727  -2458272.7350   5  12  30.0000  30.0000  30.0000   0.0000   0.0000   0.0000   9.00    0.0
2019/02/12 08:59:40.000   4280242.6701  -4034441.0589  -2458274.3840   5  12  30.0000  30.0000  30.0000   0.0000   0.0000   0.0000  10.00    0.0
2019/02/12 08:59:50.000   4280253.5404  -4034449.9868  -2458286.8782   5  13  30.0000  30.0000  30.0000   0.0000   0.0000   0.0000   5.00    0.0
2019/02/12 08:59:55.000   4280228.5881  -4034414.6333  -2458265.5239   5  14  30.0000  30.0000  30.0000   0.0000   0.0000   0.0000  10.00    0.0
2019/02/12 09:00:15.000   4280216.6069  -4034399.5049  -2458263.0516   5  12  30.0000  30.0000  30.0000   0.0000   0.0000   0.0000  -0.00    0.0
2019/02/12 09:00:31.000   4280228.1214  -4034436.7180  -2458275.5320   5  13  30.0000  30.0000  30.0000   0.0000   0.0000   0.0000   1.00    0.0
2019/02/12 09:00:35.000   4280241.0672  -4034430.0932  -2458276.3092   5  13  30.0000  30.0000  30.0000   0.0000   0.0000   0.0000   5.00    0.0
2019/02/12 09:00:39.000   4280224.9903  -4034423.7991  -2458262.7524   5  14  30.0000  30.0000  30.0000   0.0000   0.0000   0.0000   9.00    0.0
2019/02/12 09:00:40.000   4280240.9493  -4034435.1423  -2458271.0338   5  13  30.0000  30.0000  30.0000   0.0000   0.0000   0.0000  10.00    0.0
2019/02/12 09:00:44.000   4280223.7761  -4034424.8185  -2458266.5170   5  13  30.0000  30.0000  30.0000   0.0000   0.0000   0.0000  14.00    0.0
2019/02/12 09:00:45.000   4280232.8638  -4034439.1989  -2458286.7222   5  13  30.0000  30.0000  30.0000   0.0000   0.0000   0.0000  -0.00    0.0
2019/02/12 09:00:51.000   4280213.2921  -4034417.4179  -2458267.5444   5  13  30.0000  30.0000  30.0000   0.0000   0.0000   0.0000   6.00    0.0
2019/02/12 09:01:04.000   4280204.8832  -4034397.0379  -2458253.9308   5  13  30.0000  30.0000  30.0000   0.0000   0.0000   0.0000   4.00    0.0
2019/02/12 09:01:05.000   4280219.1219  -4034408.3072  -2458269.3980   5  14  30.0000  30.0000  30.0000   0.0000   0.0000   0.0000   5.00    0.0
2019/02/12 09:01:38.000   4280225.1353  -4034422.6708  -2458267.3053   5  13  30.0000  30.0000  30.0000   0.0000   0.0000   0.0000   8.00    0.0
2019/02/12 09:01:40.000   4280229.6483  -4034438.9810  -2458275.3023   5  13  30.0000  30.0000  30.0000   0.0000   0.0000   0.0000  10.00    0.0
2019/02/12 09:01:43.000   4280225.9241  -4034416.7095  -2458266.5963   5  13  30.0000  30.0000  30.0000   0.0000   0.0000   0.0000  13.00    0.0
2019/02/12 09:01:47.000   4280220.4348  -4034422.2044  -2458269.4808   5  13  30.0000  30.0000  30.0000   0.0000   0.0000   0.0000   2.00    0.0
2019/02/12 09:01:54.000   4280206.9178  -4034402.3374  -2458264.3025   5  14  30.0000  30.0000  30.0000   0.0000   0.0000   0.0000   9.00    0.0
2019/02/12 09:01:55.000   4280207.1325  -4034414.8343  -2458271.2629   5  14  30.0000  30.0000  30.0000   0.0000   0.0000   0.0000  10.00    0.0
2019/02/12 09:02:00.000   4280232.2432  -4034430.1180  -2458278.4635   5  13  30.0000  30.0000  30.0000   0.0000   0.0000   0.0000  -0.00    0.0
2019/02/12 09:02:04.000   4280211.1296  -4034401.9319  -2458266.7100   5  13  30.0000  30.0000  30.0000   0.0000   0.0000   0.0000   4.00    0.0
2019/02/12 09:02:16.000   4280236.3234  -4034432.0019  -2458269.6055   5  13  30.0000  30.0000  30.0000   0.0000   0.0000   0.0000   1.00    0.0
2019/02/12 09:02:41.000   4280232.0578  -4034424.7496  -2458265.9066   5  13  30.0000  30.0000  30.0000   0.0000   0.0000   0.0000  11.00    0.0
2019/02/12 09:02:48.000   4280213.5000  -4034406.4385  -2458265.2072   5  13  30.0000  30.0000  30.0000   0.0000   0.0000   0.0000   3.00    0.0
2019/02/12 09:02:49.000   4280223.4608  -4034416.3407  -2458262.1088   5  13  30.0000  30.0000  30.0000   0.0000   0.0000   0.0000   4.00    0.0
2019/02/12 09:03:16.000   4280229.5873  -4034421.6777  -2458267.6701   5  13  30.0000  30.0000  30.0000   0.0000   0.0000   0.0000   1.00    0.0
2019/02/12 09:03:29.000   4280190.7191  -4034390.7650  -2458255.3253   5  13  30.0000  30.0000  30.0000   0.0000   0.0000   0.0000  14.00    0.0
2019/02/12 09:03:42.000   4280221.9701  -4034421.7785  -2458268.7414   5  13  30.0000  30.0000  30.0000   0.0000   0.0000   0.0000  12.00    0.0
2019/02/12 09:03:44.000   4280231.1619  -4034424.0610  -2458265.8246   5  13  30.0000  30.0000  30.0000   0.0000   0.0000   0.0000  14.00    0.0
2019/02/12 09:03:51.000   4280232.4469  -4034429.6918  -2458262.9113   5  13  30.0000  30.0000  30.0000   0.0000   0.0000   0.0000   6.00    0.0
2019/02/12 09:03:52.000   4280230.6701  -4034422.0039  -2458268.5295   5  13  30.0000  30.0000  30.0000   0.0000   0.0000   0.0000   7.00    0.0
2019/02/12 09:04:00.000   4280228.8955  -4034416.5371  -2458269.9627   4   9   1.3638   1.6409   0.9383  -1.2925   1.1070  -0.9548  -0.00    0.0
2019/02/12 09:04:01.000   4280221.9011  -4034417.8562  -2458271.9549   4  12   1.1245   1.4110   0.8224  -1.1102   0.9528  -0.8138   1.00    0.0
2019/02/12 09:04:02.000   4280221.6126  -4034411.1936  -2458270.4647   4  12   1.1245   1.4109   0.8224  -1.1101   0.9527  -0.8138   2.00    0.0
2019/02/12 09:04:04.000   4280205.6246  -4034390.6749  -2458254.1582   4  12   1.1244   1.4107   0.8224  -1.1099   0.9526  -0.8137   4.00    0.0
2019/02/12 09:04:05.000   4280238.3142  -4034430.4614  -2458277.7755   4  12   1.1244   1.4106   0.8224  -1.1098   0.9525  -0.8136   5.00    0.0
2019/02/12 09:04:10.000   4280214.0006  -4034403.6732  -2458262.4942   4  12   1.1242   1.4102   0.8223  -1.1094   0.9523  -0.8134  10.00    0.0
2019/02/12 09:04:15.000   4280207.0686  -4034409.0610  -2458263.5037   5  12  30.0000  30.0000  30.0000   0.0000   0.0000   0.0000  -0.00    0.0
2019/02/12 09:04:16.000   4280220.6697  -4034419.0801  -2458266.6711   5  12  30.0000  30.0000  30.0000   0.0000   0.0000   0.0000   1.00    0.0
2019/02/12 09:04:17.000   4280203.6642  -4034403.6971  -2458258.1050   5  12  30.0000  30.0000  30.0000   0.0000   0.0000   0.0000   2.00    0.0
2019/02/12 09:04:19.000   4280205.9890  -4034400.0665  -2458261.7633   5  12  30.0000  30.0000  30.0000   0.0000   0.0000   0.0000   4.00    0.0
2019/02/12 09:04:20.000   4280221.2897  -4034410.6276  -2458259.9387   5  12  30.0000  30.0000  30.0000   0.0000   0.0000   0.0000   5.00    0.0
2019/02/12 09:04:23.000   4280221.6166  -4034417.2627  -2458266.3567   5  12  30.0000  30.0000  30.0000   0.0000   0.0000   0.0000   8.00    0.0
2019/02/12 09:04:24.000   4280225.0012  -4034427.3701  -2458274.0455   5  12  30.0000  30.0000  30.0000   0.0000   0.0000   0.0000   9.00    0.0
2019/02/12 09:04:26.000   4280224.0948  -4034416.4433  -2458261.3206   5  12  30.0000  30.0000  30.0000   0.0000   0.0000   0.0000  11.00    0.0
2019/02/12 09:04:30.000   4280217.8391  -4034424.5143  -2458267.1464   5  12  30.0000  30.0000  30.0000   0.0000   0.0000   0.0000  -0.00    0.0
2019/02/12 09:04:45.000   4280192.5905  -4034411.4820  -2458265.7395   5  12  30.0000  30.0000  30.0000   0.0000   0.0000   0.0000  -0.00    0.0
2019/02/12 09:04:47.000   4280228.1087  -4034425.9341  -2458278.2618   5  12  30.0000  30.0000  30.0000   0.0000   0.0000   0.0000   2.00    0.0
2019/02/12 09:04:48.000   4280234.9428  -4034427.9967  -2458283.7628   5  11  30.0000  30.0000  30.0000   0.0000   0.0000   0.0000   3.00    0.0
2019/02/12 09:04:49.000   4280217.8222  -4034413.7545  -2458276.3408   5  11  30.0000  30.0000  30.0000   0.0000   0.0000   0.0000   4.00    0.0
2019/02/12 09:04:52.000   4280230.8703  -4034417.8828  -2458269.1498   5  11  30.0000  30.0000  30.0000   0.0000   0.0000   0.0000   7.00    0.0
2019/02/12 09:04:57.000   4280239.0508  -4034417.4168  -2458270.6497   5  11  30.0000  30.0000  30.0000   0.0000   0.0000   0.0000  12.00    0.0
2019/02/12 09:05:10.000   4280214.2038  -4034399.1566  -2458250.8152   5  12  30.0000  30.0000  30.0000   0.0000   0.0000   0.0000  10.00    0.0
2019/02/12 09:05:23.000   4280203.8280  -4034399.5618  -2458250.1008   5  12  30.0000  30.0000  30.0000   0.0000   0.0000   0.0000   8.00    0.0
2019/02/12 09:05:31.000   4280222.2042  -4034420.9237  -2458272.7522   5  12  30.0000  30.0000  30.0000   0.0000   0.0000   0.0000   1.00    0.0
2019/02/12 09:05:32.000   4280213.8715  -4034400.2520  -2458263.0061   5  12  30.0000  30.0000  30.0000   0.0000   0.0000   0.0000   2.00    0.0
2019/02/12 09:05:34.000   4280206.0843  -4034389.0571  -2458258.4081   5  12  30.0000  30.0000  30.0000   0.0000   0.0000   0.0000   4.00    0.0
2019/02/12 09:05:38.000   4280212.2140  -4034392.3970  -2458258.3174   5  12  30.0000  30.0000  30.0000   0.0000   0.0000   0.0000   8.00    0.0
2019/02/12 09:05:41.000   4280210.1157  -4034397.2689  -2458250.9693   5  12  30.0000  30.0000  30.0000   0.0000   0.0000   0.0000  11.00    0.0
2019/02/12 09:05:45.000   4280220.9802  -4034401.6821  -2458255.6234   5  12  30.0000  30.0000  30.0000   0.0000   0.0000   0.0000  -0.00    0.0
2019/02/12 09:05:46.000   4280226.8772  -4034403.6911  -2458257.0962   5  12  30.0000  30.0000  30.0000   0.0000   0.0000   0.0000   1.00    0.0
2019/02/12 09:05:47.000   4280225.9405  -4034420.6563  -2458266.1416   5  12  30.0000  30.0000  30.0000   0.0000   0.0000   0.0000   2.00    0.0
2019/02/12 09:05:51.000   4280244.5213  -4034439.5233  -2458276.2278   5  12  30.0000  30.0000  30.0000   0.0000   0.0000   0.0000   6.00    0.0
2019/02/12 09:06:01.000   4280226.7095  -4034416.0029  -2458258.4909   5  12  30.0000  30.0000  30.0000   0.0000   0.0000   0.0000   1.00    0.0
2019/02/12 09:06:02.000   4280230.2078  -4034417.2236  -2458261.7475   5  12  30.0000  30.0000  30.0000   0.0000   0.0000   0.0000   2.00    0.0
2019/02/12 09:06:04.000   4280233.4154  -4034439.9566  -2458278.5408   5  12  30.0000  30.0000  30.0000   0.0000   0.0000   0.0000   4.00    0.0
2019/02/12 09:06:06.000   4280221.9362  -4034427.3233  -2458268.4346   5  12  30.0000  30.0000  30.0000   0.0000   0.0000   0.0000   6.00    0.0
2019/02/12 09:06:07.000   4280239.0333  -4034435.8932  -2458274.1399   5  12  30.0000  30.0000  30.0000   0.0000   0.0000   0.0000   7.00    0.0
2019/02/12 09:06:22.000   4280237.8368  -4034426.5081  -2458263.7234   5  12  30.0000  30.0000  30.0000   0.0000   0.0000   0.0000   7.00    0.0
2019/02/12 09:06:23.000   4280225.2455  -4034428.5703  -2458270.9122   5  12  30.0000  30.0000  30.0000   0.0000   0.0000   0.0000   8.00    0.0
2019/02/12 09:06:24.000   4280218.0161  -4034426.0790  -2458279.3856   5  12  30.0000  30.0000  30.0000   0.0000   0.0000   0.0000   9.00    0.0
2019/02/12 09:06:29.000   4280213.2149  -4034406.5517  -2458265.0679   5  12  30.0000  30.0000  30.0000   0.0000   0.0000   0.0000  14.00    0.0
2019/02/12 09:06:32.000   4280220.1297  -4034394.6488  -2458258.4296   5  12  30.0000  30.0000  30.0000   0.0000   0.0000   0.0000   2.00    0.0
2019/02/12 09:06:38.000   4280226.1911  -4034415.2157  -2458265.0640   5  12  30.0000  30.0000  30.0000   0.0000   0.0000   0.0000   8.00    0.0
2019/02/12 09:07:04.000   4280229.8174  -4034418.0428  -2458274.6335   5  12  30.0000  30.0000  30.0000   0.0000   0.0000   0.0000   4.00    0.0
2019/02/12 09:07:06.000   4280214.2350  -4034395.0834  -2458255.3158   5  12  30.0000  30.0000  30.0000   0.0000   0.0000   0.0000   6.00    0.0
2019/02/12 09:07:08.000   4280213.3866  -4034403.2827  -2458263.2118   5  12  30.0000  30.0000  30.0000   0.0000   0.0000   0.0000   8.00    0.0
2019/02/12 09:07:18.000   4280214.2035  -4034401.1653  -2458258.2496   5  12  30.0000  30.0000  30.0000   0.0000   0.0000   0.0000   3.00    0.0
2019/02/12 09:07:19.000   4280213.2104  -4034394.0391  -2458251.9030   5  12  30.0000  30.0000  30.0000   0.0000   0.0000   0.0000   4.00    0.0
2019/02/12 09:07:27.000   4280230.4824  -4034427.4212  -2458272.7170   5  12  30.0000  30.0000  30.0000   0.0000   0.0000   0.0000  12.00    0.0
2019/02/12 09:07:28.000   4280223.7315  -4034417.9709  -2458262.6211   5  12  30.0000  30.0000  30.0000   0.0000   0.0000   0.0000  13.00    0.0
2019/02/12 09:07:33.000   4280218.3115  -4034405.7981  -2458259.7603   5  12  30.0000  30.0000  30.0000   0.0000   0.0000   0.0000   3.00    0.0
2019/02/12 09:07:35.000   4280226.2937  -4034442.1159  -2458279.2699   5  11  30.0000  30.0000  30.0000   0.0000   0.0000   0.0000   5.00    0.0
2019/02/12 09:07:36.000   4280228.6504  -4034432.5336  -2458264.0995   5  11  30.0000  30.0000  30.0000   0.0000   0.0000   0.0000   6.00    0.0
2019/02/12 09:07:38.000   4280248.7604  -4034439.1464  -2458279.9566   5  11  30.0000  30.0000  30.0000   0.0000   0.0000   0.0000   8.00    0.0
2019/02/12 09:07:39.000   4280221.8464  -4034423.3937  -2458262.5225   5  11  30.0000  30.0000  30.0000   0.0000   0.0000   0.0000   9.00    0.0
2019/02/12 09:07:43.000   4280212.1964  -4034417.8344  -2458257.3536   5  11  30.0000  30.0000  30.0000   0.0000   0.0000   0.0000  13.00    0.0
2019/02/12 09:07:44.000   4280204.7753  -4034401.5657  -2458256.6557   5  11  30.0000  30.0000  30.0000   0.0000   0.0000   0.0000  14.00    0.0
2019/02/12 09:07:46.000   4280229.6996  -4034421.5085  -2458270.0215   5  11  30.0000  30.0000  30.0000   0.0000   0.0000   0.0000   1.00    0.0
2019/02/12 09:07:56.000   4280219.3756  -4034411.3863  -2458261.5761   5  11  30.0000  30.0000  30.0000   0.0000   0.0000   0.0000  11.00    0.0
2019/02/12 09:08:06.000   4280213.2190  -4034417.8321  -2458266.3853   5  12  30.0000  30.0000  30.0000   0.0000   0.0000   0.0000   6.00    0.0
2019/02/12 09:08:07.000   4280228.2293  -4034445.8885  -2458275.5142   5  12  30.0000  30.0000  30.0000   0.0000   0.0000   0.0000   7.00    0.0
2019/02/12 09:08:10.000   4280223.5886  -4034412.4547  -2458268.0611   5  12  30.0000  30.0000  30.0000   0.0000   0.0000   0.0000  10.00    0.0
2019/02/12 09:08:26.000   4280202.0138  -4034384.7329  -2458262.8040   5  12  30.0000  30.0000  30.0000   0.0000   0.0000   0.0000  11.00    0.0
2019/02/12 09:08:36.000   4280220.3807  -4034406.8920  -2458259.9272   5  12  30.0000  30.0000  30.0000   0.0000   0.0000   0.0000   6.00    0.0
2019/02/12 09:08:37.000   4280213.9715  -4034408.0150  -2458262.7908   5  12  30.0000  30.0000  30.0000   0.0000   0.0000   0.0000   7.00    0.0
2019/02/12 09:08:38.000   4280218.0658  -4034414.8640  -2458270.5691   5  12  30.0000  30.0000  30.0000   0.0000   0.0000   0.0000   8.00    0.0
2019/02/12 09:08:40.000   4280226.4011  -4034420.6555  -2458269.0270   5  12  30.0000  30.0000  30.0000   0.0000   0.0000   0.0000  10.00    0.0
2019/02/12 09:08:42.000   4280218.8710  -4034406.7853  -2458264.7370   5  12  30.0000  30.0000  30.0000   0.0000   0.0000   0.0000  12.00    0.0
2019/02/12 09:08:43.000   4280205.7448  -4034408.6675  -2458264.9723   5  12  30.0000  30.0000  30.0000   0.0000   0.0000   0.0000  13.00    0.0
2019/02/12 09:08:48.000   4280240.9758  -4034438.4006  -2458282.3097   5  12  30.0000  30.0000  30.0000   0.0000   0.0000   0.0000   3.00    0.0
2019/02/12 09:08:49.000   4280222.2645  -4034421.7101  -2458266.3629   5  12  30.0000  30.0000  30.0000   0.0000   0.0000   0.0000   4.00    0.0
2019/02/12 09:08:52.000   4280223.6785  -4034433.4801  -2458267.0963   5  12  30.0000  30.0000  30.0000   0.0000   0.0000   0.0000   7.00    0.0
2019/02/12 09:08:53.000   4280222.4214  -4034422.7092  -2458262.1188   5  12  30.0000  30.0000  30.0000   0.0000   0.0000   0.0000   8.00    0.0
2019/02/12 09:08:58.000   4280231.4914  -4034424.4683  -2458269.0356   5  12  30.0000  30.0000  30.0000   0.0000   0.0000   0.0000  13.00    0.0
2019/02/12 09:09:00.000   4280213.4232  -4034401.6252  -2458264.8875   5  12  30.0000  30.0000  30.0000   0.0000   0.0000   0.0000  -0.00    0.0
2019/02/12 09:09:11.000   4280235.3613  -4034433.8346  -2458271.4144   5  12  30.0000  30.0000  30.0000   0.0000   0.0000   0.0000  11.00    0.0
2019/02/12 09:09:30.000   4280226.1494  -4034430.0275  -2458274.9528   5  11  30.0000  30.0000  30.0000   0.0000   0.0000   0.0000  -0.00    0.0
2019/02/12 09:09:32.000   4280224.8683  -4034415.5153  -2458264.3957   5  11  30.0000  30.0000  30.0000   0.0000   0.0000   0.0000   2.00    0.0
2019/02/12 09:09:40.000   4280233.3590  -4034412.2812  -2458268.4855   5  11  30.0000  30.0000  30.0000   0.0000   0.0000   0.0000  10.00    0.0
2019/02/12 09:09:41.000   4280230.7007  -4034433.0705  -2458282.8576   5  11  30.0000  30.0000  30.0000   0.0000   0.0000   0.0000  11.00    0.0
2019/02/12 09:09:42.000   4280215.1588  -4034407.3535  -2458269.6139   5  11  30.0000  30.0000  30.0000   0.0000   0.0000   0.0000  12.00    0.0
2019/02/12 09:09:44.000   4280209.7124  -4034396.1303  -2458251.5938   5  12  30.0000  30.0000  30.0000   0.0000   0.0000   0.0000  14.00    0.0
2019/02/12 09:09:45.000   4280203.6326  -4034392.9734  -2458248.1679   5  12  30.0000  30.0000  30.0000   0.0000   0.0000   0.0000  -0.00    0.0
2019/02/12 09:09:50.000   4280210.8815  -4034401.0969  -2458256.6978   5  12  30.0000  30.0000  30.0000   0.0000   0.0000   0.0000   5.00    0.0
2019/02/12 09:09:53.000   4280197.5808  -4034398.1970  -2458253.6929   5  12  30.0000  30.0000  30.0000   0.0000   0.0000   0.0000   8.00    0.0
2019/02/12 09:09:54.000   4280218.7290  -4034414.5963  -2458263.3314   5  12  30.0000  30.0000  30.0000   0.0000   0.0000   0.0000   9.00    0.0
2019/02/12 09:10:05.000   4280219.2048  -4034410.6516  -2458261.2455   5  12  30.0000  30.0000  30.0000   0.0000   0.0000   0.0000   5.00    0.0
2019/02/12 09:10:08.000   4280219.2185  -4034419.1965  -2458270.4586   5  12  30.0000  30.0000  30.0000   0.0000   0.0000   0.0000   8.00    0.0
2019/02/12 09:10:32.000   4280218.4895  -4034410.0036  -2458261.9191   5  10  30.0000  30.0000  30.0000   0.0000   0.0000   0.0000   2.00    0.0
2019/02/12 09:10:36.000   4280231.9799  -4034412.5561  -2458264.9677   5  10  30.0000  30.0000  30.0000   0.0000   0.0000   0.0000   6.00    0.0
2019/02/12 09:10:38.000   4280218.0348  -4034413.0634  -2458262.3427   5  10  30.0000  30.0000  30.0000   0.0000   0.0000   0.0000   8.00    0.0
2019/02/12 09:10:45.000   4280203.8228  -4034404.9107  -2458265.0014   5  12  30.0000  30.0000  30.0000   0.0000   0.0000   0.0000  -0.00    0.0
2019/02/12 09:10:46.000   4280195.0059  -4034392.0462  -2458257.7540   5  12  30.0000  30.0000  30.0000   0.0000   0.0000   0.0000   1.00    0.0
2019/02/12 09:11:02.000   4280243.3338  -4034453.2249  -2458280.6858   5  12  30.0000  30.0000  30.0000   0.0000   0.0000   0.0000   2.00    0.0
2019/02/12 09:11:03.000   4280218.4728  -4034420.1687  -2458272.5217   5  12  30.0000  30.0000  30.0000   0.0000   0.0000   0.0000   3.00    0.0
2019/02/12 09:11:09.000   4280219.1266  -4034427.2520  -2458270.0467   5  12  30.0000  30.0000  30.0000   0.0000   0.0000   0.0000   9.00    0.0
2019/02/12 09:11:12.000   4280211.1158  -4034418.4691  -2458260.6399   5  12  30.0000  30.0000  30.0000   0.0000   0.0000   0.0000  12.00    0.0
2019/02/12 09:11:21.000   4280200.7235  -4034424.3638  -2458273.5508   5  11  30.0000  30.0000  30.0000   0.0000   0.0000   0.0000   6.00    0.0
2019/02/12 09:11:24.000   4280221.1935  -4034415.5454  -2458259.6863   5  11  30.0000  30.0000  30.0000   0.0000   0.0000   0.0000   9.00    0.0
2019/02/12 09:11:28.000   4280215.4068  -4034422.0649  -2458267.0585   5  11  30.0000  30.0000  30.0000   0.0000   0.0000   0.0000  13.00    0.0
2019/02/12 09:11:40.000   4280225.5606  -4034423.5668  -2458267.1842   5  11  30.0000  30.0000  30.0000   0.0000   0.0000   0.0000  10.00    0.0
2019/02/12 09:11:41.000   4280233.3294  -4034424.0659  -2458268.5487   5  11  30.0000  30.0000  30.0000   0.0000   0.0000   0.0000  11.00    0.0
2019/02/12 09:11:43.000   4280204.1579  -4034396.2608  -2458257.6444   5  11  30.0000  30.0000  30.0000   0.0000   0.0000   0.0000  13.00    0.0
2019/02/12 09:11:54.000   4280220.8512  -4034405.1784  -2458262.5781   5  11  30.0000  30.0000  30.0000   0.0000   0.0000   0.0000   9.00    0.0
2019/02/12 09:11:57.000   4280221.6746  -4034409.7675  -2458271.9758   5  11  30.0000  30.0000  30.0000   0.0000   0.0000   0.0000  12.00    0.0
2019/02/12 09:11:58.000   4280209.7873  -4034415.0365  -2458269.4940   5  11  30.0000  30.0000  30.0000   0.0000   0.0000   0.0000  13.00    0.0
2019/02/12 09:11:59.000   4280208.0066  -4034403.1125  -2458261.7159   5  11  30.0000  30.0000  30.0000   0.0000   0.0000   0.0000  14.00    0.0
2019/02/12 09:12:00.000   4280209.9076  -4034414.6263  -2458266.6199   5  11  30.0000  30.0000  30.0000   0.0000   0.0000   0.0000  -0.00    0.0
2019/02/12 09:12:01.000   4280224.1576  -4034411.8637  -2458259.8406   5  11  30.0000  30.0000  30.0000   0.0000   0.0000   0.0000   1.00    0.0
2019/02/12 09:12:13.000   4280231.4216  -4034423.6217  -2458269.4037   5  11  30.0000  30.0000  30.0000   0.0000   0.0000   0.0000  13.00    0.0
2019/02/12 09:12:15.000   4280233.1827  -4034423.2419  -2458267.3373   5  11  30.0000  30.0000  30.0000   0.0000   0.0000   0.0000  -0.00    0.0
2019/02/12 09:12:22.000   4280223.9133  -4034424.5173  -2458259.0593   5  11  30.0000  30.0000  30.0000   0.0000   0.0000   0.0000   7.00    0.0
2019/02/12 09:12:30.000   4280238.2126  -4034431.6024  -2458268.7080   5  12  30.0000  30.0000  30.0000   0.0000   0.0000   0.0000  -0.00    0.0
2019/02/12 09:12:34.000   4280215.0881  -4034425.4290  -2458270.4128   5  11  30.0000  30.0000  30.0000   0.0000   0.0000   0.0000   4.00    0.0
2019/02/12 09:12:36.000   4280241.8803  -4034432.9247  -2458270.1025   5  11  30.0000  30.0000  30.0000   0.0000   0.0000   0.0000   6.00    0.0
2019/02/12 09:12:38.000   4280230.6367  -4034432.7416  -2458278.8067   5  12  30.0000  30.0000  30.0000   0.0000   0.0000   0.0000   8.00    0.0
2019/02/12 09:12:39.000   4280244.5197  -4034438.2533  -2458283.2102   5  12  30.0000  30.0000  30.0000   0.0000   0.0000   0.0000   9.00    0.0
2019/02/12 09:12:46.000   4280208.4089  -4034405.0482  -2458264.8024   5  12  30.0000  30.0000  30.0000   0.0000   0.0000   0.0000   1.00    0.0
2019/02/12 09:12:48.000   4280203.5932  -4034400.9353  -2458252.7347   5  12  30.0000  30.0000  30.0000   0.0000   0.0000   0.0000   3.00    0.0
2019/02/12 09:13:02.000   4280228.1787  -4034412.3541  -2458260.2294   5  12  30.0000  30.0000  30.0000   0.0000   0.0000   0.0000   2.00    0.0
2019/02/12 09:13:06.000   4280223.0009  -4034416.9267  -2458260.9845   5  12  30.0000  30.0000  30.0000   0.0000   0.0000   0.0000   6.00    0.0
2019/02/12 09:13:07.000   4280224.7083  -4034418.6504  -2458263.5138   5  11  30.0000  30.0000  30.0000   0.0000   0.0000   0.0000   7.00    0.0
2019/02/12 09:13:09.000   4280210.3589  -4034404.7998  -2458261.1458   5  12  30.0000  30.0000  30.0000   0.0000   0.0000   0.0000   9.00    0.0
2019/02/12 09:13:10.000   4280213.1278  -4034403.0242  -2458255.2779   5  11  30.0000  30.0000  30.0000   0.0000   0.0000   0.0000  10.00    0.0
2019/02/12 09:13:11.000   4280219.7163  -4034411.2957  -2458268.8979   5  11  30.0000  30.0000  30.0000   0.0000   0.0000   0.0000  11.00    0.0
2019/02/12 09:13:12.000   4280203.4779  -4034388.9609  -2458249.3492   5  11  30.0000  30.0000  30.0000   0.0000   0.0000   0.0000  12.00    0.0
2019/02/12 09:13:13.000   4280212.0904  -4034397.9250  -2458253.9322   5  11  30.0000  30.0000  30.0000   0.0000   0.0000   0.0000  13.00    0.0
2019/02/12 09:13:17.000   4280218.4773  -4034412.7086  -2458266.9848   5  12  30.0000  30.0000  30.0000   0.0000   0.0000   0.0000   2.00    0.0
2019/02/12 09:13:18.000   4280209.8923  -4034406.0263  -2458259.8358   5  11  30.0000  30.0000  30.0000   0.0000   0.0000   0.0000   3.00    0.0
2019/02/12 09:13:19.000   4280205.9320  -4034405.3839  -2458270.0900   5  11  30.0000  30.0000  30.0000   0.0000   0.0000   0.0000   4.00    0.0
2019/02/12 09:13:21.000   4280223.5177  -4034402.4085  -2458268.1339   5  11  30.0000  30.0000  30.0000   0.0000   0.0000   0.0000   6.00    0.0
2019/02/12 09:13:22.000   4280218.7463  -4034416.6459  -2458264.6850   5  12  30.0000  30.0000  30.0000   0.0000   0.0000   0.0000   7.00    0.0
2019/02/12 09:13:24.000   4280236.7086  -4034428.8853  -2458276.3646   5  11  30.0000  30.0000  30.0000   0.0000   0.0000   0.0000   9.00    0.0
2019/02/12 09:13:25.000   4280232.0807  -4034427.3395  -2458278.6474   5  11  30.0000  30.0000  30.0000   0.0000   0.0000   0.0000  10.00    0.0
2019/02/12 09:13:26.000   4280219.7269  -4034436.9159  -2458280.2167   5  11  30.0000  30.0000  30.0000   0.0000   0.0000   0.0000  11.00    0.0
2019/02/12 09:13:29.000   4280247.1854  -4034454.8341  -2458287.0576   5  11  30.0000  30.0000  30.0000   0.0000   0.0000   0.0000  14.00    0.0
2019/02/12 09:13:34.000   4280222.1726  -4034417.9643  -2458269.6971   5  11  30.0000  30.0000  30.0000   0.0000   0.0000   0.0000   4.00    0.0
2019/02/12 09:13:35.000   4280231.0708  -4034434.2814  -2458275.5131   5  11  30.0000  30.0000  30.0000   0.0000   0.0000   0.0000   5.00    0.0
2019/02/12 09:13:41.000   4280236.8897  -4034440.0698  -2458273.3544   5  11  30.0000  30.0000  30.0000   0.0000   0.0000   0.0000  11.00    0.0
2019/02/12 09:13:42.000   4280216.4333  -4034433.5770  -2458277.9907   5  11  30.0000  30.0000  30.0000   0.0000   0.0000   0.0000  12.00    0.0
2019/02/12 09:13:44.000   4280217.2231  -4034402.0653  -2458265.6819   5  11  30.0000  30.0000  30.0000   0.0000   0.0000   0.0000  14.00    0.0
2019/02/12 09:13:53.000   4280211.4693  -4034411.8903  -2458267.4310   5  12  30.0000  30.0000  30.0000   0.0000   0.0000   0.0000   8.00    0.0
2019/02/12 09:14:13.000   4280222.8271  -4034409.3953  -2458269.3945   5  11  30.0000  30.0000  30.0000   0.0000   0.0000   0.0000  13.00    0.0
2019/02/12 09:14:49.000   4280218.8541  -4034407.6726  -2458261.6993   5  12  30.0000  30.0000  30.0000   0.0000   0.0000   0.0000   4.00    0.0
2019/02/12 09:14:50.000   4280213.6872  -4034413.3562  -2458272.7841   5  11  30.0000  30.0000  30.0000   0.0000   0.0000   0.0000   5.00    0.0
2019/02/12 09:14:51.000   4280224.8305  -4034397.7274  -2458261.1740   5  12  30.0000  30.0000  30.0000   0.0000   0.0000   0.0000   6.00    0.0
2019/02/12 09:15:00.000   4280221.4334  -4034411.2188  -2458266.0415   5  12  30.0000  30.0000  30.0000   0.0000   0.0000   0.0000  -0.00    0.0
2019/02/12 09:15:03.000   4280205.4970  -4034398.6218  -2458257.0861   5  12  30.0000  30.0000  30.0000   0.0000   0.0000   0.0000   3.00    0.0
2019/02/12 09:15:22.000   4280212.4111  -4034410.3770  -2458256.9584   5  11  30.0000  30.0000  30.0000   0.0000   0.0000   0.0000   7.00    0.0
2019/02/12 09:15:23.000   4280208.2682  -4034397.4660  -2458252.2780   5  11  30.0000  30.0000  30.0000   0.0000   0.0000   0.0000   8.00    0.0
2019/02/12 09:15:24.000   4280222.5757  -4034414.4145  -2458264.7194   5  11  30.0000  30.0000  30.0000   0.0000   0.0000   0.0000   9.00    0.0
2019/02/12 09:15:25.000   4280220.3878  -4034418.4738  -2458261.1489   5  11  30.0000  30.0000  30.0000   0.0000   0.0000   0.0000  10.00    0.0
2019/02/12 09:15:26.000   4280228.5459  -4034419.9045  -2458260.5593   5  11  30.0000  30.0000  30.0000   0.0000   0.0000   0.0000  11.00    0.0
2019/02/12 09:15:28.000   4280215.7192  -4034423.0755  -2458259.7721   5  11  30.0000  30.0000  30.0000   0.0000   0.0000   0.0000  13.00    0.0
2019/02/12 09:15:30.000   4280223.2403  -4034428.5945  -2458268.7762   5  11  30.0000  30.0000  30.0000   0.0000   0.0000   0.0000  -0.00    0.0
2019/02/12 09:15:37.000   4280224.2001  -4034431.5778  -2458270.7771   5  11  30.0000  30.0000  30.0000   0.0000   0.0000   0.0000   7.00    0.0
2019/02/12 09:15:44.000   4280225.0719  -4034423.9183  -2458260.5901   5  11  30.0000  30.0000  30.0000   0.0000   0.0000   0.0000  14.00    0.0
2019/02/12 09:15:45.000   4280225.0401  -4034414.1502  -2458256.5086   5  11  30.0000  30.0000  30.0000   0.0000   0.0000   0.0000  -0.00    0.0
2019/02/12 09:15:50.000   4280224.8270  -4034425.2700  -2458269.3776   5  11  30.0000  30.0000  30.0000   0.0000   0.0000   0.0000   5.00    0.0
2019/02/12 09:15:54.000   4280220.0329  -4034425.1931  -2458269.2527   5  12  30.0000  30.0000  30.0000   0.0000   0.0000   0.0000   9.00    0.0
2019/02/12 09:16:08.000   4280212.1569  -4034399.8071  -2458267.0547   5  11  30.0000  30.0000  30.0000   0.0000   0.0000   0.0000   8.00    0.0
2019/02/12 09:16:20.000   4280206.4837  -4034402.7676  -2458254.2052   5  12  30.0000  30.0000  30.0000   0.0000   0.0000   0.0000   5.00    0.0
2019/02/12 09:16:29.000   4280212.9688  -4034400.9967  -2458256.1987   5  12  30.0000  30.0000  30.0000   0.0000   0.0000   0.0000  14.00    0.0
2019/02/12 09:16:32.000   4280226.7849  -4034411.7406  -2458262.1384   5  12  30.0000  30.0000  30.0000   0.0000   0.0000   0.0000   2.00    0.0
2019/02/12 09:16:33.000   4280225.3443  -4034415.6567  -2458262.7489   5  12  30.0000  30.0000  30.0000   0.0000   0.0000   0.0000   3.00    0.0
2019/02/12 09:16:34.000   4280214.0047  -4034405.6171  -2458262.3883   5  12  30.0000  30.0000  30.0000   0.0000   0.0000   0.0000   4.00    0.0
2019/02/12 09:16:40.000   4280218.1500  -4034393.9308  -2458256.2450   5  12  30.0000  30.0000  30.0000   0.0000   0.0000   0.0000  10.00    0.0
2019/02/12 09:16:50.000   4280209.2148  -4034402.1127  -2458259.0212   5  11  30.0000  30.0000  30.0000   0.0000   0.0000   0.0000   5.00    0.0
2019/02/12 09:16:51.000   4280201.8803  -4034415.2473  -2458269.1546   5  11  30.0000  30.0000  30.0000   0.0000   0.0000   0.0000   6.00    0.0
2019/02/12 09:17:03.000   4280221.5662  -4034416.1238  -2458271.5112   5  11  30.0000  30.0000  30.0000   0.0000   0.0000   0.0000   3.00    0.0
2019/02/12 09:17:10.000   4280232.3268  -4034416.0773  -2458259.6585   5  12  30.0000  30.0000  30.0000   0.0000   0.0000   0.0000  10.00    0.0
2019/02/12 09:17:11.000   4280239.4536  -4034434.6464  -2458277.1741   5  12  30.0000  30.0000  30.0000   0.0000   0.0000   0.0000  11.00    0.0
2019/02/12 09:17:18.000   4280250.3200  -4034432.6285  -2458267.5525   5  11  30.0000  30.0000  30.0000   0.0000   0.0000   0.0000   3.00    0.0
2019/02/12 09:17:25.000   4280227.4223  -4034433.8828  -2458271.0873   5  11  30.0000  30.0000  30.0000   0.0000   0.0000   0.0000  10.00    0.0
2019/02/12 09:17:52.000   4280214.7037  -4034423.2956  -2458270.9872   5  11  30.0000  30.0000  30.0000   0.0000   0.0000   0.0000   7.00    0.0
2019/02/12 09:17:59.000   4280231.6949  -4034427.7238  -2458274.2616   5  11  30.0000  30.0000  30.0000   0.0000   0.0000   0.0000  14.00    0.0
2019/02/12 09:18:04.000   4280218.4983  -4034419.1063  -2458266.2086   5  11  30.0000  30.0000  30.0000   0.0000   0.0000   0.0000   4.00    0.0
2019/02/12 09:18:10.000   4280202.7744  -4034398.4454  -2458268.3316   5  11  30.0000  30.0000  30.0000   0.0000   0.0000   0.0000  10.00    0.0
2019/02/12 09:18:12.000   4280222.8092  -4034407.1732  -2458261.1075   5  10  30.0000  30.0000  30.0000   0.0000   0.0000   0.0000  12.00    0.0
2019/02/12 09:18:14.000   4280218.6795  -4034397.1725  -2458262.0245   5  10  30.0000  30.0000  30.0000   0.0000   0.0000   0.0000  14.00    0.0
2019/02/12 09:18:17.000   4280229.1849  -4034410.1883  -2458268.8375   5  10  30.0000  30.0000  30.0000   0.0000   0.0000   0.0000   2.00    0.0
2019/02/12 09:18:21.000   4280218.6394  -4034403.7217  -2458261.3824   5  10  30.0000  30.0000  30.0000   0.0000   0.0000   0.0000   6.00    0.0
2019/02/12 09:18:24.000   4280222.0455  -4034409.1067  -2458267.2700   5  11  30.0000  30.0000  30.0000   0.0000   0.0000   0.0000   9.00    0.0
2019/02/12 09:18:27.000   4280217.4423  -4034414.3884  -2458260.6943   5  11  30.0000  30.0000  30.0000   0.0000   0.0000   0.0000  12.00    0.0
2019/02/12 09:18:33.000   4280214.8303  -4034425.3083  -2458272.9090   5  11  30.0000  30.0000  30.0000   0.0000   0.0000   0.0000   3.00    0.0
2019/02/12 09:18:44.000   4280219.4739  -4034422.2613  -2458260.8511   5  11  30.0000  30.0000  30.0000   0.0000   0.0000   0.0000  14.00    0.0
2019/02/12 09:18:49.000   4280245.5478  -4034437.0044  -2458282.6895   5  11  30.0000  30.0000  30.0000   0.0000   0.0000   0.0000   4.00    0.0
2019/02/12 09:18:50.000   4280235.6743  -4034430.9487  -2458278.5004   5  11  30.0000  30.0000  30.0000   0.0000   0.0000   0.0000   5.00    0.0
2019/02/12 09:18:52.000   4280220.2297  -4034431.9586  -2458269.4664   5  11  30.0000  30.0000  30.0000   0.0000   0.0000   0.0000   7.00    0.0
2019/02/12 09:18:57.000   4280222.0036  -4034427.0178  -2458271.6587   5  11  30.0000  30.0000  30.0000   0.0000   0.0000   0.0000  12.00    0.0
2019/02/12 09:18:58.000   4280218.7316  -4034426.9051  -2458270.4414   5  11  30.0000  30.0000  30.0000   0.0000   0.0000   0.0000  13.00    0.0
2019/02/12 09:19:01.000   4280226.2228  -4034426.5906  -2458270.1000   5  11  30.0000  30.0000  30.0000   0.0000   0.0000   0.0000   1.00    0.0
2019/02/12 09:19:02.000   4280224.1276  -4034436.4913  -2458273.2226   5  11  30.0000  30.0000  30.0000   0.0000   0.0000   0.0000   2.00    0.0
2019/02/12 09:19:03.000   4280216.9881  -4034431.8789  -2458269.4088   5  11  30.0000  30.0000  30.0000   0.0000   0.0000   0.0000   3.00    0.0
2019/02/12 09:19:04.000   4280236.5576  -4034449.9530  -2458278.3408   5  11  30.0000  30.0000  30.0000   0.0000   0.0000   0.0000   4.00    0.0
2019/02/12 09:19:07.000   4280215.2597  -4034421.6606  -2458264.4976   5  11  30.0000  30.0000  30.0000   0.0000   0.0000   0.0000   7.00    0.0
2019/02/12 09:19:09.000   4280218.0417  -4034428.2365  -2458269.7336   5  11  30.0000  30.0000  30.0000   0.0000   0.0000   0.0000   9.00    0.0
2019/02/12 09:19:10.000   4280207.4128  -4034428.5451  -2458271.8922   5  11  30.0000  30.0000  30.0000   0.0000   0.0000   0.0000  10.00    0.0
2019/02/12 09:19:11.000   4280207.1144  -4034417.9608  -2458266.4156   5  11  30.0000  30.0000  30.0000   0.0000   0.0000   0.0000  11.00    0.0
2019/02/12 09:19:36.000   4280236.7773  -4034442.5067  -2458271.6986   5  11  30.0000  30.0000  30.0000   0.0000   0.0000   0.0000   6.00    0.0
2019/02/12 09:19:39.000   4280208.4277  -4034406.1336  -2458264.5268   5  12  30.0000  30.0000  30.0000   0.0000   0.0000   0.0000   9.00    0.0
2019/02/12 09:19:41.000   4280203.2227  -4034403.6150  -2458255.8932   5  11  30.0000  30.0000  30.0000   0.0000   0.0000   0.0000  11.00    0.0
2019/02/12 09:19:46.000   4280225.1582  -4034432.0667  -2458270.1226   5  11  30.0000  30.0000  30.0000   0.0000   0.0000   0.0000   1.00    0.0
2019/02/12 09:19:48.000   4280232.6361  -4034445.0068  -2458272.5744   5  11  30.0000  30.0000  30.0000   0.0000   0.0000   0.0000   3.00    0.0
2019/02/12 09:19:49.000   4280226.2244  -4034435.6576  -2458270.4112   5  11  30.0000  30.0000  30.0000   0.0000   0.0000   0.0000   4.00    0.0
2019/02/12 09:19:57.000   4280233.8280  -4034434.0374  -2458270.6216   5  11  30.0000  30.0000  30.0000   0.0000   0.0000   0.0000  12.00    0.0
2019/02/12 09:20:05.000   4280215.6846  -4034421.9927  -2458265.2925   5  11  30.0000  30.0000  30.0000   0.0000   0.0000   0.0000   5.00    0.0
2019/02/12 09:20:14.000   4280217.3095  -4034429.8659  -2458276.2189   5  11  30.0000  30.0000  30.0000   0.0000   0.0000   0.0000  14.00    0.0
2019/02/12 09:20:22.000   4280223.0159  -4034423.8966  -2458270.4961   5  11  30.0000  30.0000  30.0000   0.0000   0.0000   0.0000   7.00    0.0
2019/02/12 09:20:23.000   4280202.5800  -4034418.0067  -2458260.2282   5  11  30.0000  30.0000  30.0000   0.0000   0.0000   0.0000   8.00    0.0
2019/02/12 09:20:30.000   4280213.0396  -4034413.3022  -2458253.8715   5  10  30.0000  30.0000  30.0000   0.0000   0.0000   0.0000  -0.00    0.0
2019/02/12 09:20:43.000   4280207.8082  -4034405.6193  -2458269.8445   5  10  30.0000  30.0000  30.0000   0.0000   0.0000   0.0000  13.00    0.0
2019/02/12 09:20:48.000   4280206.0043  -4034403.0474  -2458259.0849   5  10  30.0000  30.0000  30.0000   0.0000   0.0000   0.0000   3.00    0.0
2019/02/12 09:20:49.000   4280206.8146  -4034420.4384  -2458262.0163   5  10  30.0000  30.0000  30.0000   0.0000   0.0000   0.0000   4.00    0.0
2019/02/12 09:20:50.000   4280208.4324  -4034415.8009  -2458262.4672   5  11  30.0000  30.0000  30.0000   0.0000   0.0000   0.0000   5.00    0.0
2019/02/12 09:21:02.000   4280247.8106  -4034465.7808  -2458290.8045   5  11  30.0000  30.0000  30.0000   0.0000   0.0000   0.0000   2.00    0.0
2019/02/12 09:21:24.000   4280236.3243  -4034445.6670  -2458277.3400   5  11  30.0000  30.0000  30.0000   0.0000   0.0000   0.0000   9.00    0.0
2019/02/12 09:21:28.000   4280239.3853  -4034448.8963  -2458280.9769   5  11  30.0000  30.0000  30.0000   0.0000   0.0000   0.0000  13.00    0.0
2019/02/12 09:21:38.000   4280228.1429  -4034420.1328  -2458260.8090   5  11  30.0000  30.0000  30.0000   0.0000   0.0000   0.0000   8.00    0.0
2019/02/12 09:21:42.000   4280222.8792  -4034407.5907  -2458259.5732   5  11  30.0000  30.0000  30.0000   0.0000   0.0000   0.0000  12.00    0.0
2019/02/12 09:21:43.000   4280202.6360  -4034414.1095  -2458257.7499   5  11  30.0000  30.0000  30.0000   0.0000   0.0000   0.0000  13.00    0.0
2019/02/12 09:21:44.000   4280210.5679  -4034411.6077  -2458255.5676   5  11  30.0000  30.0000  30.0000   0.0000   0.0000   0.0000  14.00    0.0
2019/02/12 09:21:45.000   4280210.7171  -4034411.8762  -2458262.8154   5  11  30.0000  30.0000  30.0000   0.0000   0.0000   0.0000  -0.00    0.0
2019/02/12 09:22:02.000   4280221.4158  -4034412.2656  -2458267.6728   5  11  30.0000  30.0000  30.0000   0.0000   0.0000   0.0000   2.00    0.0
2019/02/12 09:22:03.000   4280210.9520  -4034405.8276  -2458267.6099   5  11  30.0000  30.0000  30.0000   0.0000   0.0000   0.0000   3.00    0.0
2019/02/12 09:22:04.000   4280206.9937  -4034405.0351  -2458260.6610   5  11  30.0000  30.0000  30.0000   0.0000   0.0000   0.0000   4.00    0.0
2019/02/12 09:22:05.000   4280212.3689  -4034408.1333  -2458259.2449   5  11  30.0000  30.0000  30.0000   0.0000   0.0000   0.0000   5.00    0.0
2019/02/12 09:22:06.000   4280216.8482  -4034412.9538  -2458263.3792   5  11  30.0000  30.0000  30.0000   0.0000   0.0000   0.0000   6.00    0.0
2019/02/12 09:22:11.000   4280222.0122  -4034417.0220  -2458261.7426   5  11  30.0000  30.0000  30.0000   0.0000   0.0000   0.0000  11.00    0.0
2019/02/12 09:22:19.000   4280229.2598  -4034433.1071  -2458266.7940   5  11  30.0000  30.0000  30.0000   0.0000   0.0000   0.0000   4.00    0.0
2019/02/12 09:22:24.000   4280222.3016  -4034427.0229  -2458271.7987   5  11  30.0000  30.0000  30.0000   0.0000   0.0000   0.0000   9.00    0.0
2019/02/12 09:22:31.000   4280219.0820  -4034428.4404  -2458268.9902   5  11  30.0000  30.0000  30.0000   0.0000   0.0000   0.0000   1.00    0.0
2019/02/12 09:22:34.000   4280225.5536  -4034442.1530  -2458271.5878   5  11  30.0000  30.0000  30.0000   0.0000   0.0000   0.0000   4.00    0.0
2019/02/12 09:22:38.000   4280238.4197  -4034442.5172  -2458281.5969   5  11  30.0000  30.0000  30.0000   0.0000   0.0000   0.0000   8.00    0.0
2019/02/12 09:22:40.000   4280249.6694  -4034440.9001  -2458275.7685   5  11  30.0000  30.0000  30.0000   0.0000   0.0000   0.0000  10.00    0.0
2019/02/12 09:22:41.000   4280250.8641  -4034449.1168  -2458276.6494   5  11  30.0000  30.0000  30.0000   0.0000   0.0000   0.0000  11.00    0.0
2019/02/12 09:22:42.000   4280234.4787  -4034433.4352  -2458276.2709   5  11  30.0000  30.0000  30.0000   0.0000   0.0000   0.0000  12.00    0.0
2019/02/12 09:22:43.000   4280238.2395  -4034430.1728  -2458264.1078   5  11  30.0000  30.0000  30.0000   0.0000   0.0000   0.0000  13.00    0.0
2019/02/12 09:22:46.000   4280209.4399  -4034415.7650  -2458268.1061   5  11  30.0000  30.0000  30.0000   0.0000   0.0000   0.0000   1.00    0.0
2019/02/12 09:22:50.000   4280219.8626  -4034423.3188  -2458267.7601   5  11  30.0000  30.0000  30.0000   0.0000   0.0000   0.0000   5.00    0.0
2019/02/12 09:22:51.000   4280210.7430  -4034425.3478  -2458270.6051   5  11  30.0000  30.0000  30.0000   0.0000   0.0000   0.0000   6.00    0.0
2019/02/12 09:22:52.000   4280215.5574  -4034406.7050  -2458263.8431   5  11  30.0000  30.0000  30.0000   0.0000   0.0000   0.0000   7.00    0.0
2019/02/12 09:22:53.000   4280220.3501  -4034423.7311  -2458272.3323   5  11  30.0000  30.0000  30.0000   0.0000   0.0000   0.0000   8.00    0.0
2019/02/12 09:22:55.000   4280219.7102  -4034421.5982  -2458274.0843   5  11  30.0000  30.0000  30.0000   0.0000   0.0000   0.0000  10.00    0.0
2019/02/12 09:22:56.000   4280222.3529  -4034417.8181  -2458272.9267   5  11  30.0000  30.0000  30.0000   0.0000   0.0000   0.0000  11.00    0.0
2019/02/12 09:22:58.000   4280233.5016  -4034420.5773  -2458275.7545   5  11  30.0000  30.0000  30.0000   0.0000   0.0000   0.0000  13.00    0.0
2019/02/12 09:22:59.000   4280217.2421  -4034410.5423  -2458267.0783   5  11  30.0000  30.0000  30.0000   0.0000   0.0000   0.0000  14.00    0.0
2019/02/12 09:23:00.000   4280223.9799  -4034414.2821  -2458269.2921   5  11  30.0000  30.0000  30.0000   0.0000   0.0000   0.0000  -0.00    0.0
2019/02/12 09:23:01.000   4280194.2454  -4034380.9974  -2458251.0492   5  11  30.0000  30.0000  30.0000   0.0000   0.0000   0.0000   1.00    0.0
2019/02/12 09:23:04.000   4280225.5949  -4034401.3885  -2458260.7086   5  11  30.0000  30.0000  30.0000   0.0000   0.0000   0.0000   4.00    0.0
2019/02/12 09:23:06.000   4280222.2781  -4034407.1836  -2458269.0525   5  11  30.0000  30.0000  30.0000   0.0000   0.0000   0.0000   6.00    0.0
2019/02/12 09:23:09.000   4280209.2664  -4034391.7416  -2458262.9608   5  11  30.0000  30.0000  30.0000   0.0000   0.0000   0.0000   9.00    0.0
2019/02/12 09:23:10.000   4280212.3434  -4034388.4667  -2458255.6281   5  11  30.0000  30.0000  30.0000   0.0000   0.0000   0.0000  10.00    0.0
2019/02/12 09:23:11.000   4280214.4987  -4034402.5697  -2458262.2999   5  11  30.0000  30.0000  30.0000   0.0000   0.0000   0.0000  11.00    0.0
2019/02/12 09:23:12.000   4280215.1675  -4034395.6589  -2458260.1890   5  11  30.0000  30.0000  30.0000   0.0000   0.0000   0.0000  12.00    0.0
2019/02/12 09:23:13.000   4280218.4377  -4034396.7350  -2458259.3922   5  11  30.0000  30.0000  30.0000   0.0000   0.0000   0.0000  13.00    0.0
2019/02/12 09:23:14.000   4280212.9706  -4034392.1558  -2458262.1414   5  11  30.0000  30.0000  30.0000   0.0000   0.0000   0.0000  14.00    0.0
2019/02/12 09:23:17.000   4280209.7395  -4034389.0336  -2458258.5288   5  11  30.0000  30.0000  30.0000   0.0000   0.0000   0.0000   2.00    0.0
2019/02/12 09:23:19.000   4280227.8736  -4034417.3957  -2458263.0214   5  11  30.0000  30.0000  30.0000   0.0000   0.0000   0.0000   4.00    0.0
2019/02/12 09:23:20.000   4280228.0659  -4034413.5654  -2458264.8582   5  11  30.0000  30.0000  30.0000   0.0000   0.0000   0.0000   5.00    0.0
2019/02/12 09:23:26.000   4280210.6516  -4034393.0278  -2458254.5048   5  11  30.0000  30.0000  30.0000   0.0000   0.0000   0.0000  11.00    0.0
2019/02/12 09:23:27.000   4280219.1771  -4034417.2051  -2458266.7155   5  11  30.0000  30.0000  30.0000   0.0000   0.0000   0.0000  12.00    0.0
