$GPGGA,092503.00,2249.146431,S,04318.399470,W,1,20,0.4,8.5,M,-5.2,M,,*79
$GPGSV,4,1,14,19,81,018,34,17,67,135,32,13,64,284,37,30,35,076,30*7A
$GPGSV,4,2,14,15,33,244,36,28,28,140,15,06,22,027,22,24,12,224,12*79
$GPGSV,4,3,14,12,07,275,,07,06,060,23,02,05,353,,05,03,326,*7A
$GPGSV,4,4,14,01,03,132,,51,15,281,*75
$GLGSV,3,1,09,86,63,075,30,76,38,177,26,75,32,120,22,85,25,145,20*63
$GLGSV,3,2,09,66,25,276,31,65,11,336,,67,09,226,14,77,06,231,11*63
$GLGSV,3,3,09,87,26,359,27*5D
$BDGSV,1,1,03,212,72,062,29,214,15,326,10,211,10,335,11*63
$GAGSV,2,1,06,127,46,153,27,121,34,224,35,119,25,248,22,107,18,356,26*65
$GAGSV,2,2,06,130,16,104,19,126,09,347,*6A
$GPGSA,A,3,06,07,13,15,17,19,24,28,30,,,,1.6,0.9,1.4*3F
$GNGSA,A,3,06,07,13,15,17,19,24,28,30,,,,1.6,0.9,1.4*21
$GNGSA,A,3,66,67,75,76,85,86,,,,,,,1.6,0.9,1.4*26
$QZGSA,A,3,,,,,,,,,,,,,1.6,0.9,1.4*25
$IMGSA,A,3,,,,,,,,,,,,,1.6,0.9,1.4*2A
$BDGSA,A,3,212,,,,,,,,,,,,1.6,0.9,1.4*19
$GAGSA,A,3,107,119,121,127,,,,,,,,,1.6,0.9,1.4*21
$GPRMC,092503.00,A,2249.146431,S,04318.399470,W,000.0,,150119,,,A*79
$GPGGA,092504.00,2249.146431,S,04318.399470,W,1,19,0.4,8.5,M,-5.2,M,,*74
$GPGSV,4,1,14,19,81,018,34,17,67,135,32,13,64,284,37,30,35,076,30*7A
$GPGSV,4,2,14,15,33,244,36,28,28,140,15,06,22,027,22,24,12,224,*7A
$GPGSV,4,3,14,12,07,275,11,07,06,060,23,02,05,353,,05,03,326,*7A
$GPGSV,4,4,14,01,03,132,,51,15,281,*75
$GLGSV,3,1,09,86,63,075,30,76,38,177,26,75,32,120,22,85,25,145,20*63
$GLGSV,3,2,09,66,25,276,31,65,11,336,,67,09,226,,77,06,231,*66
$GLGSV,3,3,09,87,26,359,26*5C
$BDGSV,1,1,03,212,72,062,29,214,15,326,,211,10,335,10*63
$GAGSV,2,1,06,127,46,153,27,121,34,224,35,119,25,248,22,107,18,356,26*65
$GAGSV,2,2,06,130,16,104,19,126,09,347,*6A
$GPGSA,A,3,06,07,13,15,17,19,28,30,,,,,1.8,1.0,1.5*3E
$GNGSA,A,3,06,07,13,15,17,19,28,30,,,,,1.8,1.0,1.5*20
$GNGSA,A,3,66,75,76,85,86,,,,,,,,1.8,1.0,1.5*20
$QZGSA,A,3,,,,,,,,,,,,,1.8,1.0,1.5*22
$IMGSA,A,3,,,,,,,,,,,,,1.8,1.0,1.5*2D
$BDGSA,A,3,212,,,,,,,,,,,,1.8,1.0,1.5*1E
$GAGSA,A,3,107,119,121,127,130,,,,,,,,1.8,1.0,1.5*14
$GPRMC,092504.00,A,2249.146431,S,04318.399470,W,000.0,,150119,,,A*7E
$GPGGA,092505.00,2249.146431,S,04318.399470,W,1,20,0.4,8.5,M,-5.2,M,,*7F
$GPGSV,4,1,14,19,81,018,34,17,67,135,32,13,64,284,37,30,35,076,30*7A
$GPGSV,4,2,14,15,33,244,36,28,28,140,15,06,22,027,22,24,12,224,*7A
$GPGSV,4,3,14,12,07,275,17,07,06,060,23,02,05,353,,05,03,326,*7C
$GPGSV,4,4,14,01,03,132,,51,15,281,*75
$GLGSV,3,1,09,86,63,075,30,76,38,177,26,75,32,120,22,85,25,145,20*63
$GLGSV,3,2,09,66,25,276,31,65,11,336,,67,09,226,,77,06,231,*66
$GLGSV,3,3,09,87,26,359,26*5C
$BDGSV,1,1,03,212,72,062,29,214,15,326,10,211,10,335,*63
$GAGSV,2,1,06,127,46,153,27,121,34,224,35,119,25,248,22,107,18,356,26*65
$GAGSV,2,2,06,130,16,104,20,126,09,347,*60
$GPGSA,A,3,06,07,12,13,15,17,19,30,,,,,1.8,1.0,1.5*37
$GNGSA,A,3,06,07,12,13,15,17,19,30,,,,,1.8,1.0,1.5*29
$GNGSA,A,3,66,75,76,85,86,,,,,,,,1.8,1.0,1.5*20
$QZGSA,A,3,,,,,,,,,,,,,1.8,1.0,1.5*22
$IMGSA,A,3,,,,,,,,,,,,,1.8,1.0,1.5*2D
$BDGSA,A,3,212,,,,,,,,,,,,1.8,1.0,1.5*1E
$GAGSA,A,3,107,119,121,127,130,,,,,,,,1.8,1.0,1.5*14
$GPRMC,092505.00,A,2249.146431,S,04318.399470,W,000.0,,150119,,,A*7F
$GPGGA,092506.00,2249.146431,S,04318.399470,W,1,18,0.4,8.5,M,-5.2,M,,*77
$GPGSV,4,1,14,19,81,018,33,17,67,135,34,13,64,284,37,30,35,076,31*7A
$GPGSV,4,2,14,15,33,244,36,28,28,140,14,06,22,027,24,24,12,224,*7D
$GPGSV,4,3,14,12,07,275,,07,06,060,23,02,05,353,,05,03,326,*7A
$GPGSV,4,4,14,01,03,132,,51,15,281,*75
$GLGSV,3,1,09,86,63,075,29,76,38,177,28,75,32,120,21,85,25,145,19*6C
$GLGSV,3,2,09,66,25,276,31,65,11,336,,67,09,226,,77,06,231,*66
$GLGSV,3,3,09,87,26,359,25*5F
$BDGSV,1,1,03,212,72,062,29,214,15,326,10,211,10,335,*63
$GAGSV,2,1,06,127,46,153,27,121,34,224,35,119,25,248,22,107,18,356,25*66
$GAGSV,2,2,06,130,16,104,20,126,09,347,*60
$GPGSA,A,3,06,07,13,15,17,19,30,,,,,,1.8,1.0,1.5*34
$GNGSA,A,3,06,07,13,15,17,19,30,,,,,,1.8,1.0,1.5*2A
$GNGSA,A,3,66,75,76,85,86,,,,,,,,1.8,1.0,1.5*20
$QZGSA,A,3,,,,,,,,,,,,,1.8,1.0,1.5*22
$IMGSA,A,3,,,,,,,,,,,,,1.8,1.0,1.5*2D
$BDGSA,A,3,212,,,,,,,,,,,,1.8,1.0,1.5*1E
$GAGSA,A,3,107,119,121,127,130,,,,,,,,1.8,1.0,1.5*14
$GPRMC,092506.00,A,2249.146431,S,04318.399470,W,000.0,,150119,,,A*7C
$GPGGA,092507.00,2249.146431,S,04318.399470,W,1,18,0.4,8.5,M,-5.2,M,,*76
$GPGSV,4,1,14,19,81,018,33,17,67,135,34,13,64,284,37,30,35,075,32*7A
$GPGSV,4,2,14,15,33,244,36,28,28,140,14,06,22,027,25,24,12,224,*7C
$GPGSV,4,3,14,12,07,275,,07,06,060,23,02,05,353,,05,03,326,*7A
$GPGSV,4,4,14,01,03,132,,51,15,281,*75
$GLGSV,3,1,09,86,63,075,29,76,38,177,28,75,32,120,21,85,25,145,19*6C
$GLGSV,3,2,09,66,25,276,31,65,11,336,,67,09,226,11,77,06,231,*66
$GLGSV,3,3,09,87,26,359,24*5E
$BDGSV,1,1,03,212,72,062,29,214,15,326,,211,10,335,*62
$GAGSV,2,1,06,127,46,153,28,121,34,224,35,119,25,248,21,107,18,356,27*68
$GAGSV,2,2,06,130,16,104,19,126,09,347,*6A
$GPGSA,A,3,06,07,13,15,17,19,30,,,,,,1.7,0.9,1.5*33
$GNGSA,A,3,06,07,13,15,17,19,30,,,,,,1.7,0.9,1.5*2D
$GNGSA,A,3,66,75,76,85,86,,,,,,,,1.7,0.9,1.5*27
$QZGSA,A,3,,,,,,,,,,,,,1.7,0.9,1.5*25
$IMGSA,A,3,,,,,,,,,,,,,1.7,0.9,1.5*2A
$BDGSA,A,3,212,,,,,,,,,,,,1.7,0.9,1.5*19
$GAGSA,A,3,107,119,121,127,130,,,,,,,,1.7,0.9,1.5*13
$GPRMC,092507.00,A,2249.146431,S,04318.399470,W,000.0,,150119,,,A*7D
$GPGGA,092508.00,2249.146431,S,04318.399470,W,1,21,0.4,8.5,M,-5.2,M,,*73
$GPGSV,4,1,14,19,81,018,33,17,67,135,34,13,64,284,37,30,35,075,32*7A
$GPGSV,4,2,14,15,33,244,36,28,28,140,14,06,22,027,24,24,12,224,*7D
$GPGSV,4,3,14,12,07,275,15,07,06,060,22,02,05,353,,05,03,326,*7F
$GPGSV,4,4,14,01,03,133,,51,15,281,*74
$GLGSV,3,1,09,86,63,075,29,76,38,177,28,75,32,120,21,85,25,145,18*6D
$GLGSV,3,2,09,66,25,276,31,65,11,336,,67,09,226,14,77,06,231,13*61
$GLGSV,3,3,09,87,26,359,24*5E
$BDGSV,1,1,03,212,72,062,29,214,15,326,,211,10,335,*62
$GAGSV,2,1,06,127,46,153,29,121,34,224,35,119,25,248,21,107,18,356,26*68
$GAGSV,2,2,06,130,16,104,19,126,09,347,*6A
$GPGSA,A,3,06,07,12,13,15,17,19,30,,,,,1.5,0.9,1.2*35
$GNGSA,A,3,06,07,12,13,15,17,19,30,,,,,1.5,0.9,1.2*2B
$GNGSA,A,3,66,67,75,76,77,85,86,,,,,,1.5,0.9,1.2*23
$QZGSA,A,3,,,,,,,,,,,,,1.5,0.9,1.2*20
$IMGSA,A,3,,,,,,,,,,,,,1.5,0.9,1.2*2F
$BDGSA,A,3,212,,,,,,,,,,,,1.5,0.9,1.2*1C
$GAGSA,A,3,107,119,121,127,130,,,,,,,,1.5,0.9,1.2*16
$GPRMC,092508.00,A,2249.146431,S,04318.399470,W,000.0,,150119,,,A*72
$GPGGA,092509.00,2249.146431,S,04318.399470,W,1,19,0.4,8.5,M,-5.2,M,,*79
$GPGSV,4,1,14,19,81,018,33,17,67,135,35,13,64,284,37,30,35,075,31*78
$GPGSV,4,2,14,15,33,244,36,28,28,140,14,06,22,027,24,24,12,224,*7D
$GPGSV,4,3,14,12,07,275,15,07,06,060,22,02,05,353,,05,03,326,*7F
$GPGSV,4,4,14,01,03,133,,51,15,281,*74
$GLGSV,3,1,09,86,63,075,28,76,38,177,30,75,32,120,23,85,25,145,20*6C
$GLGSV,3,2,09,66,25,276,31,65,11,336,,67,09,226,,77,06,231,*66
$GLGSV,3,3,09,87,26,359,24*5E
$BDGSV,1,1,03,212,72,062,28,214,15,326,,211,10,335,*63
$GAGSV,2,1,06,127,46,153,30,121,34,224,35,119,25,248,22,107,18,356,26*63
$GAGSV,2,2,06,130,16,104,20,126,09,347,*60
$GPGSA,A,3,06,07,13,15,17,19,28,30,,,,,1.5,0.8,1.2*3D
$GNGSA,A,3,06,07,13,15,17,19,28,30,,,,,1.5,0.8,1.2*23
$GNGSA,A,3,66,75,76,85,86,,,,,,,,1.5,0.8,1.2*23
$QZGSA,A,3,,,,,,,,,,,,,1.5,0.8,1.2*21
$IMGSA,A,3,,,,,,,,,,,,,1.5,0.8,1.2*2E
$BDGSA,A,3,212,,,,,,,,,,,,1.5,0.8,1.2*1D
$GAGSA,A,3,107,119,121,127,130,,,,,,,,1.5,0.8,1.2*17
$GPRMC,092509.00,A,2249.146431,S,04318.399470,W,000.0,,150119,,,A*73
$GPGGA,092510.00,2249.146431,S,04318.399470,W,1,20,0.4,8.5,M,-5.2,M,,*7B
$GPGSV,4,1,14,19,81,018,34,17,67,135,36,13,64,284,37,30,35,075,31*7C
$GPGSV,4,2,14,15,33,244,36,28,28,140,28,06,22,027,24,24,12,224,*72
$GPGSV,4,3,14,12,07,275,,07,06,060,22,02,05,353,,05,03,326,*7B
$GPGSV,4,4,14,01,03,133,,51,15,281,*74
$GLGSV,3,1,09,86,63,075,28,76,38,177,32,75,32,120,26,85,25,145,27*6C
$GLGSV,3,2,09,66,25,276,31,65,11,336,,67,09,226,16,77,06,231,*61
$GLGSV,3,3,09,87,26,359,24*5E
$BDGSV,1,1,03,212,72,062,28,214,15,326,10,211,10,335,*62
$GAGSV,2,1,06,127,46,153,32,121,34,224,35,119,25,248,23,107,18,356,26*60
$GAGSV,2,2,06,130,16,104,21,126,09,347,*61
$GPGSA,A,3,06,07,13,15,17,19,28,30,,,,,1.6,0.9,1.4*39
$GNGSA,A,3,06,07,13,15,17,19,28,30,,,,,1.6,0.9,1.4*27
$GNGSA,A,3,66,67,75,76,85,86,,,,,,,1.6,0.9,1.4*26
$QZGSA,A,3,,,,,,,,,,,,,1.6,0.9,1.4*25
$IMGSA,A,3,,,,,,,,,,,,,1.6,0.9,1.4*2A
$BDGSA,A,3,212,,,,,,,,,,,,1.6,0.9,1.4*19
$GAGSA,A,3,107,119,121,127,130,,,,,,,,1.6,0.9,1.4*13
$GPRMC,092510.00,A,2249.146431,S,04318.399470,W,000.0,,150119,,,A*7B
$GPGGA,092511.00,2249.146431,S,04318.399470,W,1,20,0.4,8.5,M,-5.2,M,,*7A
$GPGSV,4,1,14,19,81,018,34,17,67,135,36,13,64,284,37,30,35,075,31*7C
$GPGSV,4,2,14,15,33,244,36,28,28,140,30,06,22,027,23,24,12,224,*7C
$GPGSV,4,3,14,12,07,275,,07,06,060,22,02,05,353,12,05,03,326,*78
$GPGSV,4,4,14,01,03,133,,51,15,281,*74
$GLGSV,3,1,09,86,63,075,27,76,38,177,33,75,32,120,27,85,25,145,28*6C
$GLGSV,3,2,09,66,25,276,31,65,11,336,,67,09,226,16,77,06,231,*61
$GLGSV,3,3,09,87,26,359,24*5E
$BDGSV,1,1,03,212,72,062,28,214,15,326,10,211,10,335,*62
$GAGSV,2,1,06,127,46,153,32,121,34,224,35,119,25,248,23,107,18,356,25*63
$GAGSV,2,2,06,130,16,104,22,126,09,347,*62
$GPGSA,A,3,06,07,13,15,17,19,28,30,,,,,1.7,0.9,1.5*39
$GNGSA,A,3,06,07,13,15,17,19,28,30,,,,,1.7,0.9,1.5*27
$GNGSA,A,3,66,67,75,76,85,86,,,,,,,1.7,0.9,1.5*26
$QZGSA,A,3,,,,,,,,,,,,,1.7,0.9,1.5*25
$IMGSA,A,3,,,,,,,,,,,,,1.7,0.9,1.5*2A
$BDGSA,A,3,212,,,,,,,,,,,,1.7,0.9,1.5*19
$GAGSA,A,3,107,119,121,127,130,,,,,,,,1.7,0.9,1.5*13
$GPRMC,092511.00,A,2249.146431,S,04318.399470,W,000.0,,150119,,,A*7A
$GPGGA,092512.00,2249.146431,S,04318.399470,W,1,21,0.4,8.5,M,-5.2,M,,*78
$GPGSV,4,1,14,19,81,018,34,17,67,135,36,13,64,284,36,30,35,075,31*7D
$GPGSV,4,2,14,15,33,244,36,28,28,140,30,06,22,027,23,24,12,224,*7C
$GPGSV,4,3,14,12,07,275,18,07,06,060,22,02,05,353,,05,03,326,*72
$GPGSV,4,4,14,01,03,133,,51,15,281,*74
$GLGSV,3,1,09,86,63,075,27,76,38,177,33,75,32,120,27,66,25,276,31*6A
$GLGSV,3,2,09,85,24,145,28,65,11,336,09,67,09,226,16,77,06,231,*6F
$GLGSV,3,3,09,87,26,359,24*5E
$BDGSV,1,1,03,212,72,062,28,214,15,326,11,211,10,335,*63
$GAGSV,2,1,06,127,46,153,33,121,34,224,36,119,25,248,23,107,18,356,25*61
$GAGSV,2,2,06,130,16,104,22,126,09,347,*62
$GPGSA,A,3,06,07,12,13,15,17,19,28,30,,,,1.5,0.9,1.3*3E
$GNGSA,A,3,06,07,12,13,15,17,19,28,30,,,,1.5,0.9,1.3*20
$GNGSA,A,3,66,67,75,76,85,86,,,,,,,1.5,0.9,1.3*22
$QZGSA,A,3,,,,,,,,,,,,,1.5,0.9,1.3*21
$IMGSA,A,3,,,,,,,,,,,,,1.5,0.9,1.3*2E
$BDGSA,A,3,212,,,,,,,,,,,,1.5,0.9,1.3*1D
$GAGSA,A,3,107,119,121,127,130,,,,,,,,1.5,0.9,1.3*17
$GPRMC,092512.00,A,2249.146431,S,04318.399470,W,000.0,,150119,,,A*79
$GPGGA,092513.00,2249.146431,S,04318.399470,W,1,22,0.4,8.5,M,-5.2,M,,*7A
$GPGSV,4,1,14,19,81,018,34,17,67,135,36,13,64,284,36,30,35,075,31*7D
$GPGSV,4,2,14,15,33,244,36,28,28,140,30,06,22,027,22,24,12,224,*7D
$GPGSV,4,3,14,12,07,275,18,07,06,060,22,02,05,353,14,05,03,326,*77
$GPGSV,4,4,14,01,03,133,,51,15,281,*74
$GLGSV,3,1,09,86,63,075,26,76,38,177,33,75,32,120,27,66,25,276,31*6B
$GLGSV,3,2,09,85,24,145,28,65,11,336,09,67,09,226,16,77,06,231,*6F
$GLGSV,3,3,09,87,26,359,24*5E
$BDGSV,1,1,03,212,72,062,28,214,15,326,,211,10,335,*63
$GAGSV,2,1,06,127,46,153,33,121,34,224,36,119,25,248,23,107,18,356,24*60
$GAGSV,2,2,06,130,16,104,22,126,09,347,*62
$GPGSA,A,3,02,06,07,12,13,15,17,19,28,30,,,1.5,0.8,1.2*3C
$GNGSA,A,3,02,06,07,12,13,15,17,19,28,30,,,1.5,0.8,1.2*22
$GNGSA,A,3,66,67,75,76,85,86,,,,,,,1.5,0.8,1.2*22
$QZGSA,A,3,,,,,,,,,,,,,1.5,0.8,1.2*21
$IMGSA,A,3,,,,,,,,,,,,,1.5,0.8,1.2*2E
$BDGSA,A,3,212,,,,,,,,,,,,1.5,0.8,1.2*1D
$GAGSA,A,3,107,119,121,127,130,,,,,,,,1.5,0.8,1.2*17
$GPRMC,092513.00,A,2249.146431,S,04318.399470,W,000.0,,150119,,,A*78
$GPGGA,092514.00,2249.146431,S,04318.399470,W,1,22,0.4,8.5,M,-5.2,M,,*7D
$GPGSV,4,1,14,19,81,018,33,17,67,135,36,13,64,284,36,30,35,075,31*7A
$GPGSV,4,2,14,15,33,244,36,28,28,140,30,06,22,027,22,24,12,224,*7D
$GPGSV,4,3,14,12,07,275,18,07,06,060,21,02,05,353,13,05,03,326,*73
$GPGSV,4,4,14,01,03,133,,51,15,281,*74
$GLGSV,3,1,09,86,63,075,26,76,38,177,33,75,32,120,27,66,25,276,31*6B
$GLGSV,3,2,09,85,24,145,29,65,11,336,09,67,09,226,15,77,06,231,13*6F
$GLGSV,3,3,09,87,26,359,24*5E
$BDGSV,1,1,03,212,72,062,28,214,15,326,10,211,10,335,*62
$GAGSV,2,1,06,127,46,153,33,121,34,224,36,119,25,248,23,107,18,356,24*60
$GAGSV,2,2,06,130,16,104,22,126,09,347,*62
$GPGSA,A,3,06,07,12,13,15,17,19,28,30,,,,1.4,0.7,1.2*30
$GNGSA,A,3,06,07,12,13,15,17,19,28,30,,,,1.4,0.7,1.2*2E
$GNGSA,A,3,66,67,75,76,77,85,86,,,,,,1.4,0.7,1.2*2C
$QZGSA,A,3,,,,,,,,,,,,,1.4,0.7,1.2*2F
$IMGSA,A,3,,,,,,,,,,,,,1.4,0.7,1.2*20
$BDGSA,A,3,212,,,,,,,,,,,,1.4,0.7,1.2*13
$GAGSA,A,3,107,119,121,127,130,,,,,,,,1.4,0.7,1.2*19
$GPRMC,092514.00,A,2249.146431,S,04318.399470,W,000.0,,150119,,,A*7F
$GPGGA,092515.00,2249.146431,S,04318.399470,W,1,20,0.4,8.5,M,-5.2,M,,*7E
$GPGSV,4,1,14,19,81,018,33,17,67,135,36,13,64,284,36,30,35,075,31*7A
$GPGSV,4,2,14,15,33,244,36,28,28,140,30,06,22,027,22,24,12,224,*7D
$GPGSV,4,3,14,12,07,275,,07,06,060,21,02,05,353,,05,03,326,*78
$GPGSV,4,4,14,01,03,133,,51,15,281,*74
$GLGSV,3,1,09,86,63,075,26,76,38,177,33,75,32,120,26,66,25,276,31*6A
$GLGSV,3,2,09,85,24,145,29,65,11,336,09,67,09,226,15,77,06,231,*6D
$GLGSV,3,3,09,87,26,359,24*5E
$BDGSV,1,1,03,212,72,062,27,214,15,326,10,211,10,335,*6D
$GAGSV,2,1,06,127,46,153,33,121,34,224,36,119,25,248,23,107,18,356,24*60
$GAGSV,2,2,06,130,16,104,22,126,09,347,*62
$GPGSA,A,3,06,07,13,15,17,19,28,30,,,,,1.6,0.8,1.3*3F
$GNGSA,A,3,06,07,13,15,17,19,28,30,,,,,1.6,0.8,1.3*21
$GNGSA,A,3,66,67,75,76,85,86,,,,,,,1.6,0.8,1.3*20
$QZGSA,A,3,,,,,,,,,,,,,1.6,0.8,1.3*23
$IMGSA,A,3,,,,,,,,,,,,,1.6,0.8,1.3*2C
$BDGSA,A,3,212,,,,,,,,,,,,1.6,0.8,1.3*1F
$GAGSA,A,3,107,119,121,127,130,,,,,,,,1.6,0.8,1.3*15
$GPRMC,092515.00,A,2249.146431,S,04318.399470,W,000.0,,150119,,,A*7E
$GPGGA,092516.00,2249.146431,S,04318.399470,W,1,21,0.4,8.5,M,-5.2,M,,*7C
$GPGSV,4,1,14,19,82,018,33,17,67,135,36,13,64,284,36,30,35,075,31*79
$GPGSV,4,2,14,15,33,244,36,28,28,140,30,06,22,027,21,24,12,224,*7E
$GPGSV,4,3,14,12,07,275,,07,06,060,21,02,05,353,13,05,03,326,*7A
$GPGSV,4,4,14,01,03,133,,51,15,281,*74
$GLGSV,3,1,09,86,63,075,25,76,38,177,33,75,32,120,26,66,25,276,31*69
$GLGSV,3,2,09,85,24,145,29,65,11,336,09,67,09,226,15,77,06,231,*6D
$GLGSV,3,3,09,87,26,359,24*5E
$BDGSV,1,1,03,212,72,062,27,214,15,326,11,211,10,335,08*64
$GAGSV,2,1,06,127,46,153,33,121,34,224,36,119,25,248,23,107,18,356,23*67
$GAGSV,2,2,06,130,16,104,23,126,09,347,*63
$GPGSA,A,3,06,07,13,15,17,19,28,30,,,,,1.6,0.8,1.4*38
$GNGSA,A,3,06,07,13,15,17,19,28,30,,,,,1.6,0.8,1.4*26
$GNGSA,A,3,66,67,75,76,85,86,,,,,,,1.6,0.8,1.4*27
$QZGSA,A,3,,,,,,,,,,,,,1.6,0.8,1.4*24
$IMGSA,A,3,,,,,,,,,,,,,1.6,0.8,1.4*2B
$BDGSA,A,3,212,,,,,,,,,,,,1.6,0.8,1.4*18
$GAGSA,A,3,107,119,121,127,130,,,,,,,,1.6,0.8,1.4*12
$GPRMC,092516.00,A,2249.146431,S,04318.399470,W,000.0,,150119,,,A*7D
$GPGGA,092517.00,2249.146431,S,04318.399470,W,1,20,0.4,8.5,M,-5.2,M,,*7C
$GPGSV,4,1,14,19,82,018,33,17,67,135,36,13,64,284,36,30,35,075,30*78
$GPGSV,4,2,14,15,33,244,36,28,28,140,30,06,22,027,21,24,12,224,*7E
$GPGSV,4,3,14,12,07,275,,07,06,060,21,02,05,353,,05,03,326,*78
$GPGSV,4,4,14,01,03,133,,51,15,281,*74
$GLGSV,3,1,09,86,63,075,25,76,38,177,33,75,32,120,26,66,25,276,31*69
$GLGSV,3,2,09,85,24,145,29,65,11,336,10,67,09,226,15,77,06,231,*65
$GLGSV,3,3,09,87,26,359,24*5E
$BDGSV,1,1,03,212,72,062,27,214,15,326,12,211,10,335,*6F
$GAGSV,2,1,06,127,46,153,33,121,34,224,36,119,25,248,23,107,18,356,23*67
$GAGSV,2,2,06,130,16,104,24,126,09,347,*64
$GPGSA,A,3,06,07,13,15,17,19,28,30,,,,,1.6,0.8,1.4*38
$GNGSA,A,3,06,07,13,15,17,19,28,30,,,,,1.6,0.8,1.4*26
$GNGSA,A,3,66,67,75,76,85,86,,,,,,,1.6,0.8,1.4*27
$QZGSA,A,3,,,,,,,,,,,,,1.6,0.8,1.4*24
$IMGSA,A,3,,,,,,,,,,,,,1.6,0.8,1.4*2B
$BDGSA,A,3,212,,,,,,,,,,,,1.6,0.8,1.4*18
$GAGSA,A,3,107,119,121,127,130,,,,,,,,1.6,0.8,1.4*12
$GPRMC,092517.00,A,2249.146431,S,04318.399470,W,000.0,,150119,,,A*7C
$GPGGA,092518.00,2249.146431,S,04318.399470,W,1,20,0.4,8.5,M,-5.2,M,,*73
$GPGSV,4,1,14,19,82,018,33,17,67,135,36,13,64,284,36,30,35,075,30*78
$GPGSV,4,2,14,15,33,244,36,28,28,140,30,06,22,027,21,24,12,224,*7E
$GPGSV,4,3,14,12,07,275,,07,06,060,21,02,05,353,,05,03,326,*78
$GPGSV,4,4,14,01,03,133,,51,15,281,*74
$GLGSV,3,1,09,86,63,075,25,76,38,177,33,75,32,120,26,66,25,276,31*69
$GLGSV,3,2,09,85,24,145,28,65,11,336,10,67,09,226,15,77,06,231,*64
$GLGSV,3,3,09,87,26,359,25*5F
$BDGSV,1,1,03,212,72,062,27,214,15,326,11,211,10,335,08*64
$GAGSV,2,1,06,127,46,153,33,121,34,224,36,119,25,248,23,107,18,356,23*67
$GAGSV,2,2,06,130,16,104,24,126,09,347,*64
$GPGSA,A,3,06,07,13,15,17,19,28,30,,,,,1.6,0.8,1.3*3F
$GNGSA,A,3,06,07,13,15,17,19,28,30,,,,,1.6,0.8,1.3*21
$GNGSA,A,3,66,67,75,76,85,86,,,,,,,1.6,0.8,1.3*20
$QZGSA,A,3,,,,,,,,,,,,,1.6,0.8,1.3*23
$IMGSA,A,3,,,,,,,,,,,,,1.6,0.8,1.3*2C
$BDGSA,A,3,212,,,,,,,,,,,,1.6,0.8,1.3*1F
$GAGSA,A,3,107,119,121,127,130,,,,,,,,1.6,0.8,1.3*15
$GPRMC,092518.00,A,2249.146431,S,04318.399470,W,000.0,,150119,,,A*73
$GPGGA,092519.00,2249.146431,S,04318.399470,W,1,20,0.4,8.5,M,-5.2,M,,*72
$GPGSV,4,1,14,19,82,018,33,17,67,135,36,13,64,284,36,30,35,075,30*78
$GPGSV,4,2,14,15,33,244,36,28,28,140,30,06,22,027,21,24,12,224,*7E
$GPGSV,4,3,14,12,07,275,,07,06,060,21,02,05,353,,05,03,326,*78
$GPGSV,4,4,14,01,03,133,,51,15,281,*74
$GLGSV,3,1,09,86,63,075,25,76,38,177,33,75,32,120,26,66,25,276,32*6A
$GLGSV,3,2,09,85,24,145,28,65,11,336,11,67,09,226,16,77,06,231,*66
$GLGSV,3,3,09,87,26,359,25*5F
$BDGSV,1,1,03,212,72,062,27,214,15,326,,211,10,335,*6C
$GAGSV,2,1,06,127,46,153,33,121,34,224,36,119,25,248,23,107,18,356,23*67
$GAGSV,2,2,06,130,16,104,24,126,09,347,*64
$GPGSA,A,3,06,07,13,15,17,19,28,30,,,,,1.6,0.8,1.4*38
$GNGSA,A,3,06,07,13,15,17,19,28,30,,,,,1.6,0.8,1.4*26
$GNGSA,A,3,66,67,75,76,85,86,,,,,,,1.6,0.8,1.4*27
$QZGSA,A,3,,,,,,,,,,,,,1.6,0.8,1.4*24
$IMGSA,A,3,,,,,,,,,,,,,1.6,0.8,1.4*2B
$BDGSA,A,3,212,,,,,,,,,,,,1.6,0.8,1.4*18
$GAGSA,A,3,107,119,121,127,130,,,,,,,,1.6,0.8,1.4*12
$GPRMC,092519.00,A,2249.146431,S,04318.399470,W,000.0,,150119,,,A*72
$GPGGA,092520.00,2249.146431,S,04318.399470,W,1,20,0.4,8.5,M,-5.2,M,,*78
$GPGSV,4,1,14,19,82,018,33,17,67,135,36,13,64,284,36,30,35,075,30*78
$GPGSV,4,2,14,15,33,244,36,28,28,140,30,06,22,027,21,24,12,224,*7E
$GPGSV,4,3,14,12,07,275,,07,06,060,20,02,05,353,,05,03,326,*79
$GPGSV,4,4,14,01,03,133,,51,15,281,*74
$GLGSV,3,1,09,86,63,075,24,76,38,177,33,75,32,120,26,66,25,276,32*6B
$GLGSV,3,2,09,85,24,145,28,65,11,336,11,67,09,226,16,77,06,231,*66
$GLGSV,3,3,09,87,26,359,25*5F
$BDGSV,1,1,03,212,72,062,27,214,15,326,,211,10,335,*6C
$GAGSV,2,1,06,127,46,153,33,121,34,224,36,119,25,248,24,107,18,356,22*61
$GAGSV,2,2,06,130,16,104,24,126,09,347,*64
$GPGSA,A,3,06,07,13,15,17,19,28,30,,,,,1.5,0.8,1.2*3D
$GNGSA,A,3,06,07,13,15,17,19,28,30,,,,,1.5,0.8,1.2*23
$GNGSA,A,3,66,67,75,76,85,86,,,,,,,1.5,0.8,1.2*22
$QZGSA,A,3,,,,,,,,,,,,,1.5,0.8,1.2*21
$IMGSA,A,3,,,,,,,,,,,,,1.5,0.8,1.2*2E
$BDGSA,A,3,212,,,,,,,,,,,,1.5,0.8,1.2*1D
$GAGSA,A,3,107,119,121,127,130,,,,,,,,1.5,0.8,1.2*17
$GPRMC,092520.00,A,2249.146431,S,04318.399470,W,000.0,,150119,,,A*78
$GPGGA,092521.00,2249.146431,S,04318.399470,W,1,22,0.4,8.5,M,-5.2,M,,*7B
$GPGSV,4,1,14,19,82,018,33,17,67,135,36,13,64,284,36,30,35,075,30*78
$GPGSV,4,2,14,15,33,244,36,28,28,140,30,06,22,027,20,24,12,224,*7F
$GPGSV,4,3,14,12,07,275,13,07,06,060,20,02,05,353,,05,03,326,*7B
$GPGSV,4,4,14,01,03,133,,51,15,281,*74
$GLGSV,3,1,09,86,63,075,24,76,38,177,33,75,32,120,26,66,25,276,32*6B
$GLGSV,3,2,09,85,24,145,28,65,11,336,12,67,09,226,16,77,06,231,14*60
$GLGSV,3,3,09,87,26,359,25*5F
$BDGSV,1,1,03,212,72,062,27,214,15,326,,211,10,335,*6C
$GAGSV,2,1,06,127,46,153,33,121,34,224,36,119,25,248,24,107,18,356,22*61
$GAGSV,2,2,06,130,16,104,24,126,09,347,*64
$GPGSA,A,3,06,07,12,13,15,17,19,28,30,,,,1.5,0.8,1.2*3E
$GNGSA,A,3,06,07,12,13,15,17,19,28,30,,,,1.5,0.8,1.2*20
$GNGSA,A,3,66,67,75,76,77,85,86,,,,,,1.5,0.8,1.2*22
$QZGSA,A,3,,,,,,,,,,,,,1.5,0.8,1.2*21
$IMGSA,A,3,,,,,,,,,,,,,1.5,0.8,1.2*2E
$BDGSA,A,3,212,,,,,,,,,,,,1.5,0.8,1.2*1D
$GAGSA,A,3,107,119,121,127,130,,,,,,,,1.5,0.8,1.2*17
$GPRMC,092521.00,A,2249.146431,S,04318.399470,W,000.0,,150119,,,A*79
$GPGGA,092522.00,2249.146431,S,04318.399470,W,1,23,0.4,8.5,M,-5.2,M,,*79
$GPGSV,4,1,14,19,82,018,33,17,67,135,36,13,64,284,36,30,35,075,30*78
$GPGSV,4,2,14,15,33,244,36,28,28,140,30,06,22,027,20,24,12,224,14*7A
$GPGSV,4,3,14,12,07,275,,07,06,060,19,02,05,353,,05,03,326,*73
$GPGSV,4,4,14,01,03,133,,51,15,281,*74
$GLGSV,3,1,09,86,63,075,24,76,38,177,33,75,32,120,26,66,25,276,32*6B
$GLGSV,3,2,09,85,24,145,28,65,11,336,12,67,09,226,16,77,06,231,*65
$GLGSV,3,3,09,87,26,359,24*5E
$BDGSV,1,1,03,212,72,062,27,214,15,326,,211,10,335,*6C
$GAGSV,2,1,06,127,46,153,33,121,34,224,36,119,25,248,24,107,18,356,22*61
$GAGSV,2,2,06,130,16,104,24,126,09,347,*64
$GPGSA,A,3,06,07,13,15,17,19,24,28,30,,,,1.4,0.8,1.1*39
$GNGSA,A,3,06,07,13,15,17,19,24,28,30,,,,1.4,0.8,1.1*27
$GNGSA,A,3,65,66,67,75,76,85,86,,,,,,1.4,0.8,1.1*23
$QZGSA,A,3,,,,,,,,,,,,,1.4,0.8,1.1*23
$IMGSA,A,3,,,,,,,,,,,,,1.4,0.8,1.1*2C
$BDGSA,A,3,212,,,,,,,,,,,,1.4,0.8,1.1*1F
$GAGSA,A,3,107,119,121,127,130,,,,,,,,1.4,0.8,1.1*15
$GPRMC,092522.00,A,2249.146431,S,04318.399470,W,000.0,,150119,,,A*7A
$GPGGA,092523.00,2249.146431,S,04318.399470,W,1,22,0.4,8.5,M,-5.2,M,,*79
$GPGSV,4,1,14,19,82,018,33,17,67,135,36,13,64,284,36,30,35,075,30*78
$GPGSV,4,2,14,15,33,244,36,28,28,140,30,06,22,027,20,24,12,224,*7F
$GPGSV,4,3,14,12,07,275,12,07,06,060,19,02,05,353,,05,03,326,*70
$GPGSV,4,4,14,01,03,133,,51,15,281,*74
$GLGSV,3,1,09,86,63,075,24,76,38,177,33,75,32,120,26,66,25,276,32*6B
$GLGSV,3,2,09,85,24,145,28,65,11,336,13,67,09,226,16,77,06,231,14*61
$GLGSV,3,3,09,87,26,359,24*5E
$BDGSV,1,1,03,212,72,063,27,214,15,326,,211,10,335,*6D
$GAGSV,2,1,06,127,46,153,33,121,34,224,36,119,25,248,24,107,18,356,22*61
$GAGSV,2,2,06,130,16,104,23,126,09,347,*63
$GPGSA,A,3,06,07,13,15,17,19,28,30,,,,,1.4,0.8,1.1*3F
$GNGSA,A,3,06,07,13,15,17,19,28,30,,,,,1.4,0.8,1.1*21
$GNGSA,A,3,65,66,67,75,76,77,85,86,,,,,1.4,0.8,1.1*23
$QZGSA,A,3,,,,,,,,,,,,,1.4,0.8,1.1*23
$IMGSA,A,3,,,,,,,,,,,,,1.4,0.8,1.1*2C
$BDGSA,A,3,212,,,,,,,,,,,,1.4,0.8,1.1*1F
$GAGSA,A,3,107,119,121,127,130,,,,,,,,1.4,0.8,1.1*15
$GPRMC,092523.00,A,2249.146431,S,04318.399470,W,000.0,,150119,,,A*7B
$GPGGA,092524.00,2249.146431,S,04318.399470,W,1,22,0.4,8.5,M,-5.2,M,,*7E
$GPGSV,4,1,14,19,82,018,33,17,67,135,36,13,64,284,36,30,35,075,30*78
$GPGSV,4,2,14,15,33,244,36,28,28,140,30,06,22,027,20,24,12,224,14*7A
$GPGSV,4,3,14,12,07,275,,07,06,060,18,02,05,353,,05,03,326,*72
$GPGSV,4,4,14,01,03,133,,51,15,281,*74
$GLGSV,3,1,09,86,63,075,24,76,38,177,33,75,32,120,26,66,25,276,32*6B
$GLGSV,3,2,09,85,24,145,28,65,11,336,13,67,09,226,17,77,06,231,*65
$GLGSV,3,3,09,87,26,359,24*5E
$BDGSV,1,1,03,212,72,063,27,214,15,326,,211,10,335,*6D
$GAGSV,2,1,06,127,46,153,33,121,34,224,36,119,25,248,24,107,18,356,21*62
$GAGSV,2,2,06,130,16,104,23,126,09,347,*63
$GPGSA,A,3,06,07,13,15,17,19,24,28,30,,,,1.5,0.9,1.2*3A
$GNGSA,A,3,06,07,13,15,17,19,24,28,30,,,,1.5,0.9,1.2*24
$GNGSA,A,3,65,66,67,75,76,85,86,,,,,,1.5,0.9,1.2*20
$QZGSA,A,3,,,,,,,,,,,,,1.5,0.9,1.2*20
$IMGSA,A,3,,,,,,,,,,,,,1.5,0.9,1.2*2F
$BDGSA,A,3,212,,,,,,,,,,,,1.5,0.9,1.2*1C
$GAGSA,A,3,107,119,121,127,130,,,,,,,,1.5,0.9,1.2*16
$GPRMC,092524.00,A,2249.146431,S,04318.399470,W,000.0,,150119,,,A*7C
$GPGGA,092525.00,2249.146431,S,04318.399470,W,1,22,0.4,8.5,M,-5.2,M,,*7F
$GPGSV,4,1,14,19,82,019,33,17,67,135,36,13,64,284,36,30,35,075,30*79
$GPGSV,4,2,14,15,33,244,36,28,28,140,30,06,22,027,20,24,12,224,*7F
$GPGSV,4,3,14,12,07,275,11,07,06,060,18,02,05,353,,05,03,326,*72
$GPGSV,4,4,14,01,03,133,,51,15,281,*74
$GLGSV,3,1,09,86,63,075,24,76,38,177,33,75,32,120,26,66,25,276,32*6B
$GLGSV,3,2,09,85,24,145,28,65,11,336,13,67,09,226,18,77,06,231,*6A
$GLGSV,3,3,09,87,26,359,24*5E
$BDGSV,1,1,03,212,72,063,27,214,15,326,,211,10,335,*6D
$GAGSV,2,1,06,127,46,153,33,121,34,224,36,119,25,248,24,107,18,356,21*62
$GAGSV,2,2,06,130,16,104,23,126,09,347,*63
$GPGSA,A,3,06,07,13,15,17,19,28,30,,,,,1.5,0.9,1.2*3C
$GNGSA,A,3,06,07,13,15,17,19,28,30,,,,,1.5,0.9,1.2*22
$GNGSA,A,3,65,66,67,75,76,85,86,,,,,,1.5,0.9,1.2*20
$QZGSA,A,3,,,,,,,,,,,,,1.5,0.9,1.2*20
$IMGSA,A,3,,,,,,,,,,,,,1.5,0.9,1.2*2F
$BDGSA,A,3,212,,,,,,,,,,,,1.5,0.9,1.2*1C
$GAGSA,A,3,107,119,121,127,130,,,,,,,,1.5,0.9,1.2*16
$GPRMC,092525.00,A,2249.146431,S,04318.399470,W,000.0,,150119,,,A*7D
$GPGGA,092526.00,2249.146431,S,04318.399470,W,1,22,0.4,8.5,M,-5.2,M,,*7C
$GPGSV,4,1,14,19,82,019,33,17,67,135,36,13,64,284,36,30,35,075,30*79
$GPGSV,4,2,14,15,33,244,36,28,28,140,30,06,22,027,19,24,12,224,*75
$GPGSV,4,3,14,12,07,275,,07,06,060,18,02,05,353,,05,03,326,*72
$GPGSV,4,4,14,01,03,133,,51,15,281,*74
$GLGSV,3,1,09,86,63,075,24,76,38,177,33,75,32,120,27,66,25,276,32*6A
$GLGSV,3,2,09,85,24,145,28,65,11,336,14,67,09,226,17,77,06,231,*62
$GLGSV,3,3,09,87,26,359,24*5E
$BDGSV,1,1,03,212,72,063,27,214,15,326,10,211,10,335,*6C
$GAGSV,2,1,06,127,46,153,33,121,34,223,36,119,25,248,24,107,18,356,21*65
$GAGSV,2,2,06,130,16,104,23,126,09,347,*63
$GPGSA,A,3,06,07,13,15,17,19,28,30,,,,,1.5,0.9,1.2*3C
$GNGSA,A,3,06,07,13,15,17,19,28,30,,,,,1.5,0.9,1.2*22
$GNGSA,A,3,65,66,67,75,76,85,86,,,,,,1.5,0.9,1.2*20
$QZGSA,A,3,,,,,,,,,,,,,1.5,0.9,1.2*20
$IMGSA,A,3,,,,,,,,,,,,,1.5,0.9,1.2*2F
$BDGSA,A,3,212,,,,,,,,,,,,1.5,0.9,1.2*1C
$GAGSA,A,3,107,119,121,127,130,,,,,,,,1.5,0.9,1.2*16
$GPRMC,092526.00,A,2249.146431,S,04318.399470,W,000.0,,150119,,,A*7E
$GPGGA,092527.00,2249.146431,S,04318.399470,W,1,22,0.4,8.5,M,-5.2,M,,*7D
$GPGSV,4,1,14,19,82,019,33,17,67,135,36,13,64,284,36,30,34,075,30*78
$GPGSV,4,2,14,15,33,244,36,28,28,140,30,06,22,027,19,24,12,224,*75
$GPGSV,4,3,14,12,07,275,,07,06,060,18,02,05,353,,05,03,326,*72
$GPGSV,4,4,14,01,03,133,,51,15,281,*74
$GLGSV,3,1,09,86,63,075,24,76,38,177,33,75,32,120,27,66,25,276,31*69
$GLGSV,3,2,09,85,24,145,28,65,11,336,14,67,09,226,17,77,06,231,13*60
$GLGSV,3,3,09,87,26,359,24*5E
$BDGSV,1,1,03,212,72,063,27,214,15,326,09,211,10,335,*64
$GAGSV,2,1,06,127,46,153,33,121,34,223,36,119,25,248,24,107,18,356,21*65
$GAGSV,2,2,06,130,16,104,24,126,09,347,*64
$GPGSA,A,3,06,07,13,15,17,19,28,30,,,,,1.5,0.9,1.2*3C
$GNGSA,A,3,06,07,13,15,17,19,28,30,,,,,1.5,0.9,1.2*22
$GNGSA,A,3,65,66,67,75,76,77,85,86,,,,,1.5,0.9,1.2*20
$QZGSA,A,3,,,,,,,,,,,,,1.5,0.9,1.2*20
$IMGSA,A,3,,,,,,,,,,,,,1.5,0.9,1.2*2F
$BDGSA,A,3,212,,,,,,,,,,,,1.5,0.9,1.2*1C
$GAGSA,A,3,107,119,121,127,130,,,,,,,,1.5,0.9,1.2*16
$GPRMC,092527.00,A,2249.146431,S,04318.399470,W,000.0,,150119,,,A*7F
$GPGGA,092528.00,2249.146431,S,04318.399470,W,1,21,0.4,8.5,M,-5.2,M,,*71
$GPGSV,4,1,14,19,82,019,33,17,67,135,36,13,64,284,36,30,34,075,30*78
$GPGSV,4,2,14,15,33,244,36,28,28,140,30,06,22,027,18,24,12,224,*74
$GPGSV,4,3,14,12,07,275,,07,06,060,17,02,05,353,09,05,03,326,*74
$GPGSV,4,4,14,01,03,133,,51,15,281,*74
$GLGSV,3,1,09,86,63,075,24,76,38,177,33,75,32,120,27,66,25,276,31*69
$GLGSV,3,2,09,85,24,145,28,65,11,336,14,67,09,226,17,77,06,231,*62
$GLGSV,3,3,09,87,26,359,24*5E
$BDGSV,1,1,03,212,72,063,26,214,15,326,,211,10,335,*6C
$GAGSV,2,1,06,127,46,153,33,121,34,223,36,119,25,248,24,107,18,356,21*65
$GAGSV,2,2,06,130,16,104,24,126,09,347,*64
$GPGSA,A,3,06,07,13,15,17,19,28,30,,,,,1.5,0.9,1.2*3C
$GNGSA,A,3,06,07,13,15,17,19,28,30,,,,,1.5,0.9,1.2*22
$GNGSA,A,3,65,66,67,75,76,85,86,,,,,,1.5,0.9,1.2*20
$QZGSA,A,3,,,,,,,,,,,,,1.5,0.9,1.2*20
$IMGSA,A,3,,,,,,,,,,,,,1.5,0.9,1.2*2F
$BDGSA,A,3,212,,,,,,,,,,,,1.5,0.9,1.2*1C
$GAGSA,A,3,107,119,121,127,130,,,,,,,,1.5,0.9,1.2*16
$GPRMC,092528.00,A,2249.146431,S,04318.399470,W,000.0,,150119,,,A*70
$GPGGA,092529.00,2249.146431,S,04318.399470,W,1,22,0.4,8.5,M,-5.2,M,,*73
$GPGSV,4,1,14,19,82,019,33,17,67,135,36,13,64,284,36,30,34,075,30*78
$GPGSV,4,2,14,15,33,244,36,28,28,139,30,06,22,027,18,24,12,224,*7A
$GPGSV,4,3,14,12,07,275,,07,06,060,17,02,05,353,,05,03,326,*7D
$GPGSV,4,4,14,01,03,133,,51,15,281,*74
$GLGSV,3,1,09,86,63,075,24,76,38,177,33,75,32,120,27,66,25,276,31*69
$GLGSV,3,2,09,85,24,145,28,65,11,336,14,67,09,226,17,77,06,231,12*61
$GLGSV,3,3,09,87,26,359,24*5E
$BDGSV,1,1,03,212,72,063,26,214,15,326,,211,10,335,*6C
$GAGSV,2,1,06,127,46,153,33,121,34,223,36,119,25,248,24,107,18,356,21*65
$GAGSV,2,2,06,130,16,104,24,126,09,347,*64
$GPGSA,A,3,06,07,13,15,17,19,28,30,,,,,1.4,0.8,1.1*3F
$GNGSA,A,3,06,07,13,15,17,19,28,30,,,,,1.4,0.8,1.1*21
$GNGSA,A,3,65,66,67,75,76,85,86,,,,,,1.4,0.8,1.1*23
$QZGSA,A,3,,,,,,,,,,,,,1.4,0.8,1.1*23
$IMGSA,A,3,,,,,,,,,,,,,1.4,0.8,1.1*2C
$BDGSA,A,3,212,,,,,,,,,,,,1.4,0.8,1.1*1F
$GAGSA,A,3,107,119,121,127,130,,,,,,,,1.4,0.8,1.1*15
$GPRMC,092529.00,A,2249.146431,S,04318.399470,W,000.0,,150119,,,A*71
$GPGGA,092530.00,2249.146431,S,04318.399470,W,1,21,0.4,8.5,M,-5.2,M,,*78
$GPGSV,4,1,14,19,82,019,33,17,67,135,36,13,64,284,36,30,34,075,30*78
$GPGSV,4,2,14,15,33,244,36,28,28,139,30,06,22,027,18,24,12,224,12*79
$GPGSV,4,3,14,12,07,275,,07,06,060,17,02,05,353,,05,03,326,*7D
$GPGSV,4,4,14,01,03,133,,51,15,281,*74
$GLGSV,3,1,09,86,63,075,24,76,38,177,33,75,32,120,27,66,25,276,31*69
$GLGSV,3,2,09,85,24,145,28,65,11,336,15,67,09,226,17,77,06,231,*63
$GLGSV,3,3,09,87,26,359,24*5E
$BDGSV,1,1,03,212,72,063,26,214,15,326,,211,10,335,*6C
$GAGSV,2,1,06,127,46,153,33,121,34,223,36,119,25,248,25,107,18,356,20*65
$GAGSV,2,2,06,130,16,104,24,126,09,347,*64
$GPGSA,A,3,06,07,13,15,17,19,28,30,,,,,1.4,0.8,1.1*3F
$GNGSA,A,3,06,07,13,15,17,19,28,30,,,,,1.4,0.8,1.1*21
$GNGSA,A,3,65,66,67,75,76,85,86,,,,,,1.4,0.8,1.1*23
$QZGSA,A,3,,,,,,,,,,,,,1.4,0.8,1.1*23
$IMGSA,A,3,,,,,,,,,,,,,1.4,0.8,1.1*2C
$BDGSA,A,3,212,,,,,,,,,,,,1.4,0.8,1.1*1F
$GAGSA,A,3,107,119,121,127,130,,,,,,,,1.4,0.8,1.1*15
$GPRMC,092530.00,A,2249.146431,S,04318.399470,W,000.0,,150119,,,A*79
$GPGGA,092531.00,2249.146431,S,04318.399470,W,1,25,0.4,8.5,M,-5.2,M,,*7D
$GPGSV,4,1,14,19,82,019,33,17,67,135,36,13,64,284,36,30,34,075,30*78
$GPGSV,4,2,14,15,33,244,36,28,28,139,30,06,22,027,18,24,12,224,16*7D
$GPGSV,4,3,14,12,07,275,16,07,06,060,17,02,05,353,,05,03,326,*7A
$GPGSV,4,4,14,01,03,133,,51,15,281,*74
$GLGSV,3,1,09,86,63,075,24,76,38,177,33,75,32,120,27,66,25,276,31*69
$GLGSV,3,2,09,85,24,145,28,65,11,336,15,67,09,226,16,77,06,231,13*60
$GLGSV,3,3,09,87,26,359,24*5E
$BDGSV,1,1,03,212,72,063,26,214,15,326,,211,10,335,*6C
$GAGSV,2,1,06,127,46,153,33,121,34,223,36,119,25,248,25,107,18,356,20*65
$GAGSV,2,2,06,130,16,104,23,126,09,347,*63
$GPGSA,A,3,06,07,12,13,15,17,19,24,28,30,,,1.5,0.9,1.2*39
$GNGSA,A,3,06,07,12,13,15,17,19,24,28,30,,,1.5,0.9,1.2*27
$GNGSA,A,3,65,66,67,75,76,77,85,86,,,,,1.5,0.9,1.2*20
$QZGSA,A,3,,,,,,,,,,,,,1.5,0.9,1.2*20
$IMGSA,A,3,,,,,,,,,,,,,1.5,0.9,1.2*2F
$BDGSA,A,3,212,,,,,,,,,,,,1.5,0.9,1.2*1C
$GAGSA,A,3,107,119,121,127,130,,,,,,,,1.5,0.9,1.2*16
$GPRMC,092531.00,A,2249.146431,S,04318.399470,W,000.0,,150119,,,A*78
$GPGGA,092532.00,2249.146431,S,04318.399470,W,1,21,0.4,8.5,M,-5.2,M,,*7A
$GPGSV,4,1,14,19,82,019,33,17,67,135,36,13,64,284,36,30,34,075,29*70
$GPGSV,4,2,14,15,33,244,36,28,28,139,30,06,22,027,18,24,12,224,16*7D
$GPGSV,4,3,14,12,07,275,,07,06,060,17,02,05,353,,05,03,326,*7D
$GPGSV,4,4,14,01,03,133,,51,15,281,*74
$GLGSV,3,1,09,86,63,075,24,76,38,177,33,75,32,120,27,66,25,276,32*6A
$GLGSV,3,2,09,85,24,145,28,65,11,336,15,67,09,226,16,77,06,231,*62
$GLGSV,3,3,09,87,26,359,24*5E
$BDGSV,1,1,03,212,72,063,26,214,15,326,,211,10,335,*6C
$GAGSV,2,1,06,127,46,153,33,121,34,223,36,119,25,248,25,107,18,356,21*64
$GAGSV,2,2,06,130,16,104,23,126,09,347,*63
$GPGSA,A,3,06,07,13,15,17,19,28,30,,,,,1.4,0.8,1.1*3F
$GNGSA,A,3,06,07,13,15,17,19,28,30,,,,,1.4,0.8,1.1*21
$GNGSA,A,3,65,66,67,75,76,85,86,,,,,,1.4,0.8,1.1*23
$QZGSA,A,3,,,,,,,,,,,,,1.4,0.8,1.1*23
$IMGSA,A,3,,,,,,,,,,,,,1.4,0.8,1.1*2C
$BDGSA,A,3,212,,,,,,,,,,,,1.4,0.8,1.1*1F
$GAGSA,A,3,107,119,121,127,130,,,,,,,,1.4,0.8,1.1*15
$GPRMC,092532.00,A,2249.146431,S,04318.399470,W,000.0,,150119,,,A*7B
$GPGGA,092533.00,2249.146431,S,04318.399470,W,1,21,0.4,8.5,M,-5.2,M,,*7B
$GPGSV,4,1,14,19,82,019,33,17,67,135,36,13,64,285,36,30,34,075,29*71
$GPGSV,4,2,14,15,33,244,36,28,28,139,29,06,22,027,17,24,12,224,15*79
$GPGSV,4,3,14,12,07,275,,07,06,060,17,02,05,353,,05,03,326,*7D
$GPGSV,4,4,14,01,03,133,,51,15,281,*74
$GLGSV,3,1,09,86,63,076,24,76,38,177,33,75,32,120,27,66,25,276,32*69
$GLGSV,3,2,09,85,24,145,28,65,11,336,15,67,09,226,16,77,06,231,*62
$GLGSV,3,3,09,87,26,359,24*5E
$BDGSV,1,1,03,212,72,063,26,214,15,326,,211,10,335,*6C
$GAGSV,2,1,06,127,46,153,33,121,34,223,36,119,25,248,25,107,18,356,21*64
$GAGSV,2,2,06,130,16,104,23,126,09,347,*63
$GPGSA,A,3,06,07,13,15,17,19,28,30,,,,,1.4,0.8,1.1*3F
$GNGSA,A,3,06,07,13,15,17,19,28,30,,,,,1.4,0.8,1.1*21
$GNGSA,A,3,65,66,67,75,76,85,86,,,,,,1.4,0.8,1.1*23
$QZGSA,A,3,,,,,,,,,,,,,1.4,0.8,1.1*23
$IMGSA,A,3,,,,,,,,,,,,,1.4,0.8,1.1*2C
$BDGSA,A,3,212,,,,,,,,,,,,1.4,0.8,1.1*1F
$GAGSA,A,3,107,119,121,127,130,,,,,,,,1.4,0.8,1.1*15
$GPRMC,092533.00,A,2249.146431,S,04318.399470,W,000.0,,150119,,,A*7A
$GPGGA,092534.00,2249.146431,S,04318.399470,W,1,22,0.4,8.5,M,-5.2,M,,*7F
$GPGSV,4,1,14,19,82,019,33,17,67,135,36,13,64,285,36,30,34,075,29*71
$GPGSV,4,2,14,15,33,244,36,28,28,139,29,06,22,027,17,24,12,224,*7D
$GPGSV,4,3,14,12,07,275,,07,06,060,18,02,05,353,12,05,03,326,*71
$GPGSV,4,4,14,01,03,133,,51,15,281,*74
$GLGSV,3,1,09,86,63,076,24,76,38,177,33,75,32,120,27,66,25,276,31*6A
$GLGSV,3,2,09,85,24,145,28,65,11,336,15,67,09,226,16,77,06,231,12*61
$GLGSV,3,3,09,87,26,359,25*5F
$BDGSV,1,1,03,212,72,063,26,214,15,326,,211,10,335,*6C
$GAGSV,2,1,06,127,46,153,33,121,34,223,36,119,25,248,25,107,18,356,21*64
$GAGSV,2,2,06,130,16,104,23,126,09,347,*63
$GPGSA,A,3,02,06,07,13,15,17,19,28,30,,,,1.4,0.8,1.1*3D
$GNGSA,A,3,02,06,07,13,15,17,19,28,30,,,,1.4,0.8,1.1*23
$GNGSA,A,3,65,66,67,75,76,85,86,,,,,,1.4,0.8,1.1*23
$QZGSA,A,3,,,,,,,,,,,,,1.4,0.8,1.1*23
$IMGSA,A,3,,,,,,,,,,,,,1.4,0.8,1.1*2C
$BDGSA,A,3,212,,,,,,,,,,,,1.4,0.8,1.1*1F
$GAGSA,A,3,107,119,121,127,130,,,,,,,,1.4,0.8,1.1*15
$GPRMC,092534.00,A,2249.146431,S,04318.399470,W,000.0,,150119,,,A*7D
$GPGGA,092535.00,2249.146431,S,04318.399470,W,1,22,0.4,8.5,M,-5.2,M,,*7E
$GPGSV,4,1,14,19,82,019,33,17,67,135,36,13,64,285,36,30,34,075,29*71
$GPGSV,4,2,14,15,33,244,36,28,28,139,29,06,22,027,17,24,12,224,*7D
$GPGSV,4,3,14,12,07,275,,07,06,060,17,02,05,353,,05,03,326,*7D
$GPGSV,4,4,14,01,03,133,,51,15,281,*74
$GLGSV,3,1,09,86,63,076,24,76,38,177,34,75,32,120,27,66,25,276,31*6D
$GLGSV,3,2,09,85,24,145,28,65,11,336,15,67,09,226,16,77,06,231,15*66
$GLGSV,3,3,09,87,26,359,25*5F
$BDGSV,1,1,03,212,72,063,26,214,15,326,,211,10,335,08*64
$GAGSV,2,1,06,127,46,153,33,121,34,223,36,119,25,248,25,107,18,356,21*64
$GAGSV,2,2,06,130,16,104,23,126,09,347,*63
$GPGSA,A,3,06,07,13,15,17,19,28,30,,,,,1.4,0.8,1.1*3F
$GNGSA,A,3,06,07,13,15,17,19,28,30,,,,,1.4,0.8,1.1*21
$GNGSA,A,3,65,66,67,75,76,77,85,86,,,,,1.4,0.8,1.1*23
$QZGSA,A,3,,,,,,,,,,,,,1.4,0.8,1.1*23
$IMGSA,A,3,,,,,,,,,,,,,1.4,0.8,1.1*2C
$BDGSA,A,3,212,,,,,,,,,,,,1.4,0.8,1.1*1F
$GAGSA,A,3,107,119,121,127,130,,,,,,,,1.4,0.8,1.1*15
$GPRMC,092535.00,A,2249.146431,S,04318.399470,W,000.0,,150119,,,A*7C
$GPGGA,092536.00,2249.146431,S,04318.399470,W,1,21,0.4,8.5,M,-5.2,M,,*7E
$GPGSV,4,1,14,19,82,019,33,17,67,135,36,13,64,285,36,30,34,075,29*71
$GPGSV,4,2,14,15,33,244,36,28,28,139,29,06,22,027,17,24,12,224,*7D
$GPGSV,4,3,14,12,07,275,,07,06,060,18,02,05,353,,05,03,326,*72
$GPGSV,4,4,14,01,03,133,,51,15,281,*74
$GLGSV,3,1,09,86,63,076,24,76,38,177,34,75,32,120,28,66,25,276,32*61
$GLGSV,3,2,09,85,24,145,28,65,11,336,15,67,09,226,16,77,06,231,*62
$GLGSV,3,3,09,87,26,359,25*5F
$BDGSV,1,1,03,212,72,063,26,214,15,326,10,211,10,335,*6D
$GAGSV,2,1,06,127,46,153,33,121,34,223,36,119,25,248,25,107,18,356,21*64
$GAGSV,2,2,06,130,16,104,23,126,09,347,*63
$GPGSA,A,3,06,07,13,15,17,19,28,30,,,,,1.5,0.8,1.2*3D
$GNGSA,A,3,06,07,13,15,17,19,28,30,,,,,1.5,0.8,1.2*23
$GNGSA,A,3,65,66,67,75,76,85,86,,,,,,1.5,0.8,1.2*21
$QZGSA,A,3,,,,,,,,,,,,,1.5,0.8,1.2*21
$IMGSA,A,3,,,,,,,,,,,,,1.5,0.8,1.2*2E
$BDGSA,A,3,212,,,,,,,,,,,,1.5,0.8,1.2*1D
$GAGSA,A,3,107,119,121,127,130,,,,,,,,1.5,0.8,1.2*17
$GPRMC,092536.00,A,2249.146431,S,04318.399470,W,000.0,,150119,,,A*7F
$GPGGA,092537.00,2249.146431,S,04318.399470,W,1,21,0.4,8.5,M,-5.2,M,,*7F
$GPGSV,4,1,14,19,82,019,33,17,66,135,36,13,64,285,36,30,34,075,29*70
$GPGSV,4,2,14,15,33,244,36,28,28,139,29,06,22,027,17,24,12,224,*7D
$GPGSV,4,3,14,12,07,275,,07,06,060,18,02,05,353,,05,03,326,*72
$GPGSV,4,4,14,01,03,133,,51,15,281,*74
$GLGSV,3,1,09,86,63,076,24,76,38,177,34,75,32,120,28,66,25,276,32*61
$GLGSV,3,2,09,85,24,145,28,65,11,336,15,67,09,226,15,77,06,231,*61
$GLGSV,3,3,09,87,26,359,25*5F
$BDGSV,1,1,03,212,72,063,26,214,15,326,,211,10,335,*6C
$GAGSV,2,1,06,127,46,153,33,121,34,223,36,119,25,248,25,107,18,356,20*65
$GAGSV,2,2,06,130,16,104,23,126,09,347,*63
$GPGSA,A,3,06,07,13,15,17,19,28,30,,,,,1.4,0.8,1.1*3F
$GNGSA,A,3,06,07,13,15,17,19,28,30,,,,,1.4,0.8,1.1*21
$GNGSA,A,3,65,66,67,75,76,85,86,,,,,,1.4,0.8,1.1*23
$QZGSA,A,3,,,,,,,,,,,,,1.4,0.8,1.1*23
$IMGSA,A,3,,,,,,,,,,,,,1.4,0.8,1.1*2C
$BDGSA,A,3,212,,,,,,,,,,,,1.4,0.8,1.1*1F
$GAGSA,A,3,107,119,121,127,130,,,,,,,,1.4,0.8,1.1*15
$GPRMC,092537.00,A,2249.146431,S,04318.399470,W,000.0,,150119,,,A*7E
$GPGGA,092538.00,2249.146431,S,04318.399470,W,1,22,0.4,8.5,M,-5.2,M,,*73
$GPGSV,4,1,14,19,82,019,34,17,66,135,36,13,64,285,37,30,34,075,29*76
$GPGSV,4,2,14,15,33,244,36,28,28,139,29,06,22,027,17,24,12,224,*7D
$GPGSV,4,3,14,12,07,275,,07,05,060,18,02,05,353,,05,03,326,*71
$GPGSV,4,4,14,01,03,133,,51,15,281,*74
$GLGSV,3,1,09,86,63,076,24,76,38,177,34,75,32,120,28,66,25,276,32*61
$GLGSV,3,2,09,85,24,145,28,65,11,336,15,67,09,226,15,77,06,231,*61
$GLGSV,3,3,09,87,26,359,25*5F
$BDGSV,1,1,03,212,72,063,26,214,15,326,,211,10,335,*6C
$GAGSV,2,1,06,127,46,153,33,121,34,223,36,119,25,248,25,107,18,356,20*65
$GAGSV,2,2,06,130,16,104,23,126,09,347,*63
$GPGSA,A,3,06,07,13,15,17,19,28,30,,,,,1.6,0.9,1.3*3E
$GNGSA,A,3,06,07,13,15,17,19,28,30,,,,,1.6,0.9,1.3*20
$GNGSA,A,3,65,66,67,75,76,85,86,,,,,,1.6,0.9,1.3*22
$QZGSA,A,3,,,,,,,,,,,,,1.6,0.9,1.3*22
$IMGSA,A,3,,,,,,,,,,,,,1.6,0.9,1.3*2D
$BDGSA,A,3,212,,,,,,,,,,,,1.6,0.9,1.3*1E
$GAGSA,A,3,107,119,121,127,130,,,,,,,,1.6,0.9,1.3*14
$GPRMC,092538.00,A,2249.146431,S,04318.399470,W,000.0,,150119,,,A*71
$GPGGA,092539.00,2249.146431,S,04318.399470,W,1,23,0.4,8.5,M,-5.2,M,,*73
$GPGSV,4,1,14,19,82,019,34,17,66,135,36,13,64,285,37,30,34,075,29*76
$GPGSV,4,2,14,15,33,244,36,28,28,139,29,06,22,027,17,24,12,224,*7D
$GPGSV,4,3,14,12,07,275,,07,05,060,18,02,05,353,16,05,03,326,*76
$GPGSV,4,4,14,01,03,133,,51,15,281,*74
$GLGSV,3,1,09,86,63,076,24,76,38,177,34,75,32,120,29,66,25,276,32*60
$GLGSV,3,2,09,85,24,145,28,65,11,336,15,67,09,226,15,77,06,231,14*64
$GLGSV,3,3,09,87,26,359,25*5F
$BDGSV,1,1,03,212,72,063,26,214,15,326,,211,10,335,08*64
$GAGSV,2,1,06,127,46,153,33,121,34,223,36,119,25,248,25,107,18,356,20*65
$GAGSV,2,2,06,130,16,104,23,126,09,347,*63
$GPGSA,A,3,02,06,07,13,15,17,19,28,30,,,,1.6,0.9,1.3*3C
$GNGSA,A,3,02,06,07,13,15,17,19,28,30,,,,1.6,0.9,1.3*22
$GNGSA,A,3,65,66,67,75,76,77,85,86,,,,,1.6,0.9,1.3*22
$QZGSA,A,3,,,,,,,,,,,,,1.6,0.9,1.3*22
$IMGSA,A,3,,,,,,,,,,,,,1.6,0.9,1.3*2D
$BDGSA,A,3,212,,,,,,,,,,,,1.6,0.9,1.3*1E
$GAGSA,A,3,107,119,121,127,130,,,,,,,,1.6,0.9,1.3*14
$GPRMC,092539.00,A,2249.146431,S,04318.399470,W,000.0,,150119,,,A*70
$GPGGA,092540.00,2249.146431,S,04318.399470,W,1,21,0.4,8.5,M,-5.2,M,,*7F
$GPGSV,4,1,14,19,82,019,33,17,66,135,36,13,64,285,36,30,34,075,29*70
$GPGSV,4,2,14,15,33,244,36,28,28,139,29,06,22,027,16,24,12,224,*7C
$GPGSV,4,3,14,12,07,275,,07,05,060,19,02,05,353,,05,03,326,*70
$GPGSV,4,4,14,01,03,133,,51,15,281,*74
$GLGSV,3,1,09,86,63,076,24,76,38,177,34,75,32,120,29,66,25,276,32*60
$GLGSV,3,2,09,85,24,145,28,65,11,336,15,67,09,226,15,77,06,231,*61
$GLGSV,3,3,09,87,26,359,25*5F
$BDGSV,1,1,03,212,72,063,26,214,15,326,,211,10,335,08*64
$GAGSV,2,1,06,127,46,153,33,121,34,223,36,119,25,248,25,107,18,356,20*65
$GAGSV,2,2,06,130,16,104,23,126,09,347,*63
$GPGSA,A,3,06,07,13,15,17,19,28,30,,,,,1.6,0.9,1.3*3E
$GNGSA,A,3,06,07,13,15,17,19,28,30,,,,,1.6,0.9,1.3*20
$GNGSA,A,3,65,66,67,75,76,85,86,,,,,,1.6,0.9,1.3*22
$QZGSA,A,3,,,,,,,,,,,,,1.6,0.9,1.3*22
$IMGSA,A,3,,,,,,,,,,,,,1.6,0.9,1.3*2D
$BDGSA,A,3,212,,,,,,,,,,,,1.6,0.9,1.3*1E
$GAGSA,A,3,107,119,121,127,130,,,,,,,,1.6,0.9,1.3*14
$GPRMC,092540.00,A,2249.146431,S,04318.399470,W,000.0,,150119,,,A*7E
$GPGGA,092541.00,2249.146431,S,04318.399470,W,1,23,0.4,8.5,M,-5.2,M,,*7C
$GPGSV,4,1,14,19,82,019,33,17,66,135,36,13,64,285,36,30,34,075,29*70
$GPGSV,4,2,14,15,33,244,36,28,28,139,29,06,22,027,16,24,12,224,13*7E
$GPGSV,4,3,14,12,07,275,,07,05,060,19,02,05,353,15,05,03,326,*74
$GPGSV,4,4,14,01,03,133,,51,15,281,*74
$GLGSV,3,1,09,86,63,076,24,76,38,177,34,75,32,120,29,66,25,276,32*60
$GLGSV,3,2,09,85,24,145,28,65,11,336,15,67,09,226,15,77,06,231,*61
$GLGSV,3,3,09,87,26,359,25*5F
$BDGSV,1,1,03,212,72,063,26,214,15,326,,211,10,335,10*6D
$GAGSV,2,1,06,127,46,153,33,121,34,223,35,119,25,248,24,107,18,356,20*67
$GAGSV,2,2,06,130,16,104,22,126,09,347,*62
$GPGSA,A,3,06,07,13,15,17,19,24,28,30,,,,1.5,0.8,1.2*3B
$GNGSA,A,3,06,07,13,15,17,19,24,28,30,,,,1.5,0.8,1.2*25
$GNGSA,A,3,65,66,67,75,76,85,86,,,,,,1.5,0.8,1.2*21
$QZGSA,A,3,,,,,,,,,,,,,1.5,0.8,1.2*21
$IMGSA,A,3,,,,,,,,,,,,,1.5,0.8,1.2*2E
$BDGSA,A,3,212,,,,,,,,,,,,1.5,0.8,1.2*1D
$GAGSA,A,3,107,119,121,127,130,,,,,,,,1.5,0.8,1.2*17
$GPRMC,092541.00,A,2249.146431,S,04318.399470,W,000.0,,150119,,,A*7F
$GPGGA,092542.00,2249.146431,S,04318.399470,W,1,24,0.4,8.5,M,-5.2,M,,*78
$GPGSV,4,1,14,19,82,019,33,17,66,135,36,13,64,285,36,30,34,075,29*70
$GPGSV,4,2,14,15,33,244,36,28,28,139,28,06,22,027,16,24,12,224,15*79
$GPGSV,4,3,14,12,07,275,13,07,05,060,18,02,05,353,14,05,03,326,*76
$GPGSV,4,4,14,01,03,133,,51,15,281,*74
$GLGSV,3,1,09,86,63,076,24,76,38,177,34,75,32,120,30,66,25,276,32*68
$GLGSV,3,2,09,85,24,145,28,65,11,336,14,67,09,226,15,77,06,231,*60
$GLGSV,3,3,09,87,26,359,25*5F
$BDGSV,1,1,03,212,72,063,26,214,15,326,,211,10,335,*6C
$GAGSV,2,1,06,127,46,153,33,121,34,223,35,119,25,249,24,107,18,356,20*66
$GAGSV,2,2,06,130,16,104,22,126,09,347,*62
$GPGSA,A,3,06,07,12,13,15,17,19,24,28,30,,,1.5,0.9,1.1*3A
$GNGSA,A,3,06,07,12,13,15,17,19,24,28,30,,,1.5,0.9,1.1*24
$GNGSA,A,3,65,66,67,75,76,85,86,,,,,,1.5,0.9,1.1*23
$QZGSA,A,3,,,,,,,,,,,,,1.5,0.9,1.1*23
$IMGSA,A,3,,,,,,,,,,,,,1.5,0.9,1.1*2C
$BDGSA,A,3,212,,,,,,,,,,,,1.5,0.9,1.1*1F
$GAGSA,A,3,107,119,121,127,130,,,,,,,,1.5,0.9,1.1*15
$GPRMC,092542.00,A,2249.146431,S,04318.399470,W,000.0,,150119,,,A*7C
$GPGGA,092543.00,2249.146431,S,04318.399470,W,1,22,0.4,8.5,M,-5.2,M,,*7F
$GPGSV,4,1,14,19,82,019,33,17,66,135,36,13,64,285,36,30,34,075,28*71
$GPGSV,4,2,14,15,33,244,36,28,28,139,28,06,22,027,16,24,12,224,*7D
$GPGSV,4,3,14,12,07,275,13,07,05,060,19,02,05,353,,05,03,326,*72
$GPGSV,4,4,14,01,03,133,,51,15,281,*74
$GLGSV,3,1,09,86,63,076,24,76,38,177,34,75,32,120,30,66,25,276,32*68
$GLGSV,3,2,09,85,24,145,28,65,11,336,14,67,09,226,14,77,06,231,19*69
$GLGSV,3,3,09,87,26,359,25*5F
$BDGSV,1,1,03,212,72,063,26,214,15,326,09,211,10,335,*65
$GAGSV,2,1,06,127,46,153,33,121,34,223,35,119,25,249,24,107,18,356,20*66
$GAGSV,2,2,06,130,16,104,22,126,09,347,*62
$GPGSA,A,3,06,07,13,15,17,19,28,30,,,,,1.6,0.9,1.3*3E
$GNGSA,A,3,06,07,13,15,17,19,28,30,,,,,1.6,0.9,1.3*20
$GNGSA,A,3,65,66,67,75,76,77,85,86,,,,,1.6,0.9,1.3*22
$QZGSA,A,3,,,,,,,,,,,,,1.6,0.9,1.3*22
$IMGSA,A,3,,,,,,,,,,,,,1.6,0.9,1.3*2D
$BDGSA,A,3,212,,,,,,,,,,,,1.6,0.9,1.3*1E
$GAGSA,A,3,107,119,121,127,130,,,,,,,,1.6,0.9,1.3*14
$GPRMC,092543.00,A,2249.146431,S,04318.399470,W,000.0,,150119,,,A*7D
$GPGGA,092544.00,2249.146431,S,04318.399470,W,1,21,0.4,8.5,M,-5.2,M,,*7B
$GPGSV,4,1,14,19,82,019,33,17,66,135,36,13,64,285,36,30,34,075,28*71
$GPGSV,4,2,14,15,33,244,35,28,28,139,28,06,22,027,17,24,12,224,14*7A
$GPGSV,4,3,14,12,07,275,,07,05,060,19,02,05,353,,05,03,326,*70
$GPGSV,4,4,14,01,03,133,,51,15,281,*74
$GLGSV,3,1,09,86,63,076,23,76,38,177,34,75,32,120,30,66,25,276,32*6F
$GLGSV,3,2,09,85,24,145,29,65,11,336,14,67,09,226,14,77,06,231,*60
$GLGSV,3,3,09,87,26,359,25*5F
$BDGSV,1,1,03,212,72,063,26,214,15,326,10,211,10,335,10*6C
$GAGSV,2,1,06,127,46,153,33,121,34,223,35,119,25,249,24,107,18,356,20*66
$GAGSV,2,2,06,130,16,104,22,126,09,347,*62
$GPGSA,A,3,06,07,13,15,17,19,28,30,,,,,1.4,0.8,1.1*3F
$GNGSA,A,3,06,07,13,15,17,19,28,30,,,,,1.4,0.8,1.1*21
$GNGSA,A,3,66,67,75,76,85,86,,,,,,,1.4,0.8,1.1*20
$QZGSA,A,3,,,,,,,,,,,,,1.4,0.8,1.1*23
$IMGSA,A,3,,,,,,,,,,,,,1.4,0.8,1.1*2C
$BDGSA,A,3,212,,,,,,,,,,,,1.4,0.8,1.1*1F
$GAGSA,A,3,107,119,121,127,130,,,,,,,,1.4,0.8,1.1*15
$GPRMC,092544.00,A,2249.146431,S,04318.399470,W,000.0,,150119,,,A*7A
$GPGGA,092545.00,2249.146431,S,04318.399470,W,1,21,0.4,8.5,M,-5.2,M,,*7A
$GPGSV,4,1,14,19,82,019,33,17,66,135,36,13,64,285,36,30,34,075,29*70
$GPGSV,4,2,14,15,33,244,36,28,28,139,28,06,22,027,17,24,12,224,*7C
$GPGSV,4,3,14,12,07,275,16,07,05,060,20,02,05,353,,05,03,326,*7D
$GPGSV,4,4,14,01,03,133,,51,15,281,*74
$GLGSV,3,1,09,86,63,076,23,76,38,177,34,75,32,120,30,66,25,276,32*6F
$GLGSV,3,2,09,85,24,145,29,65,11,336,14,67,09,226,14,77,06,231,*60
$GLGSV,3,3,09,87,26,359,24*5E
$BDGSV,1,1,03,212,72,063,26,214,15,326,10,211,10,335,*6D
$GAGSV,2,1,06,127,46,153,33,121,34,223,35,119,25,249,24,107,18,356,20*66
$GAGSV,2,2,06,130,16,104,22,126,09,347,*62
$GPGSA,A,3,06,07,12,13,15,17,19,28,30,,,,1.5,0.9,1.2*3F
$GNGSA,A,3,06,07,12,13,15,17,19,28,30,,,,1.5,0.9,1.2*21
$GNGSA,A,3,66,67,75,76,85,86,,,,,,,1.5,0.9,1.2*23
$QZGSA,A,3,,,,,,,,,,,,,1.5,0.9,1.2*20
$IMGSA,A,3,,,,,,,,,,,,,1.5,0.9,1.2*2F
$BDGSA,A,3,212,,,,,,,,,,,,1.5,0.9,1.2*1C
$GAGSA,A,3,107,119,121,127,130,,,,,,,,1.5,0.9,1.2*16
$GPRMC,092545.00,A,2249.146431,S,04318.399470,W,000.0,,150119,,,A*7B
$GPGGA,092546.00,2249.146431,S,04318.399470,W,1,20,0.4,8.5,M,-5.2,M,,*78
$GPGSV,4,1,14,19,82,019,33,17,66,135,36,13,64,285,36,30,34,075,29*70
$GPGSV,4,2,14,15,33,244,36,28,28,139,28,06,22,027,17,24,12,224,13*7E
$GPGSV,4,3,14,12,07,275,18,07,05,060,21,02,05,353,12,05,03,326,*71
$GPGSV,4,4,14,01,03,133,,51,15,281,*74
$GLGSV,3,1,09,86,63,076,23,76,38,177,34,75,32,120,31,66,25,276,32*6E
$GLGSV,3,2,09,85,24,145,29,65,11,336,13,67,09,226,14,77,06,231,*67
$GLGSV,3,3,09,87,26,359,24*5E
$BDGSV,1,1,03,212,72,063,26,214,15,326,,211,10,335,*6C
$GAGSV,2,1,06,127,46,153,33,121,34,223,35,119,25,249,24,107,18,356,20*66
$GAGSV,2,2,06,130,16,104,22,126,09,347,*62
$GPGSA,A,3,06,07,12,13,15,17,19,28,30,,,,1.5,0.9,1.2*3F
$GNGSA,A,3,06,07,12,13,15,17,19,28,30,,,,1.5,0.9,1.2*21
$GNGSA,A,3,66,75,76,85,86,,,,,,,,1.5,0.9,1.2*22
$QZGSA,A,3,,,,,,,,,,,,,1.5,0.9,1.2*20
$IMGSA,A,3,,,,,,,,,,,,,1.5,0.9,1.2*2F
$BDGSA,A,3,212,,,,,,,,,,,,1.5,0.9,1.2*1C
$GAGSA,A,3,107,119,121,127,130,,,,,,,,1.5,0.9,1.2*16
$GPRMC,092546.00,A,2249.146431,S,04318.399470,W,000.0,,150119,,,A*78
$GPGGA,092547.00,2249.146431,S,04318.399470,W,1,20,0.4,8.5,M,-5.2,M,,*79
$GPGSV,4,1,14,19,82,019,33,17,66,135,37,13,64,285,37,30,34,075,29*70
$GPGSV,4,2,14,15,33,244,36,28,28,139,28,06,22,027,17,24,12,224,*7C
$GPGSV,4,3,14,12,07,275,18,07,05,060,22,02,05,353,,05,03,326,*71
$GPGSV,4,4,14,01,03,133,,51,15,281,*74
$GLGSV,3,1,09,86,63,076,23,76,38,177,35,75,32,120,31,66,25,276,32*6F
$GLGSV,3,2,09,85,24,145,29,65,11,336,13,67,09,226,14,77,06,231,*67
$GLGSV,3,3,09,87,26,359,24*5E
$BDGSV,1,1,03,212,72,063,26,214,15,326,,211,10,335,*6C
$GAGSV,2,1,06,127,46,153,33,121,34,223,35,119,25,249,25,107,18,356,21*66
$GAGSV,2,2,06,130,16,104,22,126,09,347,*62
$GPGSA,A,3,06,07,12,13,15,17,19,28,30,,,,1.5,0.9,1.2*3F
$GNGSA,A,3,06,07,12,13,15,17,19,28,30,,,,1.5,0.9,1.2*21
$GNGSA,A,3,66,75,76,85,86,,,,,,,,1.5,0.9,1.2*22
$QZGSA,A,3,,,,,,,,,,,,,1.5,0.9,1.2*20
$IMGSA,A,3,,,,,,,,,,,,,1.5,0.9,1.2*2F
$BDGSA,A,3,212,,,,,,,,,,,,1.5,0.9,1.2*1C
$GAGSA,A,3,107,119,121,127,130,,,,,,,,1.5,0.9,1.2*16
$GPRMC,092547.00,A,2249.146431,S,04318.399470,W,000.0,,150119,,,A*79
$GPGGA,092548.00,2249.146431,S,04318.399470,W,1,22,0.8,8.5,M,-5.2,M,,*78
$GPGSV,4,1,14,19,82,019,33,17,66,135,37,13,64,285,37,30,34,075,29*70
$GPGSV,4,2,14,15,33,244,36,28,28,139,28,06,22,027,17,24,12,224,14*79
$GPGSV,4,3,14,12,07,275,,07,05,060,23,02,05,353,,05,03,326,*79
$GPGSV,4,4,14,01,03,133,,51,15,281,*74
$GLGSV,3,1,09,86,63,076,23,76,38,177,35,75,32,120,31,66,25,276,32*6F
$GLGSV,3,2,09,85,24,145,30,65,11,336,13,67,09,226,13,77,06,231,*68
$GLGSV,3,3,09,87,26,359,24*5E
$BDGSV,1,1,03,212,72,063,26,214,15,326,10,211,10,335,*6D
$GAGSV,2,1,06,127,46,153,33,121,34,223,35,119,25,249,25,107,18,356,21*66
$GAGSV,2,2,06,130,16,104,22,126,09,347,*62
$GPGSA,A,3,06,07,13,15,17,19,24,28,30,,,,2.4,1.4,1.9*3F
$GNGSA,A,3,06,07,13,15,17,19,24,28,30,,,,2.4,1.4,1.9*21
$GNGSA,A,3,65,66,67,75,76,85,86,,,,,,2.4,1.4,1.9*25
$QZGSA,A,3,,,,,,,,,,,,,2.4,1.4,1.9*25
$IMGSA,A,3,,,,,,,,,,,,,2.4,1.4,1.9*2A
$BDGSA,A,3,212,,,,,,,,,,,,2.4,1.4,1.9*19
$GAGSA,A,3,107,119,121,127,130,,,,,,,,2.4,1.4,1.9*13
$GPRMC,092548.00,A,2249.146431,S,04318.399470,W,000.0,,150119,,,A*76
$GPGGA,092549.00,2249.146431,S,04318.399470,W,1,22,0.8,8.5,M,-5.2,M,,*79
$GPGSV,4,1,14,19,82,019,34,17,66,135,37,13,64,285,37,30,34,075,29*77
$GPGSV,4,2,14,15,33,244,36,28,28,139,28,06,22,027,17,24,12,224,*7C
$GPGSV,4,3,14,12,07,275,17,07,05,060,22,02,05,353,,05,03,326,*7E
$GPGSV,4,4,14,01,03,133,,51,15,281,*74
$GLGSV,3,1,09,86,64,076,23,76,38,177,35,75,32,120,31,66,25,276,32*68
$GLGSV,3,2,09,85,24,145,30,65,11,336,13,67,09,226,13,77,06,231,14*6D
$GLGSV,3,3,09,87,26,359,24*5E
$BDGSV,1,1,03,212,72,063,26,214,15,326,,211,10,335,*6C
$GAGSV,2,1,06,127,46,153,33,121,34,223,35,119,25,249,25,107,18,356,21*66
$GAGSV,2,2,06,130,16,104,22,126,09,347,*62
$GPGSA,A,3,06,07,12,13,15,17,19,28,30,,,,2.4,1.4,1.9*3A
$GNGSA,A,3,06,07,12,13,15,17,19,28,30,,,,2.4,1.4,1.9*24
$GNGSA,A,3,65,66,75,76,77,85,86,,,,,,2.4,1.4,1.9*24
$QZGSA,A,3,,,,,,,,,,,,,2.4,1.4,1.9*25
$IMGSA,A,3,,,,,,,,,,,,,2.4,1.4,1.9*2A
$BDGSA,A,3,212,,,,,,,,,,,,2.4,1.4,1.9*19
$GAGSA,A,3,107,119,121,127,130,,,,,,,,2.4,1.4,1.9*13
$GPRMC,092549.00,A,2249.146431,S,04318.399470,W,000.0,,150119,,,A*77
$GPGGA,092550.00,2249.146431,S,04318.399470,W,1,21,0.6,8.6,M,-5.2,M,,*7F
$GPGSV,4,1,14,19,82,019,34,17,66,135,36,13,64,285,37,30,34,075,29*76
$GPGSV,4,2,14,15,33,244,36,28,28,139,28,06,22,027,17,24,12,224,18*75
$GPGSV,4,3,14,12,07,275,,07,05,060,22,02,05,353,,05,03,326,*78
$GPGSV,4,4,14,01,03,133,,51,15,281,*74
$GLGSV,3,1,09,86,64,076,23,76,38,177,35,75,32,120,31,66,25,276,32*68
$GLGSV,3,2,09,85,24,145,30,65,11,336,13,67,09,226,13,77,06,231,14*6D
$GLGSV,3,3,09,87,26,359,24*5E
$BDGSV,1,1,03,212,72,063,26,214,15,326,,211,10,335,*6C
$GAGSV,2,1,06,127,46,153,33,121,34,223,35,119,25,249,25,107,18,356,21*66
$GAGSV,2,2,06,130,16,104,22,126,09,347,*62
$GPGSA,A,3,06,07,13,15,17,19,24,28,30,,,,1.8,1.2,1.4*3B
$GNGSA,A,3,06,07,13,15,17,19,24,28,30,,,,1.8,1.2,1.4*25
$GNGSA,A,3,65,66,75,76,85,86,,,,,,,1.8,1.2,1.4*20
$QZGSA,A,3,,,,,,,,,,,,,1.8,1.2,1.4*21
$IMGSA,A,3,,,,,,,,,,,,,1.8,1.2,1.4*2E
$BDGSA,A,3,212,,,,,,,,,,,,1.8,1.2,1.4*1D
$GAGSA,A,3,107,119,121,127,130,,,,,,,,1.8,1.2,1.4*17
$GPRMC,092550.00,A,2249.146431,S,04318.399470,W,000.0,,150119,,,A*7F
$GPGGA,092551.00,2249.146431,S,04318.399470,W,1,22,0.6,8.6,M,-5.2,M,,*7D
$GPGSV,4,1,14,19,82,019,34,17,66,135,36,13,64,285,37,30,34,075,30*7E
$GPGSV,4,2,14,15,33,244,36,28,28,139,28,06,22,027,17,24,12,224,*7C
$GPGSV,4,3,14,12,07,275,,07,05,060,22,02,05,353,,05,03,326,*78
$GPGSV,4,4,14,01,03,133,,51,15,281,*74
$GLGSV,3,1,09,86,64,076,24,76,38,177,35,75,32,119,31,66,25,276,32*65
$GLGSV,3,2,09,85,24,145,30,65,11,336,13,67,09,226,13,77,06,231,14*6D
$GLGSV,3,3,09,87,26,359,24*5E
$BDGSV,1,1,03,212,72,063,26,214,15,326,,211,10,335,*6C
$GAGSV,2,1,06,127,46,153,33,121,34,223,35,119,25,249,24,107,18,356,21*67
$GAGSV,2,2,06,130,16,104,22,126,09,347,*62
$GPGSA,A,3,06,07,13,15,17,19,28,30,,,,,1.8,1.2,1.4*3D
$GNGSA,A,3,06,07,13,15,17,19,28,30,,,,,1.8,1.2,1.4*23
$GNGSA,A,3,65,66,75,76,85,86,,,,,,,1.8,1.2,1.4*20
$QZGSA,A,3,,,,,,,,,,,,,1.8,1.2,1.4*21
$IMGSA,A,3,,,,,,,,,,,,,1.8,1.2,1.4*2E
$BDGSA,A,3,212,,,,,,,,,,,,1.8,1.2,1.4*1D
$GAGSA,A,3,107,119,121,127,130,,,,,,,,1.8,1.2,1.4*17
$GPRMC,092551.00,A,2249.146431,S,04318.399470,W,000.0,,150119,,,A*7E
$GPGGA,092552.00,2249.146431,S,04318.399470,W,1,21,0.6,8.6,M,-5.2,M,,*7D
$GPGSV,4,1,14,19,82,019,34,17,66,135,36,13,64,285,37,30,34,075,30*7E
$GPGSV,4,2,14,15,33,244,36,28,28,139,28,06,22,027,16,24,12,224,*7D
$GPGSV,4,3,14,12,07,275,18,07,05,060,22,02,05,353,,05,03,326,*71
$GPGSV,4,4,14,01,03,133,,51,15,281,*74
$GLGSV,3,1,09,86,64,076,25,76,38,177,35,75,32,119,31,66,25,276,31*67
$GLGSV,3,2,09,85,24,145,30,65,11,336,13,67,09,226,13,77,06,231,*68
$GLGSV,3,3,09,87,26,359,25*5F
$BDGSV,1,1,03,212,72,063,27,214,15,326,09,211,10,335,08*6C
$GAGSV,2,1,06,127,46,153,33,121,34,223,35,119,25,249,24,107,18,356,21*67
$GAGSV,2,2,06,130,16,104,22,126,09,347,*62
$GPGSA,A,3,06,07,12,13,15,17,19,28,30,,,,1.8,1.2,1.4*3E
$GNGSA,A,3,06,07,12,13,15,17,19,28,30,,,,1.8,1.2,1.4*20
$GNGSA,A,3,65,66,75,76,85,86,,,,,,,1.8,1.2,1.4*20
$QZGSA,A,3,,,,,,,,,,,,,1.8,1.2,1.4*21
$IMGSA,A,3,,,,,,,,,,,,,1.8,1.2,1.4*2E
$BDGSA,A,3,212,,,,,,,,,,,,1.8,1.2,1.4*1D
$GAGSA,A,3,107,119,121,127,130,,,,,,,,1.8,1.2,1.4*17
$GPRMC,092552.00,A,2249.146431,S,04318.399470,W,000.0,,150119,,,A*7D
$GPGGA,092553.00,2249.146431,S,04318.399470,W,1,22,0.6,8.6,M,-5.2,M,,*7F
$GPGSV,4,1,14,19,82,019,34,17,66,135,36,13,64,285,37,30,34,075,30*7E
$GPGSV,4,2,14,15,33,244,36,28,28,139,28,06,22,027,16,24,12,224,*7D
$GPGSV,4,3,14,12,07,275,19,07,05,060,22,02,05,353,,05,03,326,*70
$GPGSV,4,4,14,01,03,133,,51,15,281,*74
$GLGSV,3,1,09,86,64,076,25,76,38,177,35,75,32,119,31,66,25,277,31*66
$GLGSV,3,2,09,85,24,145,30,65,11,336,13,67,09,226,13,77,06,231,*68
$GLGSV,3,3,09,87,26,359,24*5E
$BDGSV,1,1,03,212,72,063,27,214,15,326,09,211,10,335,11*64
$GAGSV,2,1,06,127,46,153,33,121,34,223,35,119,25,249,24,107,18,356,21*67
$GAGSV,2,2,06,130,16,104,22,126,09,347,*62
$GPGSA,A,3,06,07,12,13,15,17,19,28,30,,,,1.8,1.2,1.4*3E
$GNGSA,A,3,06,07,12,13,15,17,19,28,30,,,,1.8,1.2,1.4*20
$GNGSA,A,3,65,66,67,75,76,85,86,,,,,,1.8,1.2,1.4*21
$QZGSA,A,3,,,,,,,,,,,,,1.8,1.2,1.4*21
$IMGSA,A,3,,,,,,,,,,,,,1.8,1.2,1.4*2E
$BDGSA,A,3,212,,,,,,,,,,,,1.8,1.2,1.4*1D
$GAGSA,A,3,107,119,121,127,130,,,,,,,,1.8,1.2,1.4*17
$GPRMC,092553.00,A,2249.146431,S,04318.399470,W,000.0,,150119,,,A*7C
$GPGGA,092554.00,2249.146431,S,04318.399470,W,1,21,0.6,8.6,M,-5.2,M,,*7B
$GPGSV,4,1,14,19,82,019,34,17,66,135,36,13,64,285,37,30,34,075,30*7E
$GPGSV,4,2,14,15,33,244,36,28,28,139,28,06,22,027,16,24,12,224,*7D
$GPGSV,4,3,14,12,07,275,18,07,05,060,22,02,05,353,11,05,03,326,*71
$GPGSV,4,4,14,01,03,133,,51,15,281,*74
$GLGSV,3,1,09,86,64,076,26,76,38,177,35,75,32,119,31,66,25,277,31*65
$GLGSV,3,2,09,85,24,145,30,65,11,336,13,67,09,226,13,77,06,231,*68
$GLGSV,3,3,09,87,26,359,25*5F
$BDGSV,1,1,03,212,72,063,27,214,15,326,,211,10,335,*6D
$GAGSV,2,1,06,127,46,153,33,121,34,223,35,119,25,249,25,107,18,356,21*66
$GAGSV,2,2,06,130,16,104,22,126,09,347,*62
$GPGSA,A,3,06,07,12,13,15,17,19,28,30,,,,1.8,1.2,1.4*3E
$GNGSA,A,3,06,07,12,13,15,17,19,28,30,,,,1.8,1.2,1.4*20
$GNGSA,A,3,65,66,75,76,85,86,,,,,,,1.8,1.2,1.4*20
$QZGSA,A,3,,,,,,,,,,,,,1.8,1.2,1.4*21
$IMGSA,A,3,,,,,,,,,,,,,1.8,1.2,1.4*2E
$BDGSA,A,3,212,,,,,,,,,,,,1.8,1.2,1.4*1D
$GAGSA,A,3,107,119,121,127,130,,,,,,,,1.8,1.2,1.4*17
$GPRMC,092554.00,A,2249.146431,S,04318.399470,W,000.0,,150119,,,A*7B
$GPGGA,092555.00,2249.146431,S,04318.399470,W,1,21,0.6,8.6,M,-5.2,M,,*7A
$GPGSV,4,1,14,19,82,019,34,17,66,135,37,13,64,285,36,30,34,075,30*7E
$GPGSV,4,2,14,15,33,244,36,28,28,139,28,06,22,027,16,24,12,224,*7D
$GPGSV,4,3,14,12,07,275,18,07,05,060,22,02,05,353,,05,03,326,*71
$GPGSV,4,4,14,01,03,133,,51,15,281,*74
$GLGSV,3,1,09,86,64,076,26,76,38,177,35,75,32,119,31,66,25,277,31*65
$GLGSV,3,2,09,85,24,145,30,65,11,336,13,67,09,226,13,77,06,231,*68
$GLGSV,3,3,09,87,26,359,25*5F
$BDGSV,1,1,03,212,72,063,27,214,15,326,09,211,10,335,*64
$GAGSV,2,1,06,127,46,153,33,121,34,223,35,119,25,249,25,107,18,356,21*66
$GAGSV,2,2,06,130,16,104,22,126,09,347,*62
$GPGSA,A,3,06,07,13,15,17,19,28,30,,,,,1.7,1.0,1.4*30
$GNGSA,A,3,06,07,13,15,17,19,28,30,,,,,1.7,1.0,1.4*2E
$GNGSA,A,3,65,66,67,75,76,85,86,,,,,,1.7,1.0,1.4*2C
$QZGSA,A,3,,,,,,,,,,,,,1.7,1.0,1.4*2C
$IMGSA,A,3,,,,,,,,,,,,,1.7,1.0,1.4*23
$BDGSA,A,3,212,,,,,,,,,,,,1.7,1.0,1.4*10
$GAGSA,A,3,107,119,121,127,130,,,,,,,,1.7,1.0,1.4*1A
$GPRMC,092555.00,A,2249.146431,S,04318.399470,W,000.0,,150119,,,A*7A
$GPGGA,092556.00,2249.146431,S,04318.399470,W,1,20,0.6,8.6,M,-5.2,M,,*78
$GPGSV,4,1,14,19,82,019,34,17,66,135,37,13,64,285,36,30,34,075,29*76
$GPGSV,4,2,14,15,33,244,36,28,28,139,28,06,22,027,15,24,12,224,*7E
$GPGSV,4,3,14,12,07,275,17,07,05,060,21,02,05,353,,05,03,326,*7D
$GPGSV,4,4,14,01,03,133,,51,15,281,*74
$GLGSV,3,1,09,86,64,076,26,76,38,177,35,75,32,119,31,66,25,277,31*65
$GLGSV,3,2,09,85,24,145,29,65,11,336,13,67,09,226,13,77,06,231,*60
$GLGSV,3,3,09,87,26,359,25*5F
$BDGSV,1,1,03,212,72,063,27,214,15,326,,211,10,335,11*6D
$GAGSV,2,1,06,127,46,153,33,121,34,223,35,119,25,249,25,107,18,356,22*65
$GAGSV,2,2,06,130,16,104,22,126,09,347,*62
$GPGSA,A,3,07,13,15,17,19,28,30,,,,,,1.7,1.0,1.4*36
$GNGSA,A,3,07,13,15,17,19,28,30,,,,,,1.7,1.0,1.4*28
$GNGSA,A,3,65,66,67,75,76,85,86,,,,,,1.7,1.0,1.4*2C
$QZGSA,A,3,,,,,,,,,,,,,1.7,1.0,1.4*2C
$IMGSA,A,3,,,,,,,,,,,,,1.7,1.0,1.4*23
$BDGSA,A,3,212,,,,,,,,,,,,1.7,1.0,1.4*10
$GAGSA,A,3,107,119,121,127,130,,,,,,,,1.7,1.0,1.4*1A
$GPRMC,092556.00,A,2249.146431,S,04318.399470,W,000.0,,150119,,,A*79
$GPGGA,092557.00,2249.146431,S,04318.399470,W,1,22,0.6,8.6,M,-5.2,M,,*7B
$GPGSV,4,1,14,19,82,019,34,17,66,135,37,13,64,285,36,30,34,075,29*76
$GPGSV,4,2,14,15,33,244,36,28,28,139,28,06,22,027,15,24,12,224,*7E
$GPGSV,4,3,14,12,07,275,17,07,05,060,21,02,05,353,15,05,03,326,*79
$GPGSV,4,4,14,01,03,133,,51,15,281,*74
$GLGSV,3,1,09,86,64,076,26,76,38,177,35,75,32,119,31,66,25,277,31*65
$GLGSV,3,2,09,85,24,145,30,65,11,336,13,67,09,226,12,77,06,231,*69
$GLGSV,3,3,09,87,26,359,25*5F
$BDGSV,1,1,03,212,72,063,27,214,15,326,09,211,10,335,11*64
$GAGSV,2,1,06,127,46,153,33,121,34,223,35,119,25,249,24,107,18,356,22*64
$GAGSV,2,2,06,130,16,104,22,126,09,347,*62
$GPGSA,A,3,02,07,12,13,15,17,19,28,30,,,,1.7,1.0,1.4*37
$GNGSA,A,3,02,07,12,13,15,17,19,28,30,,,,1.7,1.0,1.4*29
$GNGSA,A,3,65,66,75,76,85,86,,,,,,,1.7,1.0,1.4*2D
$QZGSA,A,3,,,,,,,,,,,,,1.7,1.0,1.4*2C
$IMGSA,A,3,,,,,,,,,,,,,1.7,1.0,1.4*23
$BDGSA,A,3,212,,,,,,,,,,,,1.7,1.0,1.4*10
$GAGSA,A,3,107,119,121,127,130,,,,,,,,1.7,1.0,1.4*1A
$GPRMC,092557.00,A,2249.146431,S,04318.399470,W,000.0,,150119,,,A*78
$GPGGA,092558.00,2249.146431,S,04318.399470,W,1,20,0.6,8.6,M,-5.2,M,,*76
$GPGSV,4,1,14,19,82,019,34,17,66,135,37,13,64,285,36,30,34,075,29*76
$GPGSV,4,2,14,15,33,244,36,28,28,139,28,06,22,027,14,24,12,224,12*7C
$GPGSV,4,3,14,12,07,275,,07,05,060,21,02,05,353,,05,03,326,*7B
$GPGSV,4,4,14,01,03,133,,51,15,281,*74
$GLGSV,3,1,09,86,64,076,26,76,38,177,34,75,32,119,31,66,25,277,31*64
$GLGSV,3,2,09,85,24,145,30,65,11,336,13,67,09,226,13,77,06,231,*68
$GLGSV,3,3,09,87,26,359,25*5F
$BDGSV,1,1,03,212,72,063,27,214,15,326,,211,10,335,*6D
$GAGSV,2,1,06,127,46,153,33,121,34,223,35,119,25,249,24,107,18,356,22*64
$GAGSV,2,2,06,130,16,104,22,126,09,347,*62
$GPGSA,A,3,07,13,15,17,19,28,30,,,,,,1.7,1.0,1.4*36
$GNGSA,A,3,07,13,15,17,19,28,30,,,,,,1.7,1.0,1.4*28
$GNGSA,A,3,65,66,67,75,76,85,86,,,,,,1.7,1.0,1.4*2C
$QZGSA,A,3,,,,,,,,,,,,,1.7,1.0,1.4*2C
$IMGSA,A,3,,,,,,,,,,,,,1.7,1.0,1.4*23
$BDGSA,A,3,212,,,,,,,,,,,,1.7,1.0,1.4*10
$GAGSA,A,3,107,119,121,127,130,,,,,,,,1.7,1.0,1.4*1A
$GPRMC,092558.00,A,2249.146431,S,04318.399470,W,000.0,,150119,,,A*77
$GPGGA,092559.00,2249.146431,S,04318.399470,W,1,21,0.6,8.6,M,-5.2,M,,*76
$GPGSV,4,1,14,19,82,019,34,17,66,135,36,13,64,285,36,30,34,075,29*77
$GPGSV,4,2,14,15,33,244,36,28,28,139,28,06,22,027,14,24,12,224,*7F
$GPGSV,4,3,14,12,07,275,17,07,05,060,21,02,05,353,,05,03,326,*7D
$GPGSV,4,4,14,01,03,133,,51,15,281,*74
$GLGSV,3,1,09,86,64,076,26,76,38,177,34,75,32,119,31,66,25,277,31*64
$GLGSV,3,2,09,85,24,145,30,65,11,336,13,67,09,226,13,77,06,231,*68
$GLGSV,3,3,09,87,26,359,25*5F
$BDGSV,1,1,03,212,72,063,27,214,15,326,10,211,10,335,*6C
$GAGSV,2,1,06,127,46,153,33,121,34,223,35,119,25,249,24,107,18,356,22*64
$GAGSV,2,2,06,130,16,104,22,126,09,347,*62
$GPGSA,A,3,07,12,13,15,17,19,28,30,,,,,1.7,1.0,1.4*35
$GNGSA,A,3,07,12,13,15,17,19,28,30,,,,,1.7,1.0,1.4*2B
$GNGSA,A,3,66,67,75,76,85,86,,,,,,,1.7,1.0,1.4*2F
$QZGSA,A,3,,,,,,,,,,,,,1.7,1.0,1.4*2C
$IMGSA,A,3,,,,,,,,,,,,,1.7,1.0,1.4*23
$BDGSA,A,3,212,,,,,,,,,,,,1.7,1.0,1.4*10
$GAGSA,A,3,107,119,121,127,130,,,,,,,,1.7,1.0,1.4*1A
$GPRMC,092559.00,A,2249.146431,S,04318.399470,W,000.0,,150119,,,A*76
$GPGGA,092600.00,2249.146431,S,04318.399470,W,1,20,0.6,8.6,M,-5.2,M,,*78
