% program   : RTKPOST ver.2.4.2
% inp file  : C:\Users\Guilherme\Google Drive\UERJ\_Projeto Final\20170824_Marco 91500 IBGE\filteredRinex20_G_Debugg.17o
% inp file  : C:\Users\Guilherme\Google Drive\UERJ\_Projeto Final\20170824_Marco 91500 IBGE\brdm2360.17p
% obs start : 2017/08/24 16:37:45.0 GPST (week1963 405465.0s)
% obs end   : 2017/08/24 16:58:45.0 GPST (week1963 406725.0s)
% pos mode  : single
% elev mask : 15.0 deg
% ionos opt : iono-free
% tropo opt : saastamoinen
% ephemeris : broadcast
% navi sys  : gps glonass
%
% (x/y/z-ecef=WGS84,Q=1:fix,2:float,3:sbas,4:dgps,5:single,6:ppp,ns=# of satellites)
%  GPST                      x-ecef(m)      y-ecef(m)      z-ecef(m)   Q  ns   sdx(m)   sdy(m)   sdz(m)  sdxy(m)  sdyz(m)  sdzx(m) age(s)  ratio
2017/08/24 16:37:45.000   4283642.2775  -4026028.8008  -2466099.4670   5  10   6.5156   4.1317   4.4701  -4.4194   3.1579  -4.8403   0.00    0.0
2017/08/24 16:38:00.000   4283640.1986  -4026028.5526  -2466096.9432   5  10   6.5288   4.1287   4.4725  -4.4199   3.1574  -4.8488   0.00    0.0
2017/08/24 16:38:15.000   4283643.6040  -4026030.1665  -2466098.7982   5  10   6.5420   4.1257   4.4748  -4.4204   3.1567  -4.8571   0.00    0.0
2017/08/24 16:38:30.000   4283644.9983  -4026030.7010  -2466100.0296   5  10   6.5551   4.1227   4.4770  -4.4208   3.1560  -4.8655   0.00    0.0
2017/08/24 16:38:45.000   4283640.5646  -4026029.1339  -2466097.0624   5  10   6.5683   4.1196   4.4792  -4.4211   3.1552  -4.8737   0.00    0.0
2017/08/24 16:39:00.000   4283643.2482  -4026030.0214  -2466100.8165   5  10   6.5814   4.1165   4.4813  -4.4213   3.1542  -4.8819   0.00    0.0
2017/08/24 16:39:15.000   4283644.1005  -4026030.6419  -2466099.2886   5  10   6.5945   4.1133   4.4833  -4.4215   3.1532  -4.8900   0.00    0.0
2017/08/24 16:39:30.000   4283644.1557  -4026032.1850  -2466096.9553   5  10   6.6076   4.1101   4.4852  -4.4216   3.1521  -4.8980   0.00    0.0
2017/08/24 16:39:45.000   4283643.9695  -4026030.1776  -2466099.4041   5  10   6.6207   4.1068   4.4870  -4.4216   3.1509  -4.9059   0.00    0.0
2017/08/24 16:40:00.000   4283644.4903  -4026030.3849  -2466099.0389   5  10   6.6337   4.1035   4.4888  -4.4216   3.1496  -4.9138   0.00    0.0
2017/08/24 16:40:15.000   4283640.3037  -4026028.2861  -2466098.3490   5  11   3.8169   3.5881   3.5898  -2.9585   2.1351  -3.0891   0.00    0.0
2017/08/24 16:40:30.000   4283642.5636  -4026028.9938  -2466098.6783   5  10   6.6598   4.0967   4.4921  -4.4213   3.1467  -4.9293   0.00    0.0
2017/08/24 16:40:45.000   4283640.3775  -4026029.1454  -2466097.9864   5  11   3.8214   3.5869   3.5823  -2.9594   2.1312  -3.0877   0.00    0.0
2017/08/24 16:41:00.000   4283638.4937  -4026027.7844  -2466096.6635   5  11   3.8236   3.5863   3.5785  -2.9597   2.1292  -3.0869   0.00    0.0
2017/08/24 16:41:15.000   4283637.9387  -4026026.2895  -2466096.9560   5  11   3.8258   3.5857   3.5746  -2.9601   2.1271  -3.0860   0.00    0.0
2017/08/24 16:41:30.000   4283638.7371  -4026027.5658  -2466097.0947   5  11   3.8279   3.5850   3.5706  -2.9605   2.1250  -3.0851   0.00    0.0
2017/08/24 16:41:45.000   4283633.9387  -4026026.4809  -2466095.1647   5  11   3.8301   3.5843   3.5667  -2.9608   2.1229  -3.0842   0.00    0.0
2017/08/24 16:42:00.000   4283635.3004  -4026026.7473  -2466094.6632   5  11   3.8322   3.5836   3.5626  -2.9611   2.1208  -3.0832   0.00    0.0
2017/08/24 16:42:15.000   4283636.7722  -4026027.5056  -2466096.0962   5  11   3.8342   3.5829   3.5585  -2.9614   2.1186  -3.0821   0.00    0.0
2017/08/24 16:42:30.000   4283638.7795  -4026028.1323  -2466096.8458   5  11   3.8363   3.5822   3.5544  -2.9616   2.1163  -3.0810   0.00    0.0
2017/08/24 16:42:45.000   4283639.6330  -4026027.3562  -2466096.6415   5  11   3.8383   3.5814   3.5502  -2.9618   2.1141  -3.0798   0.00    0.0
2017/08/24 16:43:00.000   4283637.4205  -4026027.9113  -2466096.6615   5  11   3.8403   3.5807   3.5459  -2.9620   2.1118  -3.0786   0.00    0.0
2017/08/24 16:43:15.000   4283639.4996  -4026028.3142  -2466098.0892   5  11   3.8422   3.5799   3.5416  -2.9622   2.1095  -3.0773   0.00    0.0
2017/08/24 16:43:30.000   4283637.0444  -4026028.0355  -2466096.0589   5  11   3.8441   3.5790   3.5373  -2.9624   2.1071  -3.0760   0.00    0.0
2017/08/24 16:43:45.000   4283638.3404  -4026029.8506  -2466096.0066   5  11   3.8460   3.5782   3.5329  -2.9625   2.1047  -3.0746   0.00    0.0
2017/08/24 16:44:00.000   4283637.2279  -4026027.5512  -2466094.4530   5  11   3.8479   3.5773   3.5284  -2.9627   2.1023  -3.0731   0.00    0.0
2017/08/24 16:44:15.000   4283641.9985  -4026029.4029  -2466098.2677   5  10   6.8529   4.0411   4.5068  -4.4096   3.1137  -5.0362   0.00    0.0
2017/08/24 16:44:30.000   4283637.4247  -4026027.3123  -2466095.3634   5  11   3.8516   3.5756   3.5194  -2.9629   2.0973  -3.0701   0.00    0.0
2017/08/24 16:44:45.000   4283638.4508  -4026029.4146  -2466095.5800   5  11   3.8534   3.5747   3.5149  -2.9629   2.0948  -3.0685   0.00    0.0
2017/08/24 16:45:00.000   4283637.1046  -4026027.0031  -2466094.1898   5  11   3.8551   3.5737   3.5102  -2.9629   2.0922  -3.0668   0.00    0.0
2017/08/24 16:45:15.000   4283638.1960  -4026029.0026  -2466095.7727   5  11   3.8569   3.5728   3.5056  -2.9630   2.0896  -3.0651   0.00    0.0
2017/08/24 16:45:30.000   4283638.0187  -4026027.8494  -2466094.5196   5  11   3.8586   3.5718   3.5009  -2.9630   2.0870  -3.0634   0.00    0.0
2017/08/24 16:45:45.000   4283638.6525  -4026028.2115  -2466096.1576   5  11   3.8603   3.5708   3.4962  -2.9629   2.0844  -3.0616   0.00    0.0
2017/08/24 16:46:00.000   4283638.3523  -4026029.3076  -2466095.9502   5  11   3.8619   3.5698   3.4914  -2.9629   2.0817  -3.0598   0.00    0.0
2017/08/24 16:46:15.000   4283634.7705  -4026027.0704  -2466093.6602   5  11   3.8636   3.5688   3.4866  -2.9628   2.0790  -3.0579   0.00    0.0
2017/08/24 16:46:30.000   4283636.2444  -4026026.2746  -2466094.2591   5  11   3.8652   3.5677   3.4817  -2.9628   2.0763  -3.0559   0.00    0.0
2017/08/24 16:46:45.000   4283638.5893  -4026028.6890  -2466097.1521   5  10   3.9315   3.6197   3.8550  -3.0358   2.3083  -3.2418   0.00    0.0
2017/08/24 16:47:00.000   4283637.8981  -4026028.5613  -2466097.3489   5  10   3.9339   3.6193   3.8509  -3.0366   2.3073  -3.2413   0.00    0.0
2017/08/24 16:47:15.000   4283636.5165  -4026027.1209  -2466094.6202   5  11   3.8699   3.5645   3.4669  -2.9624   2.0680  -3.0498   0.00    0.0
2017/08/24 16:47:30.000   4283638.2789  -4026028.4743  -2466096.0025   5  11   3.8714   3.5633   3.4619  -2.9622   2.0651  -3.0477   0.00    0.0
2017/08/24 16:47:45.000   4283642.2970  -4026029.3618  -2466099.1617   5   9   7.0919   4.0424   4.8414  -4.4573   3.2602  -5.2811   0.00    0.0
2017/08/24 16:48:00.000   4283639.4786  -4026028.6527  -2466096.9903   5  11   3.8743   3.5610   3.4518  -2.9619   2.0594  -3.0433   0.00    0.0
2017/08/24 16:48:15.000   4283638.3609  -4026028.8386  -2466096.8879   5  10   3.9459   3.6170   3.8299  -3.0406   2.3017  -3.2380   0.00    0.0
2017/08/24 16:48:30.000   4283639.1132  -4026028.7724  -2466097.6752   5  10   3.9482   3.6164   3.8255  -3.0413   2.3005  -3.2371   0.00    0.0
2017/08/24 16:48:45.000   4283637.4567  -4026029.3874  -2466096.5099   5  11   3.8786   3.5575   3.4363  -2.9612   2.0506  -3.0364   0.00    0.0
2017/08/24 16:49:00.000   4283639.1534  -4026027.8180  -2466097.0036   5  11   3.8799   3.5563   3.4311  -2.9609   2.0476  -3.0341   0.00    0.0
2017/08/24 16:49:15.000   4283638.8348  -4026028.9019  -2466096.5163   5  11   3.8813   3.5550   3.4259  -2.9606   2.0446  -3.0316   0.00    0.0
2017/08/24 16:49:30.000   4283635.3632  -4026026.1245  -2466093.5811   5  11   3.8826   3.5538   3.4206  -2.9603   2.0416  -3.0292   0.00    0.0
2017/08/24 16:49:45.000   4283636.8866  -4026027.5045  -2466094.3028   5  11   3.8839   3.5525   3.4153  -2.9600   2.0386  -3.0267   0.00    0.0
2017/08/24 16:50:00.000   4283637.5967  -4026030.0647  -2466095.3980   5  11   3.8852   3.5512   3.4100  -2.9597   2.0355  -3.0241   0.00    0.0
2017/08/24 16:50:15.000   4283639.6431  -4026030.1329  -2466096.2282   5  11   3.8864   3.5499   3.4046  -2.9593   2.0324  -3.0215   0.00    0.0
2017/08/24 16:50:30.000   4283643.8185  -4026029.6614  -2466099.7812   5  10   7.1667   3.9318   4.4961  -4.3531   3.0167  -5.1798   0.00    0.0
2017/08/24 16:50:45.000   4283643.8741  -4026030.5533  -2466097.6018   5  10   7.1791   3.9271   4.4948  -4.3499   3.0119  -5.1848   0.00    0.0
2017/08/24 16:51:00.000   4283637.3403  -4026028.2525  -2466095.8705   5  11   3.8901   3.5459   3.3884  -2.9582   2.0231  -3.0135   0.00    0.0
2017/08/24 16:51:15.000   4283637.8627  -4026026.9415  -2466096.0316   5  11   3.8912   3.5445   3.3829  -2.9578   2.0199  -3.0108   0.00    0.0
2017/08/24 16:51:30.000   4283641.0326  -4026029.2802  -2466098.3909   5  10   7.2162   3.9129   4.4908  -4.3399   2.9968  -5.1993   0.00    0.0
2017/08/24 16:51:45.000   4283643.3504  -4026027.6504  -2466099.4289   5  10   7.2286   3.9081   4.4893  -4.3364   2.9917  -5.2040   0.00    0.0
2017/08/24 16:52:00.000   4283639.2859  -4026027.3083  -2466095.4316   5  10   7.2409   3.9033   4.4878  -4.3329   2.9865  -5.2087   0.00    0.0
2017/08/24 16:52:15.000   4283640.4999  -4026027.4923  -2466097.8475   5  10   7.2533   3.8984   4.4862  -4.3292   2.9812  -5.2133   0.00    0.0
2017/08/24 16:52:30.000   4283638.7553  -4026028.0150  -2466096.6437   5  10   7.2656   3.8936   4.4846  -4.3256   2.9759  -5.2178   0.00    0.0
2017/08/24 16:52:45.000   4283642.5771  -4026027.3431  -2466098.6318   5  10   7.2779   3.8887   4.4829  -4.3218   2.9704  -5.2223   0.00    0.0
2017/08/24 16:53:00.000   4283641.1620  -4026029.0605  -2466097.2981   5  10   7.2902   3.8839   4.4812  -4.3180   2.9649  -5.2268   0.00    0.0
2017/08/24 16:53:15.000   4283644.5068  -4026029.6533  -2466099.5648   5  10   7.3026   3.8790   4.4794  -4.3141   2.9594  -5.2312   0.00    0.0
2017/08/24 16:53:30.000   4283641.9623  -4026028.4334  -2466096.7617   5  10   7.3149   3.8741   4.4776  -4.3101   2.9538  -5.2356   0.00    0.0
2017/08/24 16:53:45.000   4283638.9287  -4026026.8258  -2466095.9710   5  10   7.3272   3.8691   4.4757  -4.3061   2.9481  -5.2399   0.00    0.0
2017/08/24 16:54:00.000   4283639.2868  -4026027.7567  -2466096.5099   5  10   7.3395   3.8642   4.4738  -4.3020   2.9424  -5.2441   0.00    0.0
2017/08/24 16:54:15.000   4283639.1269  -4026027.3885  -2466097.3587   5  10   7.3518   3.8593   4.4718  -4.2978   2.9366  -5.2483   0.00    0.0
2017/08/24 16:54:30.000   4283637.1720  -4026026.6870  -2466095.7419   5  11   3.9045   3.5256   3.3099  -2.9512   1.9774  -2.9720   0.00    0.0
2017/08/24 16:54:45.000   4283638.7489  -4026028.7755  -2466096.1042   5  11   3.9054   3.5240   3.3041  -2.9506   1.9740  -2.9688   0.00    0.0
2017/08/24 16:55:00.000   4283637.6837  -4026026.6479  -2466094.6577   5  11   3.9063   3.5224   3.2984  -2.9500   1.9706  -2.9656   0.00    0.0
2017/08/24 16:55:15.000   4283637.9530  -4026027.3986  -2466095.0436   5  11   3.9072   3.5209   3.2926  -2.9493   1.9672  -2.9623   0.00    0.0
2017/08/24 16:55:30.000   4283637.6925  -4026027.8778  -2466095.8220   5  11   3.9080   3.5193   3.2868  -2.9487   1.9638  -2.9590   0.00    0.0
2017/08/24 16:55:45.000   4283641.0120  -4026029.3731  -2466099.8642   5  10   4.0028   3.5939   3.6755  -3.0539   2.2502  -3.1882   0.00    0.0
2017/08/24 16:56:00.000   4283645.9666  -4026030.1062  -2466099.9960   5  10   7.4378   3.8243   4.4568  -4.2667   2.8942  -5.2765   0.00    0.0
2017/08/24 16:56:15.000   4283635.8025  -4026026.9051  -2466093.7610   5  11   3.9104   3.5145   3.2693  -2.9467   1.9536  -2.9489   0.00    0.0
2017/08/24 16:56:30.000   4283636.8616  -4026027.6069  -2466094.8593   5  10   4.0072   3.5909   3.6579  -3.0543   2.2436  -3.1807   0.00    0.0
2017/08/24 16:56:45.000   4283637.9290  -4026028.1518  -2466095.1026   5  10   4.0086   3.5899   3.6520  -3.0544   2.2413  -3.1781   0.00    0.0
2017/08/24 16:57:00.000   4283639.6188  -4026028.8920  -2466096.4856   5  10   4.0100   3.5888   3.6460  -3.0545   2.2390  -3.1755   0.00    0.0
2017/08/24 16:57:15.000   4283636.9598  -4026026.6154  -2466094.9324   5  11   3.9134   3.5079   3.2459  -2.9440   1.9398  -2.9351   0.00    0.0
2017/08/24 16:57:30.000   4283637.5487  -4026027.4700  -2466096.0698   5  11   3.9141   3.5062   3.2400  -2.9433   1.9363  -2.9316   0.00    0.0
2017/08/24 16:57:45.000   4283643.7992  -4026028.6869  -2466099.2777   5  10   7.5239   3.7889   4.4397  -4.2323   2.8489  -5.3026   0.00    0.0
2017/08/24 16:58:00.000   4283639.8527  -4026027.4873  -2466097.0517   5  11   3.9155   3.5028   3.2282  -2.9418   1.9293  -2.9245   0.00    0.0
2017/08/24 16:58:15.000   4283636.8274  -4026027.3518  -2466094.3597   5  11   3.9162   3.5011   3.2223  -2.9411   1.9258  -2.9209   0.00    0.0
2017/08/24 16:58:30.000   4283636.5976  -4026028.8185  -2466094.6184   5  11   3.9168   3.4994   3.2164  -2.9403   1.9223  -2.9173   0.00    0.0
2017/08/24 16:58:45.000   4283637.9254  -4026029.3473  -2466095.9733   5  10   4.0191   3.5811   3.6035  -3.0547   2.2224  -3.1559   0.00    0.0
