% program   : RTKPOST ver.2.4.2
% inp file  : D:\Google Drive\UERJ\_Projeto Final\20190212_Marco91500 IBGE\riod0431_semilfilltrado.19o
% inp file  : D:\Google Drive\UERJ\_Projeto Final\20190212_Marco91500 IBGE\brdm0430.19p
% obs start : 2019/02/12 08:38:00.0 GPST (week2040 203880.0s)
% obs end   : 2019/02/12 10:18:00.0 GPST (week2040 209880.0s)
% pos mode  : single
% elev mask : 15.0 deg
% ionos opt : broadcast
% tropo opt : saastamoinen
% ephemeris : broadcast
% navi sys  : gps glonass galileo
%
% (x/y/z-ecef=WGS84,Q=1:fix,2:float,3:sbas,4:dgps,5:single,6:ppp,ns=# of satellites)
%  GPST                      x-ecef(m)      y-ecef(m)      z-ecef(m)   Q  ns   sdx(m)   sdy(m)   sdz(m)  sdxy(m)  sdyz(m)  sdzx(m) age(s)  ratio
2019/02/12 08:38:00.000   4280294.1105  -4034430.0181  -2458141.3940   5  19   3.4135   4.0954   2.3455  -3.3439   2.5748  -2.1315   0.00    0.0
2019/02/12 08:38:15.000   4280293.7875  -4034429.7124  -2458140.9884   5  19   3.4206   4.0989   2.3461  -3.3496   2.5775  -2.1356   0.00    0.0
2019/02/12 08:38:30.000   4280293.6926  -4034429.3790  -2458140.6900   5  19   3.4276   4.1023   2.3466  -3.3553   2.5800  -2.1395   0.00    0.0
2019/02/12 08:38:45.000   4280293.5166  -4034428.8688  -2458140.4983   5  19   3.4346   4.1057   2.3471  -3.3609   2.5825  -2.1434   0.00    0.0
2019/02/12 08:39:00.000   4280293.5665  -4034429.0493  -2458140.6786   5  19   3.4416   4.1089   2.3476  -3.3664   2.5849  -2.1472   0.00    0.0
2019/02/12 08:39:15.000   4280293.0783  -4034428.8845  -2458140.7578   5  19   3.4485   4.1121   2.3480  -3.3719   2.5872  -2.1510   0.00    0.0
2019/02/12 08:39:30.000   4280293.2256  -4034429.2045  -2458140.7891   5  19   3.4553   4.1152   2.3484  -3.3773   2.5895  -2.1547   0.00    0.0
2019/02/12 08:39:45.000   4280293.1335  -4034429.3104  -2458140.9746   5  19   3.4621   4.1182   2.3487  -3.3825   2.5917  -2.1584   0.00    0.0
2019/02/12 08:40:00.000   4280293.9140  -4034430.3846  -2458141.3604   5  19   3.4688   4.1212   2.3491  -3.3877   2.5938  -2.1619   0.00    0.0
2019/02/12 08:40:15.000   4280294.3594  -4034430.6952  -2458141.4804   5  19   3.4755   4.1240   2.3494  -3.3929   2.5958  -2.1654   0.00    0.0
2019/02/12 08:40:30.000   4280294.5698  -4034430.8378  -2458141.6445   5  19   3.4821   4.1268   2.3496  -3.3979   2.5978  -2.1689   0.00    0.0
2019/02/12 08:40:45.000   4280294.3966  -4034430.3910  -2458141.7412   5  19   3.4886   4.1294   2.3499  -3.4028   2.5997  -2.1722   0.00    0.0
2019/02/12 08:41:00.000   4280294.2766  -4034430.1413  -2458141.3936   5  19   3.4951   4.1320   2.3501  -3.4077   2.6015  -2.1755   0.00    0.0
2019/02/12 08:41:15.000   4280293.8326  -4034429.9913  -2458140.9409   5  19   3.5015   4.1345   2.3502  -3.4124   2.6033  -2.1788   0.00    0.0
2019/02/12 08:41:30.000   4280293.6101  -4034429.8917  -2458140.7126   5  19   3.5078   4.1369   2.3503  -3.4171   2.6050  -2.1819   0.00    0.0
2019/02/12 08:41:45.000   4280293.2894  -4034429.4301  -2458140.7924   5  19   3.5141   4.1392   2.3504  -3.4217   2.6066  -2.1850   0.00    0.0
2019/02/12 08:42:00.000   4280294.2007  -4034430.3589  -2458140.6551   5  19   3.5203   4.1414   2.3505  -3.4262   2.6081  -2.1880   0.00    0.0
2019/02/12 08:42:15.000   4280294.4971  -4034430.6511  -2458141.1838   5  19   3.5264   4.1435   2.3505  -3.4305   2.6095  -2.1909   0.00    0.0
2019/02/12 08:42:30.000   4280294.6087  -4034430.3201  -2458141.1472   5  19   3.5325   4.1456   2.3504  -3.4348   2.6109  -2.1938   0.00    0.0
2019/02/12 08:42:45.000   4280294.3684  -4034430.1749  -2458141.0703   5  19   3.5384   4.1475   2.3504  -3.4390   2.6122  -2.1965   0.00    0.0
2019/02/12 08:43:00.000   4280294.4289  -4034430.4190  -2458141.2462   5  19   3.5444   4.1493   2.3503  -3.4431   2.6134  -2.1992   0.00    0.0
2019/02/12 08:43:15.000   4280294.6197  -4034431.3493  -2458141.5556   5  19   3.5502   4.1510   2.3501  -3.4471   2.6145  -2.2019   0.00    0.0
2019/02/12 08:43:30.000   4280294.2331  -4034430.7381  -2458141.4577   5  19   3.5559   4.1526   2.3500  -3.4510   2.6156  -2.2044   0.00    0.0
2019/02/12 08:43:45.000   4280294.0002  -4034430.0282  -2458141.2979   5  19   3.5616   4.1541   2.3497  -3.4548   2.6165  -2.2069   0.00    0.0
2019/02/12 08:44:00.000   4280293.4925  -4034429.3783  -2458141.3134   5  19   3.5672   4.1556   2.3495  -3.4584   2.6174  -2.2092   0.00    0.0
2019/02/12 08:44:15.000   4280293.1666  -4034429.0723  -2458141.0084   5  19   3.5727   4.1569   2.3492  -3.4620   2.6182  -2.2115   0.00    0.0
2019/02/12 08:44:30.000   4280292.6609  -4034428.6901  -2458141.1254   5  19   3.5782   4.1581   2.3488  -3.4655   2.6189  -2.2137   0.00    0.0
2019/02/12 08:44:45.000   4280293.4013  -4034429.0706  -2458141.0625   5  19   3.5835   4.1592   2.3485  -3.4688   2.6196  -2.2159   0.00    0.0
2019/02/12 08:45:00.000   4280293.5193  -4034429.7709  -2458141.2844   5  19   3.5888   4.1602   2.3480  -3.4721   2.6201  -2.2179   0.00    0.0
2019/02/12 08:45:15.000   4280293.4557  -4034429.7091  -2458141.0847   5  19   3.5940   4.1611   2.3476  -3.4752   2.6206  -2.2199   0.00    0.0
2019/02/12 08:45:30.000   4280292.9353  -4034429.1606  -2458140.8373   5  19   3.5991   4.1618   2.3471  -3.4782   2.6209  -2.2218   0.00    0.0
2019/02/12 08:45:45.000   4280293.0515  -4034429.2992  -2458140.9665   5  18   3.7559   4.8805   2.6733  -3.8486   3.1834  -2.5096   0.00    0.0
2019/02/12 08:46:00.000   4280293.3430  -4034429.4383  -2458141.1834   5  17   4.0264   4.9209   2.7085  -3.9684   3.2265  -2.6344   0.00    0.0
2019/02/12 08:46:15.000   4280293.4785  -4034429.1041  -2458140.8422   5  17   4.0325   4.9195   2.7075  -3.9709   3.2255  -2.6362   0.00    0.0
2019/02/12 08:46:30.000   4280293.4712  -4034429.4557  -2458140.7280   5  17   4.0385   4.9179   2.7065  -3.9732   3.2244  -2.6380   0.00    0.0
2019/02/12 08:46:45.000   4280293.9919  -4034429.6875  -2458141.0759   5  17   4.0444   4.9162   2.7054  -3.9754   3.2232  -2.6396   0.00    0.0
2019/02/12 08:47:00.000   4280294.3761  -4034429.9612  -2458140.6561   5  17   4.0501   4.9143   2.7042  -3.9774   3.2218  -2.6410   0.00    0.0
2019/02/12 08:47:15.000   4280295.0023  -4034430.6045  -2458141.3373   5  17   4.0557   4.9122   2.7030  -3.9793   3.2204  -2.6424   0.00    0.0
2019/02/12 08:47:30.000   4280295.5938  -4034431.3290  -2458141.6768   5  17   4.0612   4.9099   2.7016  -3.9809   3.2188  -2.6436   0.00    0.0
2019/02/12 08:47:45.000   4280294.8703  -4034430.6414  -2458141.7166   5  17   4.0666   4.9075   2.7003  -3.9825   3.2170  -2.6448   0.00    0.0
2019/02/12 08:48:00.000   4280293.8148  -4034429.9856  -2458141.1890   5  17   4.0718   4.9049   2.6988  -3.9838   3.2151  -2.6457   0.00    0.0
2019/02/12 08:48:15.000   4280293.5196  -4034429.4195  -2458140.8737   5  17   4.0769   4.9022   2.6973  -3.9850   3.2131  -2.6466   0.00    0.0
2019/02/12 08:48:30.000   4280293.5542  -4034429.6578  -2458140.9563   5  17   4.0819   4.8993   2.6957  -3.9860   3.2110  -2.6473   0.00    0.0
2019/02/12 08:48:45.000   4280292.3286  -4034428.2431  -2458140.6019   5  17   4.0867   4.8962   2.6940  -3.9868   3.2088  -2.6479   0.00    0.0
2019/02/12 08:49:00.000   4280292.8829  -4034429.1158  -2458141.0924   5  17   4.0915   4.8929   2.6922  -3.9874   3.2064  -2.6484   0.00    0.0
2019/02/12 08:49:15.000   4280292.9629  -4034429.7372  -2458141.2832   5  17   4.0960   4.8895   2.6904  -3.9879   3.2039  -2.6488   0.00    0.0
2019/02/12 08:49:30.000   4280292.9510  -4034429.6408  -2458141.2677   5  17   4.1005   4.8860   2.6885  -3.9882   3.2012  -2.6490   0.00    0.0
2019/02/12 08:49:45.000   4280292.9122  -4034429.2233  -2458141.2809   5  17   4.1048   4.8822   2.6866  -3.9884   3.1985  -2.6491   0.00    0.0
2019/02/12 08:50:00.000   4280293.2147  -4034429.7022  -2458141.4110   5  17   4.1090   4.8783   2.6845  -3.9883   3.1956  -2.6490   0.00    0.0
2019/02/12 08:50:15.000   4280292.9300  -4034429.6812  -2458141.3784   5  17   4.1131   4.8742   2.6824  -3.9881   3.1925  -2.6489   0.00    0.0
2019/02/12 08:50:30.000   4280293.6795  -4034429.8847  -2458141.5664   5  17   4.1170   4.8700   2.6803  -3.9877   3.1894  -2.6486   0.00    0.0
2019/02/12 08:50:45.000   4280294.4318  -4034431.5214  -2458141.9009   5  17   4.1208   4.8656   2.6780  -3.9872   3.1861  -2.6482   0.00    0.0
2019/02/12 08:51:00.000   4280293.9573  -4034430.3537  -2458141.0196   5  17   4.1245   4.8610   2.6757  -3.9864   3.1827  -2.6476   0.00    0.0
2019/02/12 08:51:15.000   4280293.8308  -4034429.6274  -2458140.7060   5  17   4.1281   4.8563   2.6734  -3.9855   3.1792  -2.6470   0.00    0.0
2019/02/12 08:51:30.000   4280294.3488  -4034430.4156  -2458140.9333   5  17   4.1315   4.8514   2.6709  -3.9845   3.1755  -2.6462   0.00    0.0
2019/02/12 08:51:45.000   4280293.2146  -4034429.1385  -2458140.6511   5  17   4.1347   4.8463   2.6684  -3.9832   3.1718  -2.6453   0.00    0.0
2019/02/12 08:52:00.000   4280292.7656  -4034429.0919  -2458140.5844   5  17   4.1379   4.8411   2.6659  -3.9818   3.1679  -2.6442   0.00    0.0
2019/02/12 08:52:15.000   4280293.1425  -4034429.3855  -2458140.3553   5  17   4.1409   4.8358   2.6632  -3.9802   3.1639  -2.6430   0.00    0.0
2019/02/12 08:52:30.000   4280293.5793  -4034430.0040  -2458140.8368   5  17   4.1438   4.8302   2.6605  -3.9785   3.1597  -2.6417   0.00    0.0
2019/02/12 08:52:45.000   4280293.6943  -4034430.1823  -2458141.4061   5  17   4.1465   4.8246   2.6578  -3.9766   3.1555  -2.6403   0.00    0.0
2019/02/12 08:53:00.000   4280294.4211  -4034430.6943  -2458141.2964   5  17   4.1491   4.8187   2.6549  -3.9745   3.1511  -2.6388   0.00    0.0
2019/02/12 08:53:15.000   4280293.6617  -4034430.6139  -2458141.3384   5  17   4.1516   4.8127   2.6521  -3.9722   3.1466  -2.6371   0.00    0.0
2019/02/12 08:53:30.000   4280293.2417  -4034429.9071  -2458141.1703   5  17   4.1539   4.8066   2.6491  -3.9698   3.1420  -2.6353   0.00    0.0
2019/02/12 08:53:45.000   4280293.9481  -4034430.3939  -2458141.7676   5  17   4.1561   4.8003   2.6461  -3.9672   3.1373  -2.6334   0.00    0.0
2019/02/12 08:54:00.000   4280293.7039  -4034428.8793  -2458140.9015   5  17   4.1582   4.7939   2.6430  -3.9644   3.1325  -2.6314   0.00    0.0
2019/02/12 08:54:15.000   4280293.5012  -4034429.0907  -2458140.7191   5  16   4.3788   5.5443   3.0416  -4.4175   3.7425  -2.9961   0.00    0.0
2019/02/12 08:54:30.000   4280293.2598  -4034429.4722  -2458140.8826   5  16   4.3799   5.5354   3.0378  -4.4131   3.7363  -2.9932   0.00    0.0
2019/02/12 08:54:45.000   4280294.3152  -4034430.9494  -2458141.6404   5  17   4.1637   4.7737   2.6335  -3.9552   3.1173  -2.6246   0.00    0.0
2019/02/12 08:55:00.000   4280294.0840  -4034430.1448  -2458141.2304   5  17   4.1653   4.7667   2.6302  -3.9517   3.1121  -2.6221   0.00    0.0
2019/02/12 08:55:15.000   4280293.7092  -4034430.0167  -2458141.1031   5  17   4.1667   4.7596   2.6268  -3.9482   3.1067  -2.6195   0.00    0.0
2019/02/12 08:55:30.000   4280293.2065  -4034429.0637  -2458140.3931   5  17   4.1680   4.7523   2.6234  -3.9444   3.1012  -2.6167   0.00    0.0
2019/02/12 08:55:45.000   4280292.7620  -4034428.2887  -2458139.9610   5  17   4.1692   4.7449   2.6199  -3.9406   3.0956  -2.6139   0.00    0.0
2019/02/12 08:56:00.000   4280293.4497  -4034429.8836  -2458140.9449   5  16   4.3831   5.4776   3.0130  -4.3825   3.6955  -2.9720   0.00    0.0
2019/02/12 08:56:15.000   4280293.5013  -4034429.1079  -2458140.5194   5  16   4.3831   5.4672   3.0086  -4.3767   3.6881  -2.9679   0.00    0.0
2019/02/12 08:56:30.000   4280294.3152  -4034429.7050  -2458140.8668   5  16   4.3829   5.4567   3.0041  -4.3706   3.6806  -2.9637   0.00    0.0
2019/02/12 08:56:45.000   4280293.6648  -4034429.4087  -2458140.6456   5  16   4.3825   5.4459   2.9994  -4.3643   3.6730  -2.9593   0.00    0.0
2019/02/12 08:57:00.000   4280293.1327  -4034428.3889  -2458140.3012   5  16   4.3820   5.4350   2.9947  -4.3579   3.6652  -2.9548   0.00    0.0
2019/02/12 08:57:15.000   4280292.9771  -4034428.7573  -2458141.0641   5  16   4.3813   5.4239   2.9899  -4.3512   3.6572  -2.9501   0.00    0.0
2019/02/12 08:57:30.000   4280292.8498  -4034428.3514  -2458140.3928   5  16   4.3805   5.4126   2.9851  -4.3443   3.6491  -2.9452   0.00    0.0
2019/02/12 08:57:45.000   4280292.1505  -4034427.5056  -2458140.2408   5  16   4.3795   5.4011   2.9801  -4.3373   3.6409  -2.9403   0.00    0.0
2019/02/12 08:58:00.000   4280291.5433  -4034427.4046  -2458139.9738   5  17   4.1277   5.3895   2.9699  -4.3286   3.6328  -2.9783   0.00    0.0
2019/02/12 08:58:15.000   4280292.7400  -4034428.9224  -2458140.8916   5  17   4.1224   5.3776   2.9653  -4.3190   3.6246  -2.9715   0.00    0.0
2019/02/12 08:58:30.000   4280293.0613  -4034429.2846  -2458141.2451   5  17   4.1170   5.3656   2.9605  -4.3093   3.6162  -2.9645   0.00    0.0
2019/02/12 08:58:45.000   4280293.5060  -4034429.6940  -2458141.5739   5  17   4.1114   5.3534   2.9557  -4.2993   3.6077  -2.9574   0.00    0.0
2019/02/12 08:59:00.000   4280293.2453  -4034429.0586  -2458141.4035   5  17   4.1056   5.3410   2.9507  -4.2891   3.5990  -2.9502   0.00    0.0
2019/02/12 08:59:15.000   4280293.3597  -4034429.6735  -2458141.6495   5  17   4.0998   5.3284   2.9457  -4.2788   3.5902  -2.9428   0.00    0.0
2019/02/12 08:59:30.000   4280294.2003  -4034430.0823  -2458141.2605   5  17   4.0938   5.3156   2.9406  -4.2683   3.5812  -2.9353   0.00    0.0
2019/02/12 08:59:45.000   4280293.8290  -4034430.0591  -2458140.9175   5  17   4.0878   5.3027   2.9354  -4.2577   3.5722  -2.9277   0.00    0.0
2019/02/12 09:00:00.000   4280293.4795  -4034429.5675  -2458140.4709   5  17   4.0742   5.2874   2.8948  -4.2513   3.5531  -2.9389   0.00    0.0
2019/02/12 09:00:15.000   4280293.7687  -4034429.8517  -2458140.4645   5  17   4.0673   5.2745   2.8903  -4.2402   3.5446  -2.9315   0.00    0.0
2019/02/12 09:00:30.000   4280293.1067  -4034429.1263  -2458139.9706   5  17   4.0603   5.2614   2.8857  -4.2289   3.5359  -2.9240   0.00    0.0
2019/02/12 09:00:45.000   4280292.7092  -4034428.2962  -2458139.7024   5  17   4.0532   5.2481   2.8810  -4.2175   3.5271  -2.9164   0.00    0.0
2019/02/12 09:01:00.000   4280292.6692  -4034428.5768  -2458140.1263   5  17   4.0460   5.2347   2.8763  -4.2059   3.5182  -2.9086   0.00    0.0
2019/02/12 09:01:15.000   4280292.7270  -4034428.4064  -2458140.0519   5  17   4.0386   5.2211   2.8714  -4.1941   3.5091  -2.9007   0.00    0.0
2019/02/12 09:01:30.000   4280293.4822  -4034428.7554  -2458139.9157   5  17   4.0311   5.2074   2.8665  -4.1822   3.4999  -2.8927   0.00    0.0
2019/02/12 09:01:45.000   4280293.6880  -4034429.9360  -2458140.5373   5  17   4.0236   5.1935   2.8615  -4.1701   3.4905  -2.8846   0.00    0.0
2019/02/12 09:02:00.000   4280293.6797  -4034429.5453  -2458140.5499   5  17   4.0159   5.1795   2.8564  -4.1579   3.4811  -2.8763   0.00    0.0
2019/02/12 09:02:15.000   4280292.9766  -4034428.8106  -2458139.9972   5  17   4.0082   5.1653   2.8513  -4.1455   3.4715  -2.8680   0.00    0.0
2019/02/12 09:02:30.000   4280293.1469  -4034428.5632  -2458140.4601   5  17   4.0003   5.1511   2.8460  -4.1331   3.4618  -2.8595   0.00    0.0
2019/02/12 09:02:45.000   4280292.8949  -4034428.5187  -2458140.5602   5  17   3.9924   5.1367   2.8407  -4.1204   3.4520  -2.8509   0.00    0.0
2019/02/12 09:03:00.000   4280292.8511  -4034428.2496  -2458140.1475   5  17   3.9844   5.1221   2.8354  -4.1077   3.4421  -2.8422   0.00    0.0
2019/02/12 09:03:15.000   4280292.5272  -4034428.3688  -2458140.1716   5  17   3.9763   5.1075   2.8300  -4.0949   3.4320  -2.8335   0.00    0.0
2019/02/12 09:03:30.000   4280292.7019  -4034428.8317  -2458140.5530   5  17   3.9682   5.0928   2.8245  -4.0819   3.4219  -2.8246   0.00    0.0
2019/02/12 09:03:45.000   4280292.4722  -4034428.8895  -2458140.4112   5  17   3.9600   5.0779   2.8189  -4.0689   3.4117  -2.8156   0.00    0.0
2019/02/12 09:04:00.000   4280292.7430  -4034428.9888  -2458140.3681   5  17   3.9517   5.0630   2.8133  -4.0557   3.4014  -2.8066   0.00    0.0
2019/02/12 09:04:15.000   4280292.6755  -4034429.3095  -2458140.4265   5  17   3.9433   5.0480   2.8077  -4.0424   3.3910  -2.7974   0.00    0.0
2019/02/12 09:04:30.000   4280292.8888  -4034428.5919  -2458140.1472   5  17   3.9349   5.0329   2.8020  -4.0291   3.3806  -2.7882   0.00    0.0
2019/02/12 09:04:45.000   4280292.3397  -4034428.2654  -2458140.0063   5  17   3.9265   5.0177   2.7963  -4.0157   3.3700  -2.7789   0.00    0.0
2019/02/12 09:05:00.000   4280292.4981  -4034428.4826  -2458140.3461   5  17   3.9180   5.0024   2.7905  -4.0021   3.3594  -2.7695   0.00    0.0
2019/02/12 09:05:15.000   4280292.2134  -4034427.8139  -2458139.8136   5  17   3.9094   4.9871   2.7847  -3.9885   3.3487  -2.7601   0.00    0.0
2019/02/12 09:05:30.000   4280292.9002  -4034428.5397  -2458140.0971   5  17   3.9009   4.9717   2.7788  -3.9749   3.3379  -2.7505   0.00    0.0
2019/02/12 09:05:45.000   4280293.6534  -4034429.4243  -2458140.7795   5  17   3.8922   4.9563   2.7729  -3.9611   3.3271  -2.7410   0.00    0.0
2019/02/12 09:06:00.000   4280293.1515  -4034429.4433  -2458140.7612   5  17   3.8836   4.9408   2.7670  -3.9473   3.3162  -2.7313   0.00    0.0
2019/02/12 09:06:15.000   4280292.8893  -4034428.4289  -2458140.5973   5  17   3.8749   4.9252   2.7610  -3.9334   3.3053  -2.7216   0.00    0.0
2019/02/12 09:06:30.000   4280293.0959  -4034428.7138  -2458140.6281   5  17   3.8662   4.9096   2.7550  -3.9195   3.2943  -2.7118   0.00    0.0
2019/02/12 09:06:45.000   4280292.9358  -4034428.7047  -2458140.4934   5  17   3.8574   4.8940   2.7490  -3.9055   3.2833  -2.7020   0.00    0.0
2019/02/12 09:07:00.000   4280291.5637  -4034427.8363  -2458139.6057   5  17   3.8487   4.8783   2.7430  -3.8915   3.2722  -2.6922   0.00    0.0
2019/02/12 09:07:15.000   4280291.8438  -4034427.6217  -2458139.4313   5  17   3.8399   4.8626   2.7369  -3.8774   3.2611  -2.6823   0.00    0.0
2019/02/12 09:07:30.000   4280292.7358  -4034428.3054  -2458140.3162   5  17   3.8311   4.8469   2.7308  -3.8633   3.2499  -2.6723   0.00    0.0
2019/02/12 09:07:45.000   4280293.5177  -4034428.5208  -2458140.2777   5  17   3.8223   4.8311   2.7247  -3.8491   3.2387  -2.6623   0.00    0.0
2019/02/12 09:08:00.000   4280293.4428  -4034428.5730  -2458140.2262   5  17   3.8135   4.8153   2.7186  -3.8350   3.2275  -2.6523   0.00    0.0
2019/02/12 09:08:15.000   4280294.0626  -4034428.9021  -2458140.4370   5  17   3.8046   4.7996   2.7125  -3.8207   3.2162  -2.6422   0.00    0.0
2019/02/12 09:08:30.000   4280293.4234  -4034429.0524  -2458140.5171   5  17   3.7958   4.7837   2.7063  -3.8065   3.2049  -2.6321   0.00    0.0
2019/02/12 09:08:45.000   4280293.3583  -4034428.9337  -2458140.6748   5  17   3.7870   4.7679   2.7002  -3.7922   3.1936  -2.6219   0.00    0.0
2019/02/12 09:09:00.000   4280292.8503  -4034428.1942  -2458140.4387   5  17   3.7782   4.7521   2.6940  -3.7779   3.1822  -2.6118   0.00    0.0
2019/02/12 09:09:15.000   4280293.2309  -4034428.0316  -2458140.5222   5  17   3.7694   4.7363   2.6878  -3.7636   3.1709  -2.6016   0.00    0.0
2019/02/12 09:09:30.000   4280294.0353  -4034428.9996  -2458140.8545   5  17   3.7606   4.7205   2.6817  -3.7493   3.1595  -2.5913   0.00    0.0
2019/02/12 09:09:45.000   4280293.6080  -4034429.4999  -2458140.5287   5  17   3.7518   4.7047   2.6755  -3.7350   3.1481  -2.5811   0.00    0.0
2019/02/12 09:10:00.000   4280293.4190  -4034429.0493  -2458140.5081   5  17   3.7430   4.6889   2.6693  -3.7206   3.1367  -2.5708   0.00    0.0
2019/02/12 09:10:15.000   4280293.3013  -4034429.3700  -2458140.8414   5  16   4.0646   4.8147   3.0632  -3.9493   3.3944  -2.9976   0.00    0.0
2019/02/12 09:10:30.000   4280293.0029  -4034428.6794  -2458140.8911   5  16   4.0551   4.7981   3.0566  -3.9341   3.3822  -2.9872   0.00    0.0
2019/02/12 09:10:45.000   4280293.0139  -4034428.4034  -2458140.8946   5  16   4.0457   4.7814   3.0499  -3.9189   3.3700  -2.9768   0.00    0.0
2019/02/12 09:11:00.000   4280293.0893  -4034427.7510  -2458140.3295   5  16   4.0362   4.7647   3.0433  -3.9037   3.3577  -2.9664   0.00    0.0
2019/02/12 09:11:15.000   4280292.5606  -4034427.8356  -2458140.1306   5  16   4.0268   4.7481   3.0366  -3.8885   3.3454  -2.9559   0.00    0.0
2019/02/12 09:11:30.000   4280292.2267  -4034427.4688  -2458139.5737   5  16   4.0173   4.7314   3.0299  -3.8733   3.3331  -2.9454   0.00    0.0
2019/02/12 09:11:45.000   4280292.7292  -4034428.3411  -2458140.1036   5  16   4.0079   4.7148   3.0233  -3.8580   3.3208  -2.9349   0.00    0.0
2019/02/12 09:12:00.000   4280292.8014  -4034428.1288  -2458140.1176   5  16   3.9984   4.6982   3.0166  -3.8428   3.3084  -2.9243   0.00    0.0
2019/02/12 09:12:15.000   4280291.9446  -4034427.6634  -2458139.7509   5  16   3.9890   4.6816   3.0099  -3.8275   3.2961  -2.9137   0.00    0.0
2019/02/12 09:12:30.000   4280291.7358  -4034427.3983  -2458139.8527   5  16   3.9796   4.6650   3.0032  -3.8123   3.2837  -2.9031   0.00    0.0
2019/02/12 09:12:45.000   4280292.7849  -4034428.4504  -2458140.5684   5  16   3.9702   4.6485   2.9965  -3.7970   3.2713  -2.8925   0.00    0.0
2019/02/12 09:13:00.000   4280292.8081  -4034428.4406  -2458140.4189   5  16   3.9609   4.6320   2.9897  -3.7817   3.2590  -2.8819   0.00    0.0
2019/02/12 09:13:15.000   4280293.2683  -4034428.9073  -2458140.5843   5  16   3.9515   4.6155   2.9830  -3.7665   3.2466  -2.8712   0.00    0.0
2019/02/12 09:13:30.000   4280292.5737  -4034428.2877  -2458140.0808   5  16   3.9422   4.5991   2.9763  -3.7513   3.2342  -2.8606   0.00    0.0
2019/02/12 09:13:45.000   4280292.8452  -4034428.7648  -2458140.2437   5  16   3.9329   4.5827   2.9696  -3.7360   3.2218  -2.8499   0.00    0.0
2019/02/12 09:14:00.000   4280292.3973  -4034428.0166  -2458140.6071   5  16   3.9236   4.5664   2.9629  -3.7208   3.2095  -2.8393   0.00    0.0
2019/02/12 09:14:15.000   4280292.2450  -4034427.2673  -2458140.3122   5  16   3.9144   4.5501   2.9562  -3.7056   3.1971  -2.8286   0.00    0.0
2019/02/12 09:14:30.000   4280293.1327  -4034428.2284  -2458140.7649   5  16   3.9052   4.5338   2.9496  -3.6904   3.1848  -2.8179   0.00    0.0
2019/02/12 09:14:45.000   4280292.4943  -4034427.8719  -2458140.0506   5  16   3.8960   4.5176   2.9429  -3.6753   3.1724  -2.8073   0.00    0.0
2019/02/12 09:15:00.000   4280292.9135  -4034428.5200  -2458140.2618   5  16   3.8869   4.5015   2.9362  -3.6602   3.1601  -2.7966   0.00    0.0
2019/02/12 09:15:15.000   4280292.5838  -4034428.7276  -2458140.0231   5  16   3.8778   4.4854   2.9296  -3.6451   3.1478  -2.7859   0.00    0.0
2019/02/12 09:15:30.000   4280293.8336  -4034429.2288  -2458140.2516   5  16   3.8688   4.4693   2.9230  -3.6300   3.1355  -2.7753   0.00    0.0
2019/02/12 09:15:45.000   4280292.6929  -4034428.4291  -2458140.0674   5  16   3.8598   4.4534   2.9164  -3.6149   3.1232  -2.7646   0.00    0.0
2019/02/12 09:16:00.000   4280292.8878  -4034428.5654  -2458140.0456   5  16   3.8509   4.4374   2.9098  -3.5999   3.1110  -2.7540   0.00    0.0
2019/02/12 09:16:15.000   4280292.2525  -4034427.6947  -2458140.0351   5  16   3.8419   4.4216   2.9032  -3.5850   3.0988  -2.7434   0.00    0.0
2019/02/12 09:16:30.000   4280292.5194  -4034427.5520  -2458139.9096   5  16   3.8331   4.4058   2.8966  -3.5700   3.0866  -2.7328   0.00    0.0
2019/02/12 09:16:45.000   4280291.5702  -4034426.5866  -2458139.4651   5  16   3.8243   4.3901   2.8901  -3.5551   3.0744  -2.7222   0.00    0.0
2019/02/12 09:17:00.000   4280291.2494  -4034426.8837  -2458139.4945   5  16   3.8155   4.3744   2.8836  -3.5403   3.0623  -2.7116   0.00    0.0
2019/02/12 09:17:15.000   4280291.7962  -4034427.3056  -2458140.0475   5  16   3.8068   4.3589   2.8771  -3.5255   3.0502  -2.7010   0.00    0.0
2019/02/12 09:17:30.000   4280292.6008  -4034427.8342  -2458140.8304   5  16   3.7982   4.3434   2.8707  -3.5107   3.0381  -2.6905   0.00    0.0
2019/02/12 09:17:45.000   4280293.4770  -4034428.4881  -2458140.5616   5  16   3.7896   4.3279   2.8642  -3.4960   3.0260  -2.6800   0.00    0.0
2019/02/12 09:18:00.000   4280292.9215  -4034428.0890  -2458140.3508   5  16   3.7811   4.3126   2.8578  -3.4813   3.0140  -2.6695   0.00    0.0
2019/02/12 09:18:15.000   4280292.5406  -4034428.3468  -2458140.5752   5  16   3.7726   4.2973   2.8515  -3.4667   3.0021  -2.6590   0.00    0.0
2019/02/12 09:18:30.000   4280292.3739  -4034428.2019  -2458140.4902   5  16   3.7642   4.2821   2.8451  -3.4521   2.9901  -2.6486   0.00    0.0
2019/02/12 09:18:45.000   4280293.2565  -4034428.1332  -2458140.5417   5  16   3.7559   4.2670   2.8388  -3.4375   2.9782  -2.6381   0.00    0.0
2019/02/12 09:19:00.000   4280293.3582  -4034428.5517  -2458140.9587   5  16   3.7476   4.2519   2.8325  -3.4231   2.9664  -2.6277   0.00    0.0
2019/02/12 09:19:15.000   4280292.7570  -4034428.1325  -2458140.2094   5  16   3.7394   4.2370   2.8262  -3.4087   2.9545  -2.6174   0.00    0.0
2019/02/12 09:19:30.000   4280293.3743  -4034427.9716  -2458140.5022   5  16   3.7312   4.2221   2.8200  -3.3943   2.9428  -2.6070   0.00    0.0
2019/02/12 09:19:45.000   4280292.6313  -4034427.6891  -2458140.5637   5  16   3.7231   4.2073   2.8138  -3.3800   2.9310  -2.5967   0.00    0.0
2019/02/12 09:20:00.000   4280292.4677  -4034428.0543  -2458140.3844   5  16   3.7151   4.1926   2.8077  -3.3657   2.9193  -2.5864   0.00    0.0
2019/02/12 09:20:15.000   4280292.5903  -4034428.0156  -2458140.3387   5  16   3.7072   4.1779   2.8016  -3.3515   2.9077  -2.5762   0.00    0.0
2019/02/12 09:20:30.000   4280292.4663  -4034428.4571  -2458140.5568   5  16   3.6993   4.1634   2.7955  -3.3374   2.8961  -2.5660   0.00    0.0
2019/02/12 09:20:45.000   4280293.2193  -4034429.5439  -2458141.0380   5  16   3.6915   4.1489   2.7894  -3.3233   2.8846  -2.5558   0.00    0.0
2019/02/12 09:21:00.000   4280292.9021  -4034429.4088  -2458140.6992   5  16   3.6837   4.1346   2.7834  -3.3093   2.8730  -2.5456   0.00    0.0
2019/02/12 09:21:15.000   4280293.0077  -4034429.1767  -2458140.8957   5  16   3.6760   4.1203   2.7774  -3.2953   2.8616  -2.5355   0.00    0.0
2019/02/12 09:21:30.000   4280293.2883  -4034428.9016  -2458140.7898   5  16   3.6684   4.1061   2.7715  -3.2814   2.8502  -2.5254   0.00    0.0
2019/02/12 09:21:45.000   4280292.0358  -4034428.1040  -2458140.4897   5  16   3.6609   4.0920   2.7656  -3.2676   2.8388  -2.5154   0.00    0.0
2019/02/12 09:22:00.000   4280292.1952  -4034428.1330  -2458140.0945   5  16   3.6534   4.0780   2.7597  -3.2538   2.8275  -2.5054   0.00    0.0
2019/02/12 09:22:15.000   4280292.0937  -4034428.4292  -2458140.1664   5  16   3.6460   4.0641   2.7539  -3.2401   2.8162  -2.4954   0.00    0.0
2019/02/12 09:22:30.000   4280292.7102  -4034428.9157  -2458140.4572   5  16   3.6387   4.0503   2.7481  -3.2265   2.8050  -2.4855   0.00    0.0
2019/02/12 09:22:45.000   4280293.4207  -4034429.0049  -2458140.9359   5  16   3.6315   4.0365   2.7423  -3.2129   2.7939  -2.4756   0.00    0.0
2019/02/12 09:23:00.000   4280294.0433  -4034429.0338  -2458141.3330   5  16   3.6243   4.0229   2.7366  -3.1994   2.7828  -2.4658   0.00    0.0
2019/02/12 09:23:15.000   4280293.0398  -4034428.1396  -2458140.4938   5  16   3.6172   4.0093   2.7310  -3.1859   2.7717  -2.4559   0.00    0.0
2019/02/12 09:23:30.000   4280293.0545  -4034427.9591  -2458140.7365   5  16   3.6102   3.9958   2.7253  -3.1726   2.7607  -2.4462   0.00    0.0
2019/02/12 09:23:45.000   4280292.7088  -4034428.1825  -2458140.6741   5  16   3.6032   3.9825   2.7198  -3.1592   2.7498  -2.4364   0.00    0.0
2019/02/12 09:24:00.000   4280291.7797  -4034427.9541  -2458140.3917   5  16   3.5964   3.9692   2.7142  -3.1460   2.7389  -2.4267   0.00    0.0
2019/02/12 09:24:15.000   4280292.5714  -4034428.2918  -2458140.2390   5  16   3.5896   3.9560   2.7087  -3.1328   2.7280  -2.4171   0.00    0.0
2019/02/12 09:24:30.000   4280292.9463  -4034428.6397  -2458140.5227   5  16   3.5828   3.9429   2.7032  -3.1197   2.7173  -2.4075   0.00    0.0
2019/02/12 09:24:45.000   4280292.8614  -4034428.1589  -2458140.3667   5  16   3.5762   3.9299   2.6978  -3.1067   2.7065  -2.3979   0.00    0.0
2019/02/12 09:25:00.000   4280292.3403  -4034428.1619  -2458140.3574   5  16   3.5696   3.9170   2.6924  -3.0937   2.6959  -2.3884   0.00    0.0
2019/02/12 09:25:15.000   4280291.8732  -4034428.2893  -2458140.5519   5  16   3.5631   3.9042   2.6871  -3.0808   2.6852  -2.3789   0.00    0.0
2019/02/12 09:25:30.000   4280292.3370  -4034428.6515  -2458140.8418   5  16   3.5567   3.8915   2.6818  -3.0679   2.6747  -2.3695   0.00    0.0
2019/02/12 09:25:45.000   4280293.0033  -4034428.5512  -2458140.8838   5  16   3.5504   3.8788   2.6765  -3.0552   2.6642  -2.3601   0.00    0.0
2019/02/12 09:26:00.000   4280293.5343  -4034429.0820  -2458140.9939   5  16   3.5441   3.8663   2.6713  -3.0425   2.6537  -2.3507   0.00    0.0
2019/02/12 09:26:15.000   4280293.6912  -4034428.7341  -2458140.8124   5  16   3.5380   3.8539   2.6662  -3.0298   2.6433  -2.3414   0.00    0.0
2019/02/12 09:26:30.000   4280293.1334  -4034428.5556  -2458140.5855   5  16   3.5318   3.8415   2.6610  -3.0173   2.6330  -2.3321   0.00    0.0
2019/02/12 09:26:45.000   4280292.4804  -4034428.7337  -2458140.5625   5  16   3.5258   3.8293   2.6560  -3.0048   2.6227  -2.3229   0.00    0.0
2019/02/12 09:27:00.000   4280291.5669  -4034428.4069  -2458140.3900   5  16   3.5199   3.8171   2.6509  -2.9923   2.6125  -2.3137   0.00    0.0
2019/02/12 09:27:15.000   4280292.1462  -4034428.2043  -2458140.6663   5  16   3.5140   3.8050   2.6459  -2.9800   2.6023  -2.3046   0.00    0.0
2019/02/12 09:27:30.000   4280292.9462  -4034428.7081  -2458140.8418   5  16   3.5082   3.7930   2.6410  -2.9677   2.5922  -2.2955   0.00    0.0
2019/02/12 09:27:45.000   4280292.8716  -4034428.2255  -2458140.7071   5  16   3.5025   3.7812   2.6360  -2.9555   2.5821  -2.2865   0.00    0.0
2019/02/12 09:28:00.000   4280293.0645  -4034428.5302  -2458140.7896   5  16   3.4969   3.7694   2.6312  -2.9433   2.5721  -2.2774   0.00    0.0
2019/02/12 09:28:15.000   4280293.3612  -4034428.8575  -2458141.0620   5  16   3.4913   3.7577   2.6263  -2.9313   2.5622  -2.2685   0.00    0.0
2019/02/12 09:28:30.000   4280293.2847  -4034428.5920  -2458141.3102   5  16   3.4858   3.7460   2.6216  -2.9192   2.5523  -2.2596   0.00    0.0
2019/02/12 09:28:45.000   4280291.8633  -4034427.5679  -2458140.5360   5  16   3.4804   3.7345   2.6168  -2.9073   2.5425  -2.2507   0.00    0.0
2019/02/12 09:29:00.000   4280292.1602  -4034427.6422  -2458140.3122   5  16   3.4751   3.7231   2.6121  -2.8954   2.5327  -2.2419   0.00    0.0
2019/02/12 09:29:15.000   4280292.3153  -4034427.4909  -2458140.0962   5  16   3.4698   3.7118   2.6075  -2.8836   2.5230  -2.2331   0.00    0.0
2019/02/12 09:29:30.000   4280293.4082  -4034428.3723  -2458140.1932   5  16   3.4647   3.7005   2.6028  -2.8719   2.5133  -2.2244   0.00    0.0
2019/02/12 09:29:45.000   4280293.3221  -4034428.7062  -2458140.8143   5  16   3.4596   3.6894   2.5983  -2.8602   2.5037  -2.2157   0.00    0.0
2019/02/12 09:30:00.000   4280292.9748  -4034428.6841  -2458140.3727   5  16   3.4545   3.6783   2.5937  -2.8486   2.4941  -2.2070   0.00    0.0
2019/02/12 09:30:15.000   4280291.9020  -4034427.7067  -2458140.3492   5  15   3.7204   4.5034   2.6560  -3.4192   2.7784  -2.3786   0.00    0.0
2019/02/12 09:30:30.000   4280292.9722  -4034428.2495  -2458140.9275   5  15   3.7124   4.4859   2.6504  -3.4031   2.7657  -2.3678   0.00    0.0
2019/02/12 09:30:45.000   4280292.8797  -4034428.4020  -2458140.8354   5  15   3.7044   4.4686   2.6448  -3.3870   2.7531  -2.3571   0.00    0.0
2019/02/12 09:31:00.000   4280292.3738  -4034428.3338  -2458140.7642   5  15   3.6965   4.4515   2.6393  -3.3711   2.7406  -2.3465   0.00    0.0
2019/02/12 09:31:15.000   4280292.2236  -4034427.8546  -2458140.6299   5  15   3.6888   4.4345   2.6339  -3.3553   2.7281  -2.3359   0.00    0.0
2019/02/12 09:31:30.000   4280291.9880  -4034428.2647  -2458140.6196   5  15   3.6812   4.4177   2.6285  -3.3396   2.7158  -2.3254   0.00    0.0
2019/02/12 09:31:45.000   4280293.2649  -4034428.7885  -2458140.8814   5  15   3.6737   4.4011   2.6232  -3.3240   2.7036  -2.3150   0.00    0.0
2019/02/12 09:32:00.000   4280292.0031  -4034427.8717  -2458140.4493   5  15   3.6663   4.3845   2.6180  -3.3085   2.6914  -2.3047   0.00    0.0
2019/02/12 09:32:15.000   4280292.3369  -4034428.1442  -2458140.5799   5  15   3.6590   4.3682   2.6128  -3.2932   2.6794  -2.2944   0.00    0.0
2019/02/12 09:32:30.000   4280292.3696  -4034428.0565  -2458140.5925   5  15   3.6518   4.3520   2.6077  -3.2779   2.6674  -2.2842   0.00    0.0
2019/02/12 09:32:45.000   4280292.9192  -4034429.4296  -2458141.3950   5  15   3.6448   4.3359   2.6026  -3.2628   2.6555  -2.2741   0.00    0.0
2019/02/12 09:33:00.000   4280292.6648  -4034428.6925  -2458140.6513   5  15   3.6378   4.3200   2.5976  -3.2478   2.6437  -2.2640   0.00    0.0
2019/02/12 09:33:15.000   4280291.9730  -4034427.4475  -2458139.8426   5  15   3.6310   4.3042   2.5926  -3.2329   2.6320  -2.2540   0.00    0.0
2019/02/12 09:33:30.000   4280292.8882  -4034429.1481  -2458140.7085   5  14   4.0124   4.9769   2.6737  -3.8346   2.9266  -2.4888   0.00    0.0
2019/02/12 09:33:45.000   4280292.8471  -4034429.7487  -2458141.2950   5  14   4.0029   4.9563   2.6675  -3.8163   2.9121  -2.4767   0.00    0.0
2019/02/12 09:34:00.000   4280293.1957  -4034428.8465  -2458141.2025   5  14   3.9935   4.9358   2.6615  -3.7982   2.8977  -2.4648   0.00    0.0
2019/02/12 09:34:15.000   4280292.7307  -4034428.1768  -2458140.7696   5  14   3.9843   4.9155   2.6555  -3.7802   2.8835  -2.4530   0.00    0.0
2019/02/12 09:34:30.000   4280293.4750  -4034429.1372  -2458141.2764   5  14   3.9752   4.8954   2.6495  -3.7623   2.8693  -2.4412   0.00    0.0
2019/02/12 09:34:45.000   4280292.2078  -4034428.6942  -2458140.1771   5  14   3.9662   4.8754   2.6437  -3.7446   2.8553  -2.4296   0.00    0.0
2019/02/12 09:35:00.000   4280292.8122  -4034429.2727  -2458140.4895   5  14   3.9574   4.8557   2.6379  -3.7271   2.8414  -2.4180   0.00    0.0
2019/02/12 09:35:15.000   4280292.5009  -4034428.5054  -2458140.3386   5  14   3.9487   4.8361   2.6321  -3.7096   2.8275  -2.4065   0.00    0.0
2019/02/12 09:35:30.000   4280292.8415  -4034428.8989  -2458140.5712   5  14   3.9402   4.8167   2.6265  -3.6923   2.8138  -2.3951   0.00    0.0
2019/02/12 09:35:45.000   4280292.5560  -4034428.4600  -2458140.2742   5  14   3.9317   4.7975   2.6209  -3.6752   2.8002  -2.3838   0.00    0.0
2019/02/12 09:36:00.000   4280293.0276  -4034428.8063  -2458140.4599   5  14   3.9234   4.7784   2.6154  -3.6582   2.7868  -2.3725   0.00    0.0
2019/02/12 09:36:15.000   4280293.2819  -4034428.8921  -2458141.1940   5  14   3.9152   4.7596   2.6100  -3.6413   2.7734  -2.3614   0.00    0.0
2019/02/12 09:36:30.000   4280292.4909  -4034428.5595  -2458140.1908   5  14   3.9072   4.7409   2.6046  -3.6245   2.7601  -2.3503   0.00    0.0
2019/02/12 09:36:45.000   4280292.9490  -4034428.8008  -2458140.6877   5  14   3.8993   4.7224   2.5993  -3.6079   2.7470  -2.3393   0.00    0.0
2019/02/12 09:37:00.000   4280292.3689  -4034428.2374  -2458140.1496   5  14   3.8915   4.7040   2.5940  -3.5914   2.7339  -2.3284   0.00    0.0
2019/02/12 09:37:15.000   4280292.7994  -4034428.1132  -2458140.3043   5  14   3.8838   4.6858   2.5889  -3.5751   2.7210  -2.3176   0.00    0.0
2019/02/12 09:37:30.000   4280292.6432  -4034428.2704  -2458140.4852   5  14   3.8763   4.6678   2.5838  -3.5588   2.7081  -2.3069   0.00    0.0
2019/02/12 09:37:45.000   4280293.0814  -4034429.2639  -2458140.9927   5  14   3.8689   4.6500   2.5787  -3.5428   2.6954  -2.2962   0.00    0.0
2019/02/12 09:38:00.000   4280293.4599  -4034429.0108  -2458140.9218   5  14   3.8616   4.6323   2.5737  -3.5268   2.6828  -2.2857   0.00    0.0
2019/02/12 09:38:15.000   4280292.5922  -4034428.4121  -2458140.5294   5  14   3.8544   4.6148   2.5688  -3.5109   2.6702  -2.2752   0.00    0.0
2019/02/12 09:38:30.000   4280293.3781  -4034428.9617  -2458141.0628   5  14   3.8473   4.5974   2.5640  -3.4952   2.6578  -2.2647   0.00    0.0
2019/02/12 09:38:45.000   4280292.9931  -4034428.2249  -2458140.5372   5  14   3.8404   4.5802   2.5592  -3.4796   2.6455  -2.2544   0.00    0.0
2019/02/12 09:39:00.000   4280293.0078  -4034428.2516  -2458140.5242   5  14   3.8336   4.5632   2.5545  -3.4641   2.6333  -2.2441   0.00    0.0
2019/02/12 09:39:15.000   4280293.4189  -4034428.7889  -2458141.4867   5  14   3.8269   4.5463   2.5498  -3.4488   2.6211  -2.2340   0.00    0.0
2019/02/12 09:39:30.000   4280291.6947  -4034427.4649  -2458140.4123   5  14   3.8203   4.5296   2.5452  -3.4335   2.6091  -2.2238   0.00    0.0
2019/02/12 09:39:45.000   4280292.1407  -4034427.5848  -2458140.2553   5  14   3.8139   4.5130   2.5407  -3.4184   2.5972  -2.2138   0.00    0.0
2019/02/12 09:40:00.000   4280292.4050  -4034427.8542  -2458140.2792   5  14   3.8075   4.4966   2.5362  -3.4034   2.5854  -2.2039   0.00    0.0
2019/02/12 09:40:15.000   4280292.4645  -4034427.8292  -2458140.1089   5  14   3.8013   4.4803   2.5317  -3.3886   2.5736  -2.1940   0.00    0.0
2019/02/12 09:40:30.000   4280292.3743  -4034428.2609  -2458140.3194   5  14   3.7952   4.4642   2.5274  -3.3738   2.5620  -2.1842   0.00    0.0
2019/02/12 09:40:45.000   4280293.2205  -4034428.4929  -2458139.9947   5  14   3.7892   4.4483   2.5231  -3.3592   2.5504  -2.1744   0.00    0.0
2019/02/12 09:41:00.000   4280293.7946  -4034429.4506  -2458140.6891   5  14   3.7833   4.4325   2.5188  -3.3446   2.5390  -2.1648   0.00    0.0
2019/02/12 09:41:15.000   4280293.9613  -4034429.7507  -2458141.0728   5  14   3.7775   4.4168   2.5146  -3.3302   2.5276  -2.1552   0.00    0.0
2019/02/12 09:41:30.000   4280292.7414  -4034428.2750  -2458140.8438   5  14   3.7719   4.4013   2.5105  -3.3159   2.5164  -2.1456   0.00    0.0
2019/02/12 09:41:45.000   4280292.4772  -4034428.9056  -2458140.4690   5  14   3.7663   4.3859   2.5064  -3.3017   2.5052  -2.1362   0.00    0.0
2019/02/12 09:42:00.000   4280290.9570  -4034428.1314  -2458140.0346   5  14   3.7609   4.3707   2.5024  -3.2876   2.4941  -2.1268   0.00    0.0
2019/02/12 09:42:15.000   4280292.7281  -4034428.0421  -2458140.8435   5  14   3.7555   4.3556   2.4984  -3.2736   2.4831  -2.1175   0.00    0.0
2019/02/12 09:42:30.000   4280292.7392  -4034428.2724  -2458140.7875   5  14   3.7503   4.3407   2.4945  -3.2598   2.4722  -2.1083   0.00    0.0
2019/02/12 09:42:45.000   4280292.7927  -4034428.6239  -2458140.7634   5  14   3.7452   4.3259   2.4906  -3.2460   2.4614  -2.0991   0.00    0.0
2019/02/12 09:43:00.000   4280292.4363  -4034428.4611  -2458140.8094   5  14   3.7402   4.3112   2.4868  -3.2323   2.4507  -2.0900   0.00    0.0
2019/02/12 09:43:15.000   4280292.2712  -4034428.6840  -2458140.9694   5  14   3.7353   4.2967   2.4830  -3.2188   2.4401  -2.0810   0.00    0.0
2019/02/12 09:43:30.000   4280291.2712  -4034427.6801  -2458140.7230   5  14   3.7305   4.2823   2.4793  -3.2053   2.4295  -2.0720   0.00    0.0
2019/02/12 09:43:45.000   4280291.1336  -4034427.4498  -2458140.2894   5  14   3.7258   4.2681   2.4756  -3.1920   2.4191  -2.0631   0.00    0.0
2019/02/12 09:44:00.000   4280292.6050  -4034428.3731  -2458140.7273   5  14   3.7212   4.2539   2.4720  -3.1787   2.4087  -2.0542   0.00    0.0
2019/02/12 09:44:15.000   4280293.2232  -4034428.4970  -2458140.8327   5  14   3.7167   4.2399   2.4684  -3.1656   2.3984  -2.0455   0.00    0.0
2019/02/12 09:44:30.000   4280292.2306  -4034428.0443  -2458139.6485   5  14   3.7123   4.2261   2.4649  -3.1525   2.3882  -2.0368   0.00    0.0
2019/02/12 09:44:45.000   4280292.2332  -4034428.1344  -2458140.0344   5  14   3.7080   4.2124   2.4614  -3.1396   2.3780  -2.0281   0.00    0.0
2019/02/12 09:45:00.000   4280291.9154  -4034428.2941  -2458140.1257   5  14   3.7038   4.1988   2.4580  -3.1267   2.3680  -2.0195   0.00    0.0
2019/02/12 09:45:15.000   4280293.1664  -4034429.1444  -2458140.5643   5  14   3.6997   4.1853   2.4546  -3.1140   2.3580  -2.0110   0.00    0.0
2019/02/12 09:45:30.000   4280293.0412  -4034428.3833  -2458140.6388   5  14   3.6957   4.1719   2.4513  -3.1013   2.3481  -2.0025   0.00    0.0
2019/02/12 09:45:45.000   4280292.5343  -4034428.1444  -2458140.8269   5  14   3.6918   4.1587   2.4480  -3.0888   2.3383  -1.9941   0.00    0.0
2019/02/12 09:46:00.000   4280292.0023  -4034427.7978  -2458140.2474   5  14   3.6880   4.1456   2.4448  -3.0763   2.3286  -1.9858   0.00    0.0
2019/02/12 09:46:15.000   4280291.5435  -4034427.9693  -2458139.9490   5  14   3.6843   4.1326   2.4416  -3.0639   2.3190  -1.9775   0.00    0.0
2019/02/12 09:46:30.000   4280291.9781  -4034427.8255  -2458140.0806   5  14   3.6807   4.1198   2.4385  -3.0516   2.3094  -1.9693   0.00    0.0
2019/02/12 09:46:45.000   4280292.9379  -4034429.0900  -2458140.2361   5  14   3.6772   4.1071   2.4354  -3.0394   2.2999  -1.9612   0.00    0.0
2019/02/12 09:47:00.000   4280292.8579  -4034429.3722  -2458140.1607   5  14   3.6738   4.0944   2.4323  -3.0273   2.2905  -1.9531   0.00    0.0
2019/02/12 09:47:15.000   4280292.1980  -4034429.0629  -2458140.0132   5  14   3.6705   4.0819   2.4293  -3.0153   2.2811  -1.9450   0.00    0.0
2019/02/12 09:47:30.000   4280292.7950  -4034428.8952  -2458140.0239   5  14   3.6672   4.0696   2.4263  -3.0034   2.2719  -1.9370   0.00    0.0
2019/02/12 09:47:45.000   4280294.0472  -4034429.7039  -2458142.0409   5  13   3.9715   4.4077   3.2656  -3.4041   2.9815  -2.6599   0.00    0.0
2019/02/12 09:48:00.000   4280293.4483  -4034429.5178  -2458141.4806   5  13   3.9668   4.3938   3.2615  -3.3909   2.9712  -2.6513   0.00    0.0
2019/02/12 09:48:15.000   4280292.2420  -4034428.8512  -2458140.4595   5  13   3.9621   4.3799   3.2575  -3.3778   2.9609  -2.6428   0.00    0.0
2019/02/12 09:48:30.000   4280293.2324  -4034429.1050  -2458141.1835   5  13   3.9576   4.3662   3.2535  -3.3648   2.9507  -2.6343   0.00    0.0
2019/02/12 09:48:45.000   4280293.0661  -4034428.8014  -2458141.0656   5  13   3.9532   4.3527   3.2495  -3.3519   2.9406  -2.6259   0.00    0.0
2019/02/12 09:49:00.000   4280291.9372  -4034428.2660  -2458139.6836   5  13   3.9488   4.3392   3.2455  -3.3391   2.9305  -2.6175   0.00    0.0
2019/02/12 09:49:15.000   4280292.3249  -4034428.6123  -2458140.8848   5  13   3.9446   4.3258   3.2416  -3.3264   2.9205  -2.6092   0.00    0.0
2019/02/12 09:49:30.000   4280294.0358  -4034429.7977  -2458142.3698   5  13   3.9404   4.3126   3.2377  -3.3137   2.9105  -2.6009   0.00    0.0
2019/02/12 09:49:45.000   4280292.7071  -4034428.4705  -2458140.8067   5  13   3.9364   4.2995   3.2339  -3.3011   2.9007  -2.5927   0.00    0.0
2019/02/12 09:50:00.000   4280291.7207  -4034428.2887  -2458140.1524   5  13   3.9324   4.2864   3.2300  -3.2886   2.8908  -2.5845   0.00    0.0
2019/02/12 09:50:15.000   4280292.7290  -4034428.6940  -2458140.9935   5  13   3.9285   4.2735   3.2262  -3.2762   2.8811  -2.5764   0.00    0.0
2019/02/12 09:50:30.000   4280293.1424  -4034429.1128  -2458140.8253   5  13   3.9247   4.2607   3.2224  -3.2639   2.8714  -2.5683   0.00    0.0
2019/02/12 09:50:45.000   4280291.3311  -4034427.7516  -2458139.3547   5  13   3.9210   4.2480   3.2186  -3.2517   2.8617  -2.5603   0.00    0.0
2019/02/12 09:51:00.000   4280290.9217  -4034427.1875  -2458139.0755   5  13   3.9174   4.2355   3.2149  -3.2395   2.8522  -2.5523   0.00    0.0
2019/02/12 09:51:15.000   4280291.9763  -4034427.7557  -2458140.3990   5  13   3.9139   4.2230   3.2112  -3.2274   2.8426  -2.5443   0.00    0.0
2019/02/12 09:51:30.000   4280292.0608  -4034427.2267  -2458140.2830   5  13   3.9105   4.2106   3.2075  -3.2154   2.8332  -2.5364   0.00    0.0
2019/02/12 09:51:45.000   4280293.0990  -4034427.8514  -2458140.2810   5  13   3.9071   4.1984   3.2038  -3.2035   2.8238  -2.5286   0.00    0.0
2019/02/12 09:52:00.000   4280293.9364  -4034428.7453  -2458141.3012   5  13   3.9039   4.1862   3.2002  -3.1916   2.8144  -2.5208   0.00    0.0
2019/02/12 09:52:15.000   4280293.2272  -4034428.8998  -2458140.9993   5  13   3.9007   4.1742   3.1966  -3.1798   2.8052  -2.5130   0.00    0.0
2019/02/12 09:52:30.000   4280291.8066  -4034427.8150  -2458139.8682   5  13   3.8977   4.1622   3.1930  -3.1681   2.7959  -2.5053   0.00    0.0
2019/02/12 09:52:45.000   4280291.9063  -4034428.0612  -2458139.5638   5  13   3.8947   4.1504   3.1894  -3.1565   2.7868  -2.4976   0.00    0.0
2019/02/12 09:53:00.000   4280292.4876  -4034428.6573  -2458140.7856   5  13   3.8918   4.1387   3.1859  -3.1450   2.7777  -2.4900   0.00    0.0
2019/02/12 09:53:15.000   4280291.4871  -4034427.7962  -2458140.1073   5  13   3.8890   4.1270   3.1823  -3.1335   2.7686  -2.4825   0.00    0.0
2019/02/12 09:53:30.000   4280290.7621  -4034426.9728  -2458139.2809   5  13   3.8862   4.1155   3.1788  -3.1221   2.7597  -2.4749   0.00    0.0
2019/02/12 09:53:45.000   4280291.8212  -4034427.3499  -2458140.3001   5  13   3.8836   4.1041   3.1754  -3.1108   2.7507  -2.4674   0.00    0.0
2019/02/12 09:54:00.000   4280293.8979  -4034428.6244  -2458142.0362   5  13   3.8810   4.0927   3.1719  -3.0995   2.7418  -2.4600   0.00    0.0
2019/02/12 09:54:15.000   4280294.5849  -4034428.9461  -2458141.9972   5  13   3.8786   4.0815   3.1685  -3.0883   2.7330  -2.4526   0.00    0.0
2019/02/12 09:54:30.000   4280293.4549  -4034428.6874  -2458141.1745   5  13   3.8762   4.0703   3.1651  -3.0772   2.7243  -2.4452   0.00    0.0
2019/02/12 09:54:45.000   4280291.6424  -4034427.2775  -2458139.7896   5  13   3.8739   4.0593   3.1617  -3.0662   2.7156  -2.4379   0.00    0.0
2019/02/12 09:55:00.000   4280291.1547  -4034427.0992  -2458139.2440   5  13   3.8717   4.0483   3.1583  -3.0552   2.7069  -2.4306   0.00    0.0
2019/02/12 09:55:15.000   4280291.3286  -4034427.1223  -2458139.4826   5  13   3.8695   4.0375   3.1550  -3.0443   2.6983  -2.4234   0.00    0.0
2019/02/12 09:55:30.000   4280291.6984  -4034427.8150  -2458139.9428   5  13   3.8675   4.0267   3.1517  -3.0334   2.6898  -2.4162   0.00    0.0
2019/02/12 09:55:45.000   4280291.3157  -4034427.4702  -2458139.1877   5  13   3.8655   4.0161   3.1483  -3.0227   2.6813  -2.4091   0.00    0.0
2019/02/12 09:56:00.000   4280292.7917  -4034428.4464  -2458140.3778   5  13   3.8636   4.0055   3.1451  -3.0120   2.6728  -2.4020   0.00    0.0
2019/02/12 09:56:15.000   4280293.6979  -4034429.6774  -2458140.8798   5  13   3.8618   3.9950   3.1418  -3.0013   2.6645  -2.3949   0.00    0.0
2019/02/12 09:56:30.000   4280293.4115  -4034428.8292  -2458140.5632   5  13   3.8601   3.9846   3.1386  -2.9908   2.6561  -2.3879   0.00    0.0
2019/02/12 09:56:45.000   4280292.9446  -4034428.8039  -2458140.1489   5  13   3.8585   3.9743   3.1353  -2.9803   2.6479  -2.3809   0.00    0.0
2019/02/12 09:57:00.000   4280292.0960  -4034428.8750  -2458139.9888   5  13   3.8569   3.9641   3.1321  -2.9698   2.6396  -2.3740   0.00    0.0
2019/02/12 09:57:15.000   4280291.4146  -4034428.1513  -2458139.8074   5  13   3.8554   3.9540   3.1289  -2.9594   2.6315  -2.3671   0.00    0.0
2019/02/12 09:57:30.000   4280291.7016  -4034428.3991  -2458140.2912   5  13   3.8540   3.9440   3.1258  -2.9491   2.6233  -2.3602   0.00    0.0
2019/02/12 09:57:45.000   4280292.3824  -4034428.1155  -2458140.9295   5  13   3.8527   3.9340   3.1226  -2.9389   2.6153  -2.3534   0.00    0.0
2019/02/12 09:58:00.000   4280290.6878  -4034426.7963  -2458140.5087   5  14   3.4758   3.8143   3.1110  -2.6547   2.5663  -2.2639   0.00    0.0
2019/02/12 09:58:15.000   4280291.7125  -4034428.2464  -2458141.3369   5  14   3.4762   3.8065   3.1083  -2.6470   2.5597  -2.2593   0.00    0.0
2019/02/12 09:58:30.000   4280291.3397  -4034428.1125  -2458141.3103   5  14   3.4766   3.7987   3.1056  -2.6394   2.5531  -2.2547   0.00    0.0
2019/02/12 09:58:45.000   4280291.5342  -4034427.9881  -2458141.5010   5  14   3.4771   3.7911   3.1030  -2.6319   2.5465  -2.2502   0.00    0.0
2019/02/12 09:59:00.000   4280291.3458  -4034427.9349  -2458141.0651   5  14   3.4777   3.7834   3.1003  -2.6243   2.5400  -2.2456   0.00    0.0
2019/02/12 09:59:15.000   4280291.8773  -4034428.2917  -2458140.4641   5  14   3.4783   3.7759   3.0976  -2.6168   2.5335  -2.2411   0.00    0.0
2019/02/12 09:59:30.000   4280291.1568  -4034428.0493  -2458140.4186   5  14   3.4790   3.7683   3.0949  -2.6094   2.5270  -2.2366   0.00    0.0
2019/02/12 09:59:45.000   4280291.4238  -4034428.4067  -2458140.5441   5  14   3.4797   3.7609   3.0923  -2.6019   2.5206  -2.2321   0.00    0.0
2019/02/12 10:00:00.000   4280291.2961  -4034427.7696  -2458140.5125   5  14   3.4805   3.7535   3.0896  -2.5946   2.5141  -2.2277   0.00    0.0
2019/02/12 10:00:15.000   4280290.7553  -4034427.6347  -2458140.1032   5  14   3.4813   3.7461   3.0870  -2.5872   2.5077  -2.2232   0.00    0.0
2019/02/12 10:00:30.000   4280291.6116  -4034427.5158  -2458140.5191   5  14   3.4822   3.7388   3.0843  -2.5799   2.5014  -2.2188   0.00    0.0
2019/02/12 10:00:45.000   4280292.5847  -4034428.1853  -2458141.1586   5  14   3.4831   3.7316   3.0817  -2.5726   2.4950  -2.2145   0.00    0.0
2019/02/12 10:01:00.000   4280291.9190  -4034428.1661  -2458141.1597   5  14   3.4841   3.7244   3.0790  -2.5654   2.4887  -2.2101   0.00    0.0
2019/02/12 10:01:15.000   4280292.0487  -4034428.3115  -2458141.2373   5  14   3.4851   3.7173   3.0764  -2.5582   2.4824  -2.2058   0.00    0.0
2019/02/12 10:01:30.000   4280290.7993  -4034427.5847  -2458140.2033   5  14   3.4863   3.7102   3.0738  -2.5510   2.4761  -2.2015   0.00    0.0
2019/02/12 10:01:45.000   4280291.1050  -4034428.6516  -2458140.7449   5  14   3.4874   3.7031   3.0711  -2.5438   2.4699  -2.1972   0.00    0.0
2019/02/12 10:02:00.000   4280291.2945  -4034427.8855  -2458140.1190   5  14   3.4886   3.6962   3.0685  -2.5367   2.4637  -2.1929   0.00    0.0
2019/02/12 10:02:15.000   4280291.5649  -4034427.6951  -2458140.4177   5  14   3.4899   3.6892   3.0659  -2.5297   2.4575  -2.1887   0.00    0.0
2019/02/12 10:02:30.000   4280291.5079  -4034427.2923  -2458140.6087   5  14   3.4912   3.6824   3.0633  -2.5226   2.4513  -2.1845   0.00    0.0
2019/02/12 10:02:45.000   4280292.3810  -4034427.2841  -2458141.1527   5  15   3.0031   3.6552   2.7847  -2.3747   2.3427  -1.5777   0.00    0.0
2019/02/12 10:03:00.000   4280291.6692  -4034427.5331  -2458140.6505   5  15   3.0042   3.6492   2.7842  -2.3702   2.3388  -1.5745   0.00    0.0
2019/02/12 10:03:15.000   4280291.7430  -4034427.4254  -2458139.9909   5  15   3.0053   3.6432   2.7837  -2.3657   2.3350  -1.5714   0.00    0.0
2019/02/12 10:03:30.000   4280291.8638  -4034427.6371  -2458140.5037   5  15   3.0065   3.6373   2.7832  -2.3612   2.3311  -1.5682   0.00    0.0
2019/02/12 10:03:45.000   4280292.0322  -4034427.0377  -2458140.8447   5  15   3.0077   3.6314   2.7827  -2.3567   2.3273  -1.5651   0.00    0.0
2019/02/12 10:04:00.000   4280291.4946  -4034427.1975  -2458140.5282   5  15   3.0089   3.6256   2.7822  -2.3523   2.3234  -1.5620   0.00    0.0
2019/02/12 10:04:15.000   4280292.1660  -4034427.6153  -2458141.3075   5  15   3.0102   3.6197   2.7817  -2.3478   2.3196  -1.5589   0.00    0.0
2019/02/12 10:04:30.000   4280291.7813  -4034427.2440  -2458140.8067   5  15   3.0114   3.6140   2.7812  -2.3435   2.3158  -1.5558   0.00    0.0
2019/02/12 10:04:45.000   4280291.4796  -4034427.5328  -2458141.0198   5  15   3.0127   3.6082   2.7807  -2.3391   2.3120  -1.5528   0.00    0.0
2019/02/12 10:05:00.000   4280290.9046  -4034426.8224  -2458140.4037   5  15   3.0141   3.6025   2.7801  -2.3348   2.3081  -1.5497   0.00    0.0
2019/02/12 10:05:15.000   4280291.4395  -4034426.8402  -2458140.1908   5  15   3.0154   3.5968   2.7796  -2.3305   2.3043  -1.5467   0.00    0.0
2019/02/12 10:05:30.000   4280291.5813  -4034427.8165  -2458140.6517   5  15   3.0168   3.5911   2.7790  -2.3262   2.3005  -1.5436   0.00    0.0
2019/02/12 10:05:45.000   4280291.4739  -4034427.1432  -2458140.5660   5  15   3.0182   3.5855   2.7784  -2.3219   2.2967  -1.5406   0.00    0.0
2019/02/12 10:06:00.000   4280291.9951  -4034427.2029  -2458141.0294   5  15   3.0197   3.5799   2.7779  -2.3177   2.2929  -1.5376   0.00    0.0
2019/02/12 10:06:15.000   4280292.0207  -4034427.2768  -2458141.0819   5  15   3.0211   3.5744   2.7773  -2.3135   2.2892  -1.5346   0.00    0.0
2019/02/12 10:06:30.000   4280291.4068  -4034426.6639  -2458140.9260   5  15   3.0226   3.5688   2.7767  -2.3093   2.2854  -1.5316   0.00    0.0
2019/02/12 10:06:45.000   4280291.7775  -4034427.1644  -2458141.3952   5  15   3.0241   3.5633   2.7761  -2.3052   2.2816  -1.5286   0.00    0.0
2019/02/12 10:07:00.000   4280291.3335  -4034427.3922  -2458140.8700   5  14   3.3545   3.7065   3.6707  -2.6076   2.7721  -2.4098   0.00    0.0
2019/02/12 10:07:15.000   4280291.6374  -4034427.5465  -2458140.7901   5  14   3.3570   3.7022   3.6740  -2.6054   2.7714  -2.4109   0.00    0.0
2019/02/12 10:07:30.000   4280290.5620  -4034427.3988  -2458139.9657   5  14   3.3595   3.6979   3.6772  -2.6032   2.7708  -2.4119   0.00    0.0
2019/02/12 10:07:45.000   4280290.1226  -4034426.9931  -2458139.4247   5  14   3.3620   3.6936   3.6803  -2.6010   2.7701  -2.4130   0.00    0.0
2019/02/12 10:08:00.000   4280290.5834  -4034426.9762  -2458139.7620   5  14   3.3646   3.6893   3.6834  -2.5988   2.7694  -2.4140   0.00    0.0
2019/02/12 10:08:15.000   4280292.1669  -4034427.3463  -2458141.1595   5  14   3.3671   3.6851   3.6865  -2.5966   2.7686  -2.4150   0.00    0.0
2019/02/12 10:08:30.000   4280292.5641  -4034427.5874  -2458141.5982   5  14   3.3697   3.6809   3.6895  -2.5944   2.7678  -2.4160   0.00    0.0
2019/02/12 10:08:45.000   4280292.3171  -4034427.7552  -2458141.5217   5  14   3.3723   3.6767   3.6925  -2.5922   2.7671  -2.4170   0.00    0.0
2019/02/12 10:09:00.000   4280292.5128  -4034427.6030  -2458141.7219   5  14   3.3749   3.6725   3.6954  -2.5900   2.7662  -2.4179   0.00    0.0
2019/02/12 10:09:15.000   4280292.4304  -4034427.9211  -2458141.3891   5  14   3.3775   3.6683   3.6983  -2.5878   2.7654  -2.4189   0.00    0.0
2019/02/12 10:09:30.000   4280290.9075  -4034427.5523  -2458139.9491   5  14   3.3801   3.6642   3.7011  -2.5857   2.7646  -2.4198   0.00    0.0
2019/02/12 10:09:45.000   4280291.3795  -4034427.8634  -2458140.4485   5  14   3.3827   3.6601   3.7039  -2.5835   2.7637  -2.4207   0.00    0.0
2019/02/12 10:10:00.000   4280291.2998  -4034427.8527  -2458140.4318   5  13   3.6026   4.0046   3.7376  -2.9457   2.9013  -2.5408   0.00    0.0
2019/02/12 10:10:15.000   4280291.5611  -4034427.9033  -2458140.6347   5  13   3.6058   3.9999   3.7401  -2.9439   2.8999  -2.5415   0.00    0.0
2019/02/12 10:10:30.000   4280292.3346  -4034428.4887  -2458141.0423   5  13   3.6090   3.9953   3.7425  -2.9421   2.8985  -2.5422   0.00    0.0
2019/02/12 10:10:45.000   4280291.6592  -4034427.6234  -2458140.5928   5  13   3.6122   3.9906   3.7449  -2.9403   2.8970  -2.5429   0.00    0.0
2019/02/12 10:11:00.000   4280291.6385  -4034427.5002  -2458140.5601   5  13   3.6154   3.9860   3.7472  -2.9385   2.8955  -2.5435   0.00    0.0
2019/02/12 10:11:15.000   4280291.9337  -4034427.9369  -2458140.7493   5  13   3.6186   3.9814   3.7495  -2.9367   2.8940  -2.5442   0.00    0.0
2019/02/12 10:11:30.000   4280292.1411  -4034428.6151  -2458141.7546   5  13   3.6218   3.9768   3.7518  -2.9349   2.8925  -2.5448   0.00    0.0
2019/02/12 10:11:45.000   4280292.7744  -4034428.5536  -2458142.3184   5  13   3.6251   3.9722   3.7540  -2.9332   2.8909  -2.5453   0.00    0.0
2019/02/12 10:12:00.000   4280291.9321  -4034428.4101  -2458141.5047   5  13   3.6284   3.9676   3.7561  -2.9314   2.8893  -2.5459   0.00    0.0
2019/02/12 10:12:15.000   4280292.1962  -4034427.5897  -2458140.8902   5  13   3.6316   3.9631   3.7582  -2.9297   2.8877  -2.5464   0.00    0.0
2019/02/12 10:12:30.000   4280290.4598  -4034426.7151  -2458139.6857   5  13   3.6349   3.9586   3.7602  -2.9279   2.8861  -2.5470   0.00    0.0
2019/02/12 10:12:45.000   4280291.4544  -4034427.5350  -2458140.6995   5  13   3.6383   3.9541   3.7622  -2.9262   2.8845  -2.5475   0.00    0.0
2019/02/12 10:13:00.000   4280290.8975  -4034427.1638  -2458141.0457   5  13   3.6416   3.9497   3.7641  -2.9245   2.8828  -2.5479   0.00    0.0
2019/02/12 10:13:15.000   4280290.6664  -4034427.4765  -2458140.3133   5  13   3.6449   3.9452   3.7660  -2.9228   2.8811  -2.5484   0.00    0.0
2019/02/12 10:13:30.000   4280291.0007  -4034426.8896  -2458140.8400   5  13   3.6483   3.9408   3.7678  -2.9211   2.8794  -2.5488   0.00    0.0
2019/02/12 10:13:45.000   4280291.3413  -4034427.4789  -2458140.4712   5  13   3.6516   3.9364   3.7696  -2.9194   2.8776  -2.5492   0.00    0.0
2019/02/12 10:14:00.000   4280292.6088  -4034427.7454  -2458141.2878   5  13   3.6550   3.9320   3.7713  -2.9177   2.8759  -2.5496   0.00    0.0
2019/02/12 10:14:15.000   4280292.9516  -4034428.2948  -2458141.8028   5  13   3.6584   3.9277   3.7729  -2.9161   2.8741  -2.5500   0.00    0.0
2019/02/12 10:14:30.000   4280292.8142  -4034428.2308  -2458141.4787   5  13   3.6618   3.9234   3.7745  -2.9144   2.8722  -2.5503   0.00    0.0
2019/02/12 10:14:45.000   4280291.7200  -4034427.7002  -2458140.5394   5  13   3.6653   3.9190   3.7761  -2.9128   2.8704  -2.5506   0.00    0.0
2019/02/12 10:15:00.000   4280290.9541  -4034428.1761  -2458139.9354   5  13   3.6687   3.9147   3.7776  -2.9111   2.8685  -2.5509   0.00    0.0
2019/02/12 10:15:15.000   4280290.3382  -4034427.8421  -2458140.1403   5  13   3.6722   3.9105   3.7790  -2.9095   2.8667  -2.5512   0.00    0.0
2019/02/12 10:15:30.000   4280291.7022  -4034428.1531  -2458140.8077   5  13   3.6756   3.9062   3.7804  -2.9079   2.8647  -2.5515   0.00    0.0
2019/02/12 10:15:45.000   4280292.9071  -4034428.8823  -2458141.2093   5  13   3.6791   3.9020   3.7817  -2.9063   2.8628  -2.5517   0.00    0.0
2019/02/12 10:16:00.000   4280292.8991  -4034428.6121  -2458141.7235   5  14   3.4580   3.8246   3.2640  -2.7358   2.5974  -2.0224   0.00    0.0
2019/02/12 10:16:15.000   4280291.9127  -4034427.8016  -2458141.4620   5  14   3.4618   3.8212   3.2666  -2.7352   2.5972  -2.0233   0.00    0.0
2019/02/12 10:16:30.000   4280291.3811  -4034427.0526  -2458140.8370   5  14   3.4656   3.8179   3.2691  -2.7347   2.5970  -2.0242   0.00    0.0
2019/02/12 10:16:45.000   4280291.0256  -4034427.2461  -2458140.5391   5  14   3.4694   3.8146   3.2717  -2.7341   2.5968  -2.0251   0.00    0.0
2019/02/12 10:17:00.000   4280290.9929  -4034427.2336  -2458140.3110   5  14   3.4733   3.8113   3.2742  -2.7335   2.5966  -2.0260   0.00    0.0
2019/02/12 10:17:15.000   4280291.1422  -4034426.9320  -2458140.4446   5  14   3.4771   3.8080   3.2766  -2.7330   2.5964  -2.0269   0.00    0.0
2019/02/12 10:17:30.000   4280290.4669  -4034426.7411  -2458139.6149   5  14   3.4810   3.8047   3.2791  -2.7325   2.5961  -2.0278   0.00    0.0
2019/02/12 10:17:45.000   4280290.5084  -4034426.4718  -2458140.0689   5  14   3.4848   3.8015   3.2815  -2.7319   2.5958  -2.0286   0.00    0.0
2019/02/12 10:18:00.000   4280291.3169  -4034427.3881  -2458140.9318   5  14   3.4887   3.7983   3.2838  -2.7314   2.5955  -2.0295   0.00    0.0
