% program   : RTKPOST ver.2.4.2
% inp file  : D:\Google Drive\UERJ\_Projeto Final\20190211_Marco91500 IBGE\riod0421_semifiltrado.19o
% inp file  : D:\Google Drive\UERJ\_Projeto Final\20190211_Marco91500 IBGE\brdm0420.19p
% obs start : 2019/02/11 08:56:00.0 GPST (week2040 118560.0s)
% obs end   : 2019/02/11 10:26:00.0 GPST (week2040 123960.0s)
% pos mode  : single
% elev mask : 15.0 deg
% ionos opt : broadcast
% tropo opt : saastamoinen
% ephemeris : broadcast
% navi sys  : gps glonass galileo
%
% (x/y/z-ecef=WGS84,Q=1:fix,2:float,3:sbas,4:dgps,5:single,6:ppp,ns=# of satellites)
%  GPST                      x-ecef(m)      y-ecef(m)      z-ecef(m)   Q  ns   sdx(m)   sdy(m)   sdz(m)  sdxy(m)  sdyz(m)  sdzx(m) age(s)  ratio
2019/02/11 08:56:00.000   4280291.3024  -4034427.4230  -2458138.2169   5  16   3.7918   4.7810   2.8680  -3.7942   3.1898  -2.7298   0.00    0.0
2019/02/11 08:56:15.000   4280292.3233  -4034428.7702  -2458138.9782   5  16   3.7927   4.7778   2.8679  -3.7927   3.1886  -2.7295   0.00    0.0
2019/02/11 08:56:30.000   4280292.9259  -4034429.5129  -2458139.4567   5  16   3.7934   4.7745   2.8677  -3.7910   3.1873  -2.7290   0.00    0.0
2019/02/11 08:56:45.000   4280292.6336  -4034429.5207  -2458139.8337   5  16   3.7940   4.7709   2.8675  -3.7891   3.1858  -2.7284   0.00    0.0
2019/02/11 08:57:00.000   4280293.0595  -4034429.8763  -2458139.8174   5  16   3.7945   4.7673   2.8671  -3.7871   3.1842  -2.7277   0.00    0.0
2019/02/11 08:57:15.000   4280292.6820  -4034429.7648  -2458139.6309   5  16   3.7949   4.7634   2.8667  -3.7849   3.1824  -2.7268   0.00    0.0
2019/02/11 08:57:30.000   4280292.7954  -4034429.3749  -2458139.9075   5  16   3.7951   4.7594   2.8661  -3.7826   3.1804  -2.7258   0.00    0.0
2019/02/11 08:57:45.000   4280292.5003  -4034428.8427  -2458139.8172   5  16   3.7952   4.7552   2.8655  -3.7801   3.1783  -2.7247   0.00    0.0
2019/02/11 08:58:00.000   4280291.9699  -4034428.5367  -2458139.7558   5  16   3.7952   4.7509   2.8648  -3.7774   3.1761  -2.7234   0.00    0.0
2019/02/11 08:58:15.000   4280293.0310  -4034429.4150  -2458140.1084   5  16   3.7951   4.7464   2.8639  -3.7745   3.1737  -2.7220   0.00    0.0
2019/02/11 08:58:30.000   4280292.5251  -4034429.4997  -2458139.7852   5  16   3.7949   4.7417   2.8630  -3.7715   3.1712  -2.7204   0.00    0.0
2019/02/11 08:58:45.000   4280292.8610  -4034429.5576  -2458140.0493   5  16   3.7945   4.7369   2.8620  -3.7684   3.1685  -2.7187   0.00    0.0
2019/02/11 08:59:00.000   4280292.3841  -4034428.6143  -2458139.4857   5  16   3.7940   4.7320   2.8609  -3.7651   3.1656  -2.7169   0.00    0.0
2019/02/11 08:59:15.000   4280292.7446  -4034429.1522  -2458139.6975   5  16   3.7934   4.7269   2.8597  -3.7616   3.1627  -2.7150   0.00    0.0
2019/02/11 08:59:30.000   4280292.2297  -4034428.9293  -2458139.6982   5  16   3.7927   4.7216   2.8584  -3.7580   3.1596  -2.7129   0.00    0.0
2019/02/11 08:59:45.000   4280292.2473  -4034429.6913  -2458139.6751   5  16   3.7919   4.7162   2.8571  -3.7542   3.1563  -2.7107   0.00    0.0
2019/02/11 09:00:00.000   4280291.3316  -4034427.5408  -2458139.1552   5  16   3.7900   4.7035   2.7946  -3.7533   3.1286  -2.7179   0.00    0.0
2019/02/11 09:00:15.000   4280291.8635  -4034427.8608  -2458138.9709   5  16   3.7887   4.6983   2.7940  -3.7494   3.1261  -2.7162   0.00    0.0
2019/02/11 09:00:30.000   4280293.0537  -4034429.3868  -2458139.9458   5  16   3.7874   4.6929   2.7934  -3.7453   3.1235  -2.7143   0.00    0.0
2019/02/11 09:00:45.000   4280292.8697  -4034429.7288  -2458140.1806   5  16   3.7859   4.6874   2.7927  -3.7410   3.1207  -2.7124   0.00    0.0
2019/02/11 09:01:00.000   4280292.4124  -4034429.0182  -2458139.7655   5  16   3.7843   4.6817   2.7919  -3.7366   3.1177  -2.7103   0.00    0.0
2019/02/11 09:01:15.000   4280292.0097  -4034427.9654  -2458139.0253   5  15   4.0987   5.5324   3.2456  -4.3122   3.8209  -3.1540   0.00    0.0
2019/02/11 09:01:30.000   4280291.3501  -4034427.3470  -2458138.7784   5  15   4.0968   5.5262   3.2457  -4.3076   3.8185  -3.1523   0.00    0.0
2019/02/11 09:01:45.000   4280291.6948  -4034427.7699  -2458139.3084   5  15   4.0947   5.5197   3.2456  -4.3027   3.8158  -3.1504   0.00    0.0
2019/02/11 09:02:00.000   4280291.3341  -4034428.4059  -2458139.6496   5  15   4.0924   5.5130   3.2454  -4.2975   3.8130  -3.1483   0.00    0.0
2019/02/11 09:02:15.000   4280291.8715  -4034428.8275  -2458139.8407   5  15   4.0899   5.5060   3.2450  -4.2921   3.8099  -3.1459   0.00    0.0
2019/02/11 09:02:30.000   4280292.7749  -4034429.3118  -2458140.2200   5  15   4.0873   5.4988   3.2445  -4.2864   3.8066  -3.1434   0.00    0.0
2019/02/11 09:02:45.000   4280292.4737  -4034428.8515  -2458139.7670   5  15   4.0845   5.4913   3.2438  -4.2805   3.8031  -3.1407   0.00    0.0
2019/02/11 09:03:00.000   4280291.9496  -4034429.2690  -2458139.9319   5  15   4.0815   5.4835   3.2430  -4.2744   3.7993  -3.1378   0.00    0.0
2019/02/11 09:03:15.000   4280292.1540  -4034429.1332  -2458139.5577   5  15   4.0783   5.4755   3.2420  -4.2680   3.7953  -3.1347   0.00    0.0
2019/02/11 09:03:30.000   4280292.4699  -4034429.7115  -2458139.9860   5  15   4.0750   5.4673   3.2409  -4.2614   3.7911  -3.1314   0.00    0.0
2019/02/11 09:03:45.000   4280293.0844  -4034430.7627  -2458140.4978   5  15   4.0715   5.4588   3.2396  -4.2546   3.7867  -3.1279   0.00    0.0
2019/02/11 09:04:00.000   4280293.3917  -4034430.7047  -2458139.9801   5  15   4.0678   5.4501   3.2382  -4.2475   3.7821  -3.1242   0.00    0.0
2019/02/11 09:04:15.000   4280293.2419  -4034430.3004  -2458139.8549   5  15   4.0640   5.4412   3.2367  -4.2403   3.7773  -3.1204   0.00    0.0
2019/02/11 09:04:30.000   4280292.1834  -4034429.4198  -2458139.5192   5  15   4.0601   5.4320   3.2350  -4.2328   3.7723  -3.1163   0.00    0.0
2019/02/11 09:04:45.000   4280292.1092  -4034428.6306  -2458139.4235   5  15   4.0559   5.4227   3.2332  -4.2251   3.7670  -3.1121   0.00    0.0
2019/02/11 09:05:00.000   4280291.6667  -4034428.2521  -2458139.3934   5  15   4.0517   5.4131   3.2313  -4.2172   3.7616  -3.1077   0.00    0.0
2019/02/11 09:05:15.000   4280292.0873  -4034428.1301  -2458139.2619   5  15   4.0472   5.4033   3.2292  -4.2090   3.7560  -3.1032   0.00    0.0
2019/02/11 09:05:30.000   4280292.3733  -4034429.2200  -2458139.3706   5  15   4.0427   5.3932   3.2270  -4.2007   3.7502  -3.0984   0.00    0.0
2019/02/11 09:05:45.000   4280292.7275  -4034429.8233  -2458139.5315   5  15   4.0380   5.3830   3.2246  -4.1922   3.7442  -3.0936   0.00    0.0
2019/02/11 09:06:00.000   4280292.8240  -4034429.6449  -2458139.8556   5  15   4.0331   5.3726   3.2222  -4.1835   3.7380  -3.0885   0.00    0.0
2019/02/11 09:06:15.000   4280291.9551  -4034428.6028  -2458139.0009   5  15   4.0281   5.3620   3.2196  -4.1746   3.7316  -3.0833   0.00    0.0
2019/02/11 09:06:30.000   4280292.1493  -4034429.3073  -2458139.7573   5  15   4.0230   5.3512   3.2169  -4.1655   3.7251  -3.0779   0.00    0.0
2019/02/11 09:06:45.000   4280291.9217  -4034429.0932  -2458139.9069   5  15   4.0178   5.3402   3.2141  -4.1563   3.7184  -3.0724   0.00    0.0
2019/02/11 09:07:00.000   4280291.4073  -4034427.6500  -2458139.2336   5  15   4.0124   5.3291   3.2111  -4.1468   3.7115  -3.0667   0.00    0.0
2019/02/11 09:07:15.000   4280291.7617  -4034427.9507  -2458139.0640   5  15   4.0070   5.3177   3.2081  -4.1372   3.7045  -3.0609   0.00    0.0
2019/02/11 09:07:30.000   4280291.9321  -4034428.7380  -2458139.1689   5  15   4.0014   5.3063   3.2049  -4.1275   3.6973  -3.0549   0.00    0.0
2019/02/11 09:07:45.000   4280291.7965  -4034429.2281  -2458139.4311   5  15   3.9957   5.2946   3.2017  -4.1175   3.6899  -3.0488   0.00    0.0
2019/02/11 09:08:00.000   4280291.6668  -4034429.2003  -2458139.6784   5  15   3.9899   5.2828   3.1983  -4.1074   3.6824  -3.0426   0.00    0.0
2019/02/11 09:08:15.000   4280292.3271  -4034429.4941  -2458140.3703   5  15   3.9839   5.2708   3.1948  -4.0972   3.6747  -3.0362   0.00    0.0
2019/02/11 09:08:30.000   4280292.4051  -4034430.1583  -2458140.6689   5  15   3.9779   5.2587   3.1912  -4.0868   3.6669  -3.0297   0.00    0.0
2019/02/11 09:08:45.000   4280292.3399  -4034429.4577  -2458139.8458   5  15   3.9718   5.2464   3.1876  -4.0762   3.6590  -3.0230   0.00    0.0
2019/02/11 09:09:00.000   4280292.5579  -4034428.9404  -2458139.8246   5  15   3.9656   5.2340   3.1838  -4.0655   3.6509  -3.0163   0.00    0.0
2019/02/11 09:09:15.000   4280292.1263  -4034428.3272  -2458139.4340   5  15   3.9593   5.2215   3.1800  -4.0547   3.6427  -3.0094   0.00    0.0
2019/02/11 09:09:30.000   4280292.0014  -4034428.8123  -2458139.5070   5  15   3.9529   5.2088   3.1760  -4.0438   3.6343  -3.0024   0.00    0.0
2019/02/11 09:09:45.000   4280291.9455  -4034428.5444  -2458139.3654   5  15   3.9464   5.1960   3.1720  -4.0327   3.6258  -2.9953   0.00    0.0
2019/02/11 09:10:00.000   4280291.7943  -4034427.6002  -2458139.3856   5  15   3.9399   5.1831   3.1679  -4.0215   3.6172  -2.9880   0.00    0.0
2019/02/11 09:10:15.000   4280292.3081  -4034429.1420  -2458140.0614   5  16   3.6564   4.3862   2.7088  -3.4805   2.9237  -2.5525   0.00    0.0
2019/02/11 09:10:30.000   4280292.3099  -4034429.4758  -2458140.1645   5  16   3.6516   4.3766   2.7055  -3.4717   2.9166  -2.5466   0.00    0.0
2019/02/11 09:10:45.000   4280291.9549  -4034429.1134  -2458139.7432   5  15   3.9197   5.1437   3.1551  -3.9871   3.5907  -2.9657   0.00    0.0
2019/02/11 09:11:00.000   4280292.0608  -4034428.7503  -2458139.7841   5  15   3.9129   5.1304   3.1507  -3.9755   3.5816  -2.9580   0.00    0.0
2019/02/11 09:11:15.000   4280291.6228  -4034428.4247  -2458139.3616   5  15   3.9060   5.1170   3.1462  -3.9637   3.5725  -2.9503   0.00    0.0
2019/02/11 09:11:30.000   4280292.4099  -4034429.6345  -2458140.2710   5  15   3.8990   5.1034   3.1416  -3.9518   3.5632  -2.9424   0.00    0.0
2019/02/11 09:11:45.000   4280292.6531  -4034429.8119  -2458140.1003   5  15   3.8920   5.0898   3.1370  -3.9399   3.5538  -2.9345   0.00    0.0
2019/02/11 09:12:00.000   4280292.0878  -4034429.6630  -2458139.5804   5  15   3.8849   5.0762   3.1323  -3.9278   3.5444  -2.9265   0.00    0.0
2019/02/11 09:12:15.000   4280292.4795  -4034429.1582  -2458139.5973   5  15   3.8778   5.0624   3.1276  -3.9157   3.5348  -2.9184   0.00    0.0
2019/02/11 09:12:30.000   4280291.9688  -4034428.3505  -2458139.1770   5  15   3.8706   5.0486   3.1228  -3.9035   3.5252  -2.9102   0.00    0.0
2019/02/11 09:12:45.000   4280291.7705  -4034428.0338  -2458139.6405   5  15   3.8634   5.0346   3.1179  -3.8912   3.5155  -2.9019   0.00    0.0
2019/02/11 09:13:00.000   4280292.2856  -4034428.5828  -2458139.8180   5  15   3.8561   5.0207   3.1130  -3.8788   3.5057  -2.8936   0.00    0.0
2019/02/11 09:13:15.000   4280292.8868  -4034429.6392  -2458140.2650   5  15   3.8488   5.0067   3.1081  -3.8663   3.4958  -2.8851   0.00    0.0
2019/02/11 09:13:30.000   4280293.3105  -4034429.5361  -2458140.2034   5  15   3.8415   4.9926   3.1030  -3.8538   3.4859  -2.8767   0.00    0.0
2019/02/11 09:13:45.000   4280293.1095  -4034430.1131  -2458140.4025   5  15   3.8341   4.9784   3.0980  -3.8412   3.4759  -2.8681   0.00    0.0
2019/02/11 09:14:00.000   4280292.4876  -4034430.1910  -2458140.1990   5  15   3.8267   4.9643   3.0929  -3.8286   3.4658  -2.8595   0.00    0.0
2019/02/11 09:14:15.000   4280292.5313  -4034429.9573  -2458140.4095   5  15   3.8193   4.9500   3.0878  -3.8159   3.4556  -2.8508   0.00    0.0
2019/02/11 09:14:30.000   4280291.9254  -4034429.0084  -2458140.1551   5  15   3.8119   4.9358   3.0826  -3.8032   3.4454  -2.8421   0.00    0.0
2019/02/11 09:14:45.000   4280292.0420  -4034428.4287  -2458140.0342   5  15   3.8044   4.9215   3.0774  -3.7904   3.4352  -2.8333   0.00    0.0
2019/02/11 09:15:00.000   4280291.3206  -4034427.3111  -2458138.9184   5  15   3.7969   4.9072   3.0721  -3.7775   3.4249  -2.8245   0.00    0.0
2019/02/11 09:15:15.000   4280292.0248  -4034428.1570  -2458139.0626   5  15   3.7895   4.8928   3.0668  -3.7646   3.4145  -2.8156   0.00    0.0
2019/02/11 09:15:30.000   4280291.0900  -4034427.6584  -2458138.9601   5  15   3.7820   4.8784   3.0615  -3.7517   3.4041  -2.8066   0.00    0.0
2019/02/11 09:15:45.000   4280291.8939  -4034428.3315  -2458139.4860   5  15   3.7744   4.8640   3.0562  -3.7388   3.3937  -2.7976   0.00    0.0
2019/02/11 09:16:00.000   4280291.2274  -4034428.2165  -2458139.2554   5  15   3.7669   4.8496   3.0508  -3.7258   3.3832  -2.7886   0.00    0.0
2019/02/11 09:16:15.000   4280291.3716  -4034428.1770  -2458139.2449   5  15   3.7594   4.8352   3.0454  -3.7127   3.3726  -2.7795   0.00    0.0
2019/02/11 09:16:30.000   4280291.7083  -4034428.6162  -2458139.6279   5  15   3.7519   4.8207   3.0400  -3.6997   3.3621  -2.7704   0.00    0.0
2019/02/11 09:16:45.000   4280292.0578  -4034428.8142  -2458139.3141   5  15   3.7444   4.8063   3.0346  -3.6866   3.3515  -2.7613   0.00    0.0
2019/02/11 09:17:00.000   4280292.9908  -4034430.0052  -2458140.2077   5  15   3.7368   4.7918   3.0291  -3.6735   3.3408  -2.7521   0.00    0.0
2019/02/11 09:17:15.000   4280292.6804  -4034429.3762  -2458139.9328   5  15   3.7293   4.7774   3.0237  -3.6604   3.3302  -2.7429   0.00    0.0
2019/02/11 09:17:30.000   4280292.4224  -4034428.3053  -2458139.3984   5  15   3.7218   4.7630   3.0182  -3.6473   3.3195  -2.7337   0.00    0.0
2019/02/11 09:17:45.000   4280292.6018  -4034429.1174  -2458139.4506   5  15   3.7143   4.7485   3.0127  -3.6341   3.3088  -2.7244   0.00    0.0
2019/02/11 09:18:00.000   4280291.8924  -4034428.3475  -2458139.7581   5  15   3.7068   4.7341   3.0072  -3.6210   3.2981  -2.7151   0.00    0.0
2019/02/11 09:18:15.000   4280291.7073  -4034428.0406  -2458139.2938   5  15   3.6994   4.7197   3.0017  -3.6078   3.2873  -2.7058   0.00    0.0
2019/02/11 09:18:30.000   4280292.4536  -4034428.8883  -2458139.6545   5  15   3.6919   4.7053   2.9962  -3.5947   3.2766  -2.6965   0.00    0.0
2019/02/11 09:18:45.000   4280291.6973  -4034427.8482  -2458139.1300   5  15   3.6845   4.6909   2.9906  -3.5815   3.2658  -2.6871   0.00    0.0
2019/02/11 09:19:00.000   4280291.8944  -4034429.0346  -2458139.6643   5  15   3.6771   4.6765   2.9851  -3.5683   3.2550  -2.6778   0.00    0.0
2019/02/11 09:19:15.000   4280292.1107  -4034428.7313  -2458139.4700   5  15   3.6697   4.6621   2.9796  -3.5552   3.2442  -2.6684   0.00    0.0
2019/02/11 09:19:30.000   4280291.9651  -4034428.6157  -2458139.0431   5  15   3.6623   4.6478   2.9740  -3.5420   3.2334  -2.6590   0.00    0.0
2019/02/11 09:19:45.000   4280291.9311  -4034428.5129  -2458139.3528   5  15   3.6549   4.6335   2.9685  -3.5288   3.2226  -2.6496   0.00    0.0
2019/02/11 09:20:00.000   4280292.1791  -4034428.9813  -2458139.5382   5  15   3.6476   4.6192   2.9630  -3.5157   3.2118  -2.6401   0.00    0.0
2019/02/11 09:20:15.000   4280291.6043  -4034427.9855  -2458138.8849   5  15   3.6403   4.6050   2.9574  -3.5026   3.2010  -2.6307   0.00    0.0
2019/02/11 09:20:30.000   4280292.1827  -4034428.9542  -2458140.0096   5  15   3.6331   4.5908   2.9519  -3.4894   3.1902  -2.6213   0.00    0.0
2019/02/11 09:20:45.000   4280291.2477  -4034427.5156  -2458138.7180   5  15   3.6259   4.5766   2.9464  -3.4763   3.1794  -2.6119   0.00    0.0
2019/02/11 09:21:00.000   4280291.6481  -4034427.7657  -2458138.9542   5  15   3.6187   4.5625   2.9409  -3.4632   3.1686  -2.6024   0.00    0.0
2019/02/11 09:21:15.000   4280291.5803  -4034427.8760  -2458139.4583   5  15   3.6115   4.5484   2.9354  -3.4502   3.1578  -2.5930   0.00    0.0
2019/02/11 09:21:30.000   4280292.4309  -4034428.4862  -2458139.5491   5  15   3.6044   4.5344   2.9299  -3.4371   3.1470  -2.5835   0.00    0.0
2019/02/11 09:21:45.000   4280292.2930  -4034428.4546  -2458139.6624   5  15   3.5973   4.5204   2.9244  -3.4241   3.1362  -2.5741   0.00    0.0
2019/02/11 09:22:00.000   4280292.2116  -4034428.8812  -2458139.4101   5  15   3.5903   4.5064   2.9189  -3.4111   3.1254  -2.5647   0.00    0.0
2019/02/11 09:22:15.000   4280291.5855  -4034428.6012  -2458139.3456   5  15   3.5833   4.4925   2.9135  -3.3981   3.1147  -2.5552   0.00    0.0
2019/02/11 09:22:30.000   4280292.1725  -4034428.2896  -2458139.0940   5  15   3.5763   4.4786   2.9080  -3.3852   3.1040  -2.5458   0.00    0.0
2019/02/11 09:22:45.000   4280292.5258  -4034428.4033  -2458139.7682   5  15   3.5694   4.4648   2.9026  -3.3722   3.0932  -2.5364   0.00    0.0
2019/02/11 09:23:00.000   4280292.7424  -4034428.6838  -2458140.0583   5  15   3.5625   4.4510   2.8972  -3.3594   3.0825  -2.5270   0.00    0.0
2019/02/11 09:23:15.000   4280292.4542  -4034428.7106  -2458139.8478   5  15   3.5557   4.4373   2.8918  -3.3465   3.0718  -2.5176   0.00    0.0
2019/02/11 09:23:30.000   4280292.7136  -4034428.4490  -2458139.6628   5  15   3.5489   4.4237   2.8864  -3.3337   3.0612  -2.5082   0.00    0.0
2019/02/11 09:23:45.000   4280292.5324  -4034428.9255  -2458139.8582   5  15   3.5421   4.4101   2.8810  -3.3209   3.0505  -2.4988   0.00    0.0
2019/02/11 09:24:00.000   4280292.4223  -4034429.0759  -2458139.8029   5  15   3.5355   4.3965   2.8757  -3.3081   3.0399  -2.4894   0.00    0.0
2019/02/11 09:24:15.000   4280292.1288  -4034428.5329  -2458139.1389   5  15   3.5288   4.3831   2.8704  -3.2954   3.0293  -2.4801   0.00    0.0
2019/02/11 09:24:30.000   4280292.5014  -4034429.1197  -2458139.7481   5  15   3.5222   4.3696   2.8651  -3.2827   3.0187  -2.4707   0.00    0.0
2019/02/11 09:24:45.000   4280291.9882  -4034429.2378  -2458140.0029   5  15   3.5157   4.3563   2.8598  -3.2701   3.0082  -2.4614   0.00    0.0
2019/02/11 09:25:00.000   4280292.3514  -4034429.5881  -2458140.1858   5  15   3.5092   4.3430   2.8545  -3.2575   2.9977  -2.4521   0.00    0.0
2019/02/11 09:25:15.000   4280293.3098  -4034430.0932  -2458140.8307   5  15   3.5028   4.3297   2.8493  -3.2449   2.9872  -2.4428   0.00    0.0
2019/02/11 09:25:30.000   4280292.7035  -4034429.6435  -2458140.5567   5  15   3.4964   4.3166   2.8441  -3.2324   2.9767  -2.4335   0.00    0.0
2019/02/11 09:25:45.000   4280292.5787  -4034429.3258  -2458140.3586   5  15   3.4901   4.3034   2.8389  -3.2199   2.9663  -2.4243   0.00    0.0
2019/02/11 09:26:00.000   4280292.3444  -4034429.5587  -2458140.0959   5  15   3.4838   4.2904   2.8338  -3.2075   2.9559  -2.4150   0.00    0.0
2019/02/11 09:26:15.000   4280292.5918  -4034430.5409  -2458140.4828   5  15   3.4776   4.2774   2.8286  -3.1951   2.9455  -2.4058   0.00    0.0
2019/02/11 09:26:30.000   4280292.7561  -4034430.0075  -2458140.2247   5  15   3.4714   4.2645   2.8235  -3.1828   2.9352  -2.3966   0.00    0.0
2019/02/11 09:26:45.000   4280292.3158  -4034429.1754  -2458139.8368   5  15   3.4653   4.2517   2.8185  -3.1705   2.9249  -2.3875   0.00    0.0
2019/02/11 09:27:00.000   4280293.0417  -4034429.6663  -2458140.0586   5  15   3.4593   4.2389   2.8134  -3.1582   2.9146  -2.3783   0.00    0.0
2019/02/11 09:27:15.000   4280292.4078  -4034429.3868  -2458139.9778   5  15   3.4533   4.2262   2.8084  -3.1461   2.9043  -2.3692   0.00    0.0
2019/02/11 09:27:30.000   4280292.2504  -4034428.7843  -2458139.7630   5  15   3.4474   4.2136   2.8034  -3.1339   2.8941  -2.3601   0.00    0.0
2019/02/11 09:27:45.000   4280292.9833  -4034429.6545  -2458140.2701   5  15   3.4415   4.2010   2.7985  -3.1218   2.8840  -2.3510   0.00    0.0
2019/02/11 09:28:00.000   4280293.1230  -4034430.1755  -2458140.2139   5  15   3.4357   4.1885   2.7935  -3.1098   2.8738  -2.3420   0.00    0.0
2019/02/11 09:28:15.000   4280292.8005  -4034429.3821  -2458140.1267   5  15   3.4299   4.1761   2.7886  -3.0978   2.8638  -2.3330   0.00    0.0
2019/02/11 09:28:30.000   4280293.1725  -4034429.6238  -2458140.4126   5  15   3.4243   4.1638   2.7838  -3.0858   2.8537  -2.3240   0.00    0.0
2019/02/11 09:28:45.000   4280292.3870  -4034428.7487  -2458139.6035   5  15   3.4186   4.1515   2.7789  -3.0740   2.8437  -2.3150   0.00    0.0
2019/02/11 09:29:00.000   4280291.5270  -4034428.9142  -2458139.8201   5  15   3.4131   4.1393   2.7741  -3.0621   2.8337  -2.3061   0.00    0.0
2019/02/11 09:29:15.000   4280291.4536  -4034429.2218  -2458140.3879   5  15   3.4076   4.1272   2.7693  -3.0503   2.8238  -2.2972   0.00    0.0
2019/02/11 09:29:30.000   4280292.1133  -4034429.3061  -2458139.8861   5  15   3.4021   4.1152   2.7646  -3.0386   2.8139  -2.2883   0.00    0.0
2019/02/11 09:29:45.000   4280292.8178  -4034429.9313  -2458140.2378   5  15   3.3967   4.1032   2.7599  -3.0269   2.8040  -2.2794   0.00    0.0
2019/02/11 09:30:00.000   4280292.6267  -4034429.6653  -2458139.8626   5  15   3.3914   4.0913   2.7552  -3.0153   2.7942  -2.2706   0.00    0.0
2019/02/11 09:30:15.000   4280293.3205  -4034430.1932  -2458139.9376   5  15   3.3862   4.0795   2.7506  -3.0038   2.7844  -2.2618   0.00    0.0
2019/02/11 09:30:30.000   4280293.0228  -4034429.5569  -2458139.9770   5  15   3.3810   4.0678   2.7460  -2.9923   2.7747  -2.2531   0.00    0.0
2019/02/11 09:30:45.000   4280292.4121  -4034429.3279  -2458139.8197   5  15   3.3758   4.0561   2.7414  -2.9808   2.7650  -2.2443   0.00    0.0
2019/02/11 09:31:00.000   4280292.1419  -4034429.7685  -2458139.9838   5  15   3.3708   4.0445   2.7369  -2.9694   2.7554  -2.2356   0.00    0.0
2019/02/11 09:31:15.000   4280292.2599  -4034429.2562  -2458139.9294   5  15   3.3658   4.0330   2.7323  -2.9581   2.7458  -2.2270   0.00    0.0
2019/02/11 09:31:30.000   4280292.7608  -4034429.2826  -2458139.7907   5  15   3.3608   4.0216   2.7279  -2.9468   2.7362  -2.2183   0.00    0.0
2019/02/11 09:31:45.000   4280292.8869  -4034429.3369  -2458139.9630   5  15   3.3560   4.0102   2.7234  -2.9356   2.7267  -2.2097   0.00    0.0
2019/02/11 09:32:00.000   4280293.5035  -4034430.1278  -2458140.5267   5  15   3.3511   3.9989   2.7190  -2.9244   2.7172  -2.2012   0.00    0.0
2019/02/11 09:32:15.000   4280293.6407  -4034430.5373  -2458140.8924   5  15   3.3464   3.9877   2.7147  -2.9133   2.7078  -2.1926   0.00    0.0
2019/02/11 09:32:30.000   4280292.9067  -4034430.3953  -2458140.4953   5  15   3.3417   3.9766   2.7103  -2.9023   2.6984  -2.1841   0.00    0.0
2019/02/11 09:32:45.000   4280292.6196  -4034429.6996  -2458139.8765   5  15   3.3371   3.9656   2.7060  -2.8913   2.6890  -2.1756   0.00    0.0
2019/02/11 09:33:00.000   4280292.6230  -4034429.5580  -2458139.4769   5  15   3.3325   3.9546   2.7018  -2.8803   2.6798  -2.1672   0.00    0.0
2019/02/11 09:33:15.000   4280292.6722  -4034429.5152  -2458140.0805   5  15   3.3281   3.9437   2.6975  -2.8695   2.6705  -2.1588   0.00    0.0
2019/02/11 09:33:30.000   4280293.0366  -4034429.7516  -2458139.9927   5  15   3.3236   3.9329   2.6934  -2.8586   2.6613  -2.1504   0.00    0.0
2019/02/11 09:33:45.000   4280292.7556  -4034429.8509  -2458139.7985   5  15   3.3193   3.9222   2.6892  -2.8479   2.6521  -2.1421   0.00    0.0
2019/02/11 09:34:00.000   4280292.9246  -4034429.8672  -2458140.1741   5  15   3.3150   3.9115   2.6851  -2.8372   2.6430  -2.1338   0.00    0.0
2019/02/11 09:34:15.000   4280293.3168  -4034430.2179  -2458140.3417   5  14   3.6207   4.9473   2.7808  -3.5283   3.0306  -2.3665   0.00    0.0
2019/02/11 09:34:30.000   4280293.6591  -4034429.8680  -2458140.3822   5  14   3.6131   4.9290   2.7752  -3.5124   3.0176  -2.3556   0.00    0.0
2019/02/11 09:34:45.000   4280293.8991  -4034430.7625  -2458140.7388   5  14   3.6056   4.9109   2.7697  -3.4967   3.0046  -2.3448   0.00    0.0
2019/02/11 09:35:00.000   4280292.8356  -4034430.0779  -2458140.1397   5  14   3.5982   4.8929   2.7642  -3.4810   2.9917  -2.3341   0.00    0.0
2019/02/11 09:35:15.000   4280292.0850  -4034429.8509  -2458140.1127   5  14   3.5909   4.8751   2.7588  -3.4655   2.9789  -2.3235   0.00    0.0
2019/02/11 09:35:30.000   4280292.2649  -4034430.0504  -2458140.2038   5  14   3.5837   4.8574   2.7534  -3.4500   2.9662  -2.3129   0.00    0.0
2019/02/11 09:35:45.000   4280292.8627  -4034430.4993  -2458140.3868   5  14   3.5767   4.8399   2.7481  -3.4347   2.9536  -2.3024   0.00    0.0
2019/02/11 09:36:00.000   4280292.9378  -4034430.8948  -2458140.5620   5  14   3.5697   4.8225   2.7428  -3.4195   2.9411  -2.2919   0.00    0.0
2019/02/11 09:36:15.000   4280293.3855  -4034431.1669  -2458140.9519   5  14   3.5628   4.8053   2.7376  -3.4043   2.9287  -2.2815   0.00    0.0
2019/02/11 09:36:30.000   4280293.6533  -4034431.3705  -2458140.9043   5  14   3.5560   4.7882   2.7325  -3.3893   2.9163  -2.2712   0.00    0.0
2019/02/11 09:36:45.000   4280293.5297  -4034431.4556  -2458140.6710   5  14   3.5494   4.7712   2.7274  -3.3744   2.9040  -2.2609   0.00    0.0
2019/02/11 09:37:00.000   4280293.2155  -4034430.9739  -2458140.0482   5  14   3.5428   4.7544   2.7223  -3.3597   2.8918  -2.2507   0.00    0.0
2019/02/11 09:37:15.000   4280292.8699  -4034430.2152  -2458140.2594   5  14   3.5363   4.7378   2.7174  -3.3450   2.8797  -2.2405   0.00    0.0
2019/02/11 09:37:30.000   4280292.6701  -4034429.9422  -2458140.0427   5  14   3.5300   4.7212   2.7124  -3.3304   2.8677  -2.2305   0.00    0.0
2019/02/11 09:37:45.000   4280292.9117  -4034430.4360  -2458140.8056   5  14   3.5237   4.7049   2.7076  -3.3159   2.8558  -2.2204   0.00    0.0
2019/02/11 09:38:00.000   4280293.7365  -4034430.9650  -2458141.1126   5  14   3.5175   4.6886   2.7027  -3.3016   2.8440  -2.2105   0.00    0.0
2019/02/11 09:38:15.000   4280293.8122  -4034430.7773  -2458140.8394   5  14   3.5114   4.6725   2.6980  -3.2873   2.8322  -2.2006   0.00    0.0
2019/02/11 09:38:30.000   4280293.5151  -4034430.6224  -2458140.3305   5  14   3.5054   4.6566   2.6933  -3.2731   2.8205  -2.1907   0.00    0.0
2019/02/11 09:38:45.000   4280293.4400  -4034430.5820  -2458140.4869   5  14   3.4996   4.6407   2.6886  -3.2591   2.8089  -2.1810   0.00    0.0
2019/02/11 09:39:00.000   4280293.0023  -4034431.1245  -2458139.9850   5  14   3.4938   4.6251   2.6840  -3.2452   2.7974  -2.1713   0.00    0.0
2019/02/11 09:39:15.000   4280292.2337  -4034430.1035  -2458139.7030   5  14   3.4881   4.6095   2.6795  -3.2313   2.7860  -2.1616   0.00    0.0
2019/02/11 09:39:30.000   4280292.5772  -4034430.4265  -2458140.0261   5  14   3.4825   4.5941   2.6750  -3.2176   2.7746  -2.1520   0.00    0.0
2019/02/11 09:39:45.000   4280292.4302  -4034430.0934  -2458139.9009   5  14   3.4770   4.5788   2.6706  -3.2039   2.7634  -2.1425   0.00    0.0
2019/02/11 09:40:00.000   4280291.9850  -4034429.4788  -2458139.5756   5  14   3.4716   4.5637   2.6662  -3.1904   2.7522  -2.1330   0.00    0.0
2019/02/11 09:40:15.000   4280292.2414  -4034429.8208  -2458139.5063   5  14   3.4663   4.5487   2.6618  -3.1770   2.7411  -2.1236   0.00    0.0
2019/02/11 09:40:30.000   4280292.0785  -4034429.9962  -2458139.7781   5  14   3.4610   4.5338   2.6576  -3.1636   2.7300  -2.1143   0.00    0.0
2019/02/11 09:40:45.000   4280292.3852  -4034429.8370  -2458140.3978   5  14   3.4559   4.5191   2.6533  -3.1504   2.7191  -2.1050   0.00    0.0
2019/02/11 09:41:00.000   4280292.0768  -4034429.4864  -2458139.8264   5  14   3.4509   4.5045   2.6491  -3.1373   2.7082  -2.0957   0.00    0.0
2019/02/11 09:41:15.000   4280292.5089  -4034429.6819  -2458140.0984   5  14   3.4459   4.4900   2.6450  -3.1242   2.6974  -2.0866   0.00    0.0
2019/02/11 09:41:30.000   4280291.6476  -4034429.3303  -2458139.6677   5  13   3.8474   5.2826   2.7358  -3.8091   3.0368  -2.3547   0.00    0.0
2019/02/11 09:41:45.000   4280292.5934  -4034431.1551  -2458140.7069   5  14   3.7558   5.2011   2.3891  -3.7070   2.8417  -2.1059   0.00    0.0
2019/02/11 09:42:00.000   4280293.6433  -4034431.2650  -2458140.6155   5  14   3.7499   5.1835   2.3857  -3.6928   2.8312  -2.0968   0.00    0.0
2019/02/11 09:42:15.000   4280292.9322  -4034430.7785  -2458140.3628   5  14   3.7441   5.1661   2.3824  -3.6786   2.8207  -2.0878   0.00    0.0
2019/02/11 09:42:30.000   4280293.0207  -4034430.3721  -2458140.3731   5  14   3.7384   5.1488   2.3791  -3.6645   2.8103  -2.0787   0.00    0.0
2019/02/11 09:42:45.000   4280293.4925  -4034430.0485  -2458140.4215   5  14   3.7327   5.1316   2.3758  -3.6505   2.7999  -2.0697   0.00    0.0
2019/02/11 09:43:00.000   4280292.2242  -4034429.6921  -2458140.3405   5  14   3.7272   5.1145   2.3726  -3.6366   2.7896  -2.0608   0.00    0.0
2019/02/11 09:43:15.000   4280293.3393  -4034430.4616  -2458140.7810   5  14   3.7217   5.0975   2.3694  -3.6228   2.7794  -2.0518   0.00    0.0
2019/02/11 09:43:30.000   4280293.4276  -4034430.0638  -2458140.6412   5  14   3.7163   5.0807   2.3663  -3.6091   2.7692  -2.0430   0.00    0.0
2019/02/11 09:43:45.000   4280292.4069  -4034429.2840  -2458140.1631   5  14   3.7110   5.0640   2.3632  -3.5954   2.7591  -2.0341   0.00    0.0
2019/02/11 09:44:00.000   4280292.1641  -4034429.5853  -2458140.2446   5  14   3.7057   5.0474   2.3601  -3.5819   2.7491  -2.0253   0.00    0.0
2019/02/11 09:44:15.000   4280292.3581  -4034429.7587  -2458139.9385   5  14   3.7006   5.0309   2.3571  -3.5684   2.7391  -2.0165   0.00    0.0
2019/02/11 09:44:30.000   4280293.0527  -4034430.5303  -2458140.2994   5  14   3.6955   5.0146   2.3541  -3.5550   2.7292  -2.0078   0.00    0.0
2019/02/11 09:44:45.000   4280293.9409  -4034430.6793  -2458140.3743   5  14   3.6905   4.9983   2.3511  -3.5417   2.7194  -1.9991   0.00    0.0
2019/02/11 09:45:00.000   4280293.1986  -4034430.3543  -2458140.2703   5  14   3.6856   4.9822   2.3482  -3.5285   2.7096  -1.9905   0.00    0.0
2019/02/11 09:45:15.000   4280293.8005  -4034431.1877  -2458140.8923   5  14   3.6807   4.9662   2.3453  -3.5154   2.6999  -1.9819   0.00    0.0
2019/02/11 09:45:30.000   4280292.7246  -4034429.9445  -2458140.5963   5  14   3.6760   4.9503   2.3425  -3.5023   2.6902  -1.9733   0.00    0.0
2019/02/11 09:45:45.000   4280292.2373  -4034430.3761  -2458140.3289   5  14   3.6713   4.9345   2.3397  -3.4894   2.6806  -1.9648   0.00    0.0
2019/02/11 09:46:00.000   4280291.7884  -4034429.8215  -2458139.7348   5  14   3.6667   4.9189   2.3369  -3.4765   2.6711  -1.9563   0.00    0.0
2019/02/11 09:46:15.000   4280292.2897  -4034429.5480  -2458139.8395   5  14   3.6622   4.9033   2.3342  -3.4637   2.6616  -1.9478   0.00    0.0
2019/02/11 09:46:30.000   4280292.8746  -4034430.4086  -2458140.7424   5  14   3.6578   4.8879   2.3315  -3.4510   2.6522  -1.9394   0.00    0.0
2019/02/11 09:46:45.000   4280292.5630  -4034429.9551  -2458140.7012   5  14   3.6534   4.8726   2.3288  -3.4384   2.6429  -1.9310   0.00    0.0
2019/02/11 09:47:00.000   4280292.8162  -4034429.7147  -2458140.4449   5  14   3.6491   4.8574   2.3262  -3.4259   2.6336  -1.9227   0.00    0.0
2019/02/11 09:47:15.000   4280292.6894  -4034429.2691  -2458140.5344   5  14   3.6449   4.8424   2.3236  -3.4134   2.6244  -1.9144   0.00    0.0
2019/02/11 09:47:30.000   4280291.9457  -4034429.4085  -2458140.3848   5  14   3.6408   4.8274   2.3210  -3.4011   2.6153  -1.9061   0.00    0.0
2019/02/11 09:47:45.000   4280292.0416  -4034429.2663  -2458140.1169   5  14   3.6368   4.8125   2.3185  -3.3888   2.6062  -1.8979   0.00    0.0
2019/02/11 09:48:00.000   4280292.3244  -4034429.9212  -2458140.3561   5  14   3.6328   4.7978   2.3160  -3.3766   2.5972  -1.8897   0.00    0.0
2019/02/11 09:48:15.000   4280292.9741  -4034430.0448  -2458140.3174   5  14   3.6289   4.7832   2.3136  -3.3645   2.5882  -1.8816   0.00    0.0
2019/02/11 09:48:30.000   4280292.9238  -4034430.2112  -2458140.2248   5  14   3.6251   4.7687   2.3112  -3.3525   2.5793  -1.8735   0.00    0.0
2019/02/11 09:48:45.000   4280292.8670  -4034430.5032  -2458139.8895   5  14   3.6214   4.7543   2.3088  -3.3405   2.5705  -1.8654   0.00    0.0
2019/02/11 09:49:00.000   4280293.3231  -4034430.5880  -2458140.3608   5  14   3.6177   4.7400   2.3064  -3.3287   2.5617  -1.8573   0.00    0.0
2019/02/11 09:49:15.000   4280293.4346  -4034431.3126  -2458140.5358   5  14   3.6142   4.7258   2.3041  -3.3169   2.5530  -1.8493   0.00    0.0
2019/02/11 09:49:30.000   4280293.8053  -4034430.9625  -2458140.9097   5  14   3.6106   4.7118   2.3019  -3.3052   2.5443  -1.8414   0.00    0.0
2019/02/11 09:49:45.000   4280293.1893  -4034430.1180  -2458140.8745   5  14   3.6072   4.6978   2.2996  -3.2935   2.5357  -1.8335   0.00    0.0
2019/02/11 09:50:00.000   4280293.4973  -4034430.6660  -2458140.6850   5  14   3.6039   4.6840   2.2974  -3.2820   2.5272  -1.8256   0.00    0.0
2019/02/11 09:50:15.000   4280292.9536  -4034430.9933  -2458140.0667   5  14   3.6006   4.6702   2.2952  -3.2705   2.5187  -1.8177   0.00    0.0
2019/02/11 09:50:30.000   4280292.3434  -4034430.6878  -2458140.0848   5  14   3.5974   4.6566   2.2931  -3.2592   2.5103  -1.8099   0.00    0.0
2019/02/11 09:50:45.000   4280293.2942  -4034430.8357  -2458140.1693   5  14   3.5942   4.6431   2.2910  -3.2479   2.5020  -1.8021   0.00    0.0
2019/02/11 09:51:00.000   4280293.4432  -4034430.9561  -2458140.3989   5  14   3.5912   4.6296   2.2889  -3.2366   2.4937  -1.7944   0.00    0.0
2019/02/11 09:51:15.000   4280292.2478  -4034430.6228  -2458139.7804   5  14   3.5882   4.6163   2.2868  -3.2255   2.4855  -1.7867   0.00    0.0
2019/02/11 09:51:30.000   4280292.0161  -4034431.0501  -2458139.9122   5  14   3.5853   4.6031   2.2848  -3.2144   2.4773  -1.7790   0.00    0.0
2019/02/11 09:51:45.000   4280291.9605  -4034430.6933  -2458140.3503   5  14   3.5825   4.5900   2.2828  -3.2034   2.4692  -1.7714   0.00    0.0
2019/02/11 09:52:00.000   4280292.9414  -4034430.4347  -2458140.8600   5  13   3.7644   4.9370   2.8799  -3.5139   3.0514  -2.2713   0.00    0.0
2019/02/11 09:52:15.000   4280293.1248  -4034430.9445  -2458140.9051   5  13   3.7611   4.9240   2.8786  -3.5030   3.0442  -2.2646   0.00    0.0
2019/02/11 09:52:30.000   4280292.8154  -4034429.6520  -2458140.0859   5  13   3.7579   4.9111   2.8772  -3.4921   3.0371  -2.2579   0.00    0.0
2019/02/11 09:52:45.000   4280293.2501  -4034430.3205  -2458140.4110   5  13   3.7547   4.8983   2.8759  -3.4813   3.0300  -2.2512   0.00    0.0
2019/02/11 09:53:00.000   4280293.7988  -4034431.3628  -2458141.2625   5  13   3.7516   4.8856   2.8746  -3.4706   3.0230  -2.2446   0.00    0.0
2019/02/11 09:53:15.000   4280293.1591  -4034431.3278  -2458140.5618   5  13   3.7486   4.8729   2.8733  -3.4599   3.0160  -2.2380   0.00    0.0
2019/02/11 09:53:30.000   4280293.5176  -4034431.7106  -2458140.8774   5  13   3.7456   4.8604   2.8721  -3.4493   3.0090  -2.2314   0.00    0.0
2019/02/11 09:53:45.000   4280293.6914  -4034431.2508  -2458141.3165   5  13   3.7427   4.8479   2.8708  -3.4388   3.0021  -2.2248   0.00    0.0
2019/02/11 09:54:00.000   4280293.1521  -4034431.4625  -2458140.8320   5  13   3.7399   4.8355   2.8695  -3.4283   2.9952  -2.2182   0.00    0.0
2019/02/11 09:54:15.000   4280293.2754  -4034430.8095  -2458141.1198   5  13   3.7371   4.8232   2.8683  -3.4178   2.9883  -2.2117   0.00    0.0
2019/02/11 09:54:30.000   4280293.3035  -4034430.8985  -2458141.0405   5  13   3.7343   4.8110   2.8671  -3.4075   2.9815  -2.2052   0.00    0.0
2019/02/11 09:54:45.000   4280293.0662  -4034430.2728  -2458140.9012   5  13   3.7317   4.7988   2.8659  -3.3972   2.9747  -2.1987   0.00    0.0
2019/02/11 09:55:00.000   4280292.3054  -4034430.1961  -2458140.2510   5  13   3.7291   4.7867   2.8646  -3.3869   2.9679  -2.1922   0.00    0.0
2019/02/11 09:55:15.000   4280293.2761  -4034430.9369  -2458141.3216   5  13   3.7266   4.7748   2.8635  -3.3767   2.9612  -2.1857   0.00    0.0
2019/02/11 09:55:30.000   4280292.2886  -4034429.7922  -2458139.7485   5  13   3.7241   4.7629   2.8623  -3.3666   2.9545  -2.1793   0.00    0.0
2019/02/11 09:55:45.000   4280292.5993  -4034429.3480  -2458140.0072   5  13   3.7217   4.7511   2.8611  -3.3565   2.9479  -2.1729   0.00    0.0
2019/02/11 09:56:00.000   4280294.6556  -4034431.6231  -2458141.6448   5  13   3.7193   4.7393   2.8600  -3.3465   2.9412  -2.1665   0.00    0.0
2019/02/11 09:56:15.000   4280293.7787  -4034430.8797  -2458141.1636   5  13   3.7170   4.7277   2.8588  -3.3366   2.9347  -2.1601   0.00    0.0
2019/02/11 09:56:30.000   4280293.7724  -4034431.3112  -2458141.1251   5  13   3.7148   4.7161   2.8577  -3.3267   2.9281  -2.1538   0.00    0.0
2019/02/11 09:56:45.000   4280293.0025  -4034430.5401  -2458140.5610   5  13   3.7126   4.7046   2.8566  -3.3168   2.9216  -2.1475   0.00    0.0
2019/02/11 09:57:00.000   4280293.2198  -4034430.6224  -2458140.5380   5  13   3.7105   4.6932   2.8554  -3.3071   2.9152  -2.1412   0.00    0.0
2019/02/11 09:57:15.000   4280292.7831  -4034430.5606  -2458141.0151   5  13   3.7085   4.6819   2.8543  -3.2973   2.9087  -2.1349   0.00    0.0
2019/02/11 09:57:30.000   4280292.5525  -4034429.9783  -2458140.9092   5  13   3.7065   4.6706   2.8533  -3.2877   2.9023  -2.1286   0.00    0.0
2019/02/11 09:57:45.000   4280291.1446  -4034429.1041  -2458139.8235   5  13   3.7046   4.6595   2.8522  -3.2781   2.8960  -2.1224   0.00    0.0
2019/02/11 09:58:00.000   4280292.4402  -4034430.2312  -2458140.8398   5  13   3.7027   4.6484   2.8511  -3.2686   2.8896  -2.1162   0.00    0.0
2019/02/11 09:58:15.000   4280293.1503  -4034430.5335  -2458141.1541   5  13   3.7009   4.6374   2.8501  -3.2591   2.8833  -2.1100   0.00    0.0
2019/02/11 09:58:30.000   4280293.1824  -4034430.6011  -2458141.2210   5  13   3.6992   4.6264   2.8490  -3.2497   2.8771  -2.1038   0.00    0.0
2019/02/11 09:58:45.000   4280292.6897  -4034429.8009  -2458141.0915   5  13   3.6975   4.6156   2.8480  -3.2403   2.8709  -2.0977   0.00    0.0
2019/02/11 09:59:00.000   4280291.4504  -4034428.7443  -2458139.7459   5  13   3.6958   4.6048   2.8470  -3.2310   2.8647  -2.0915   0.00    0.0
2019/02/11 09:59:15.000   4280291.6929  -4034429.3432  -2458140.1326   5  13   3.6943   4.5941   2.8460  -3.2217   2.8585  -2.0854   0.00    0.0
2019/02/11 09:59:30.000   4280292.8017  -4034430.7979  -2458140.8480   5  13   3.6928   4.5835   2.8450  -3.2125   2.8524  -2.0793   0.00    0.0
2019/02/11 09:59:45.000   4280292.4403  -4034430.0535  -2458139.9274   5  13   3.6913   4.5730   2.8440  -3.2034   2.8463  -2.0733   0.00    0.0
2019/02/11 10:00:00.000   4280293.5911  -4034431.2364  -2458141.1071   5  13   3.6899   4.5625   2.8430  -3.1943   2.8403  -2.0672   0.00    0.0
2019/02/11 10:00:15.000   4280293.4891  -4034431.3308  -2458141.3382   5  13   3.6886   4.5521   2.8420  -3.1853   2.8343  -2.0612   0.00    0.0
2019/02/11 10:00:30.000   4280293.9783  -4034431.3436  -2458141.1668   5  13   3.6873   4.5418   2.8411  -3.1763   2.8283  -2.0552   0.00    0.0
2019/02/11 10:00:45.000   4280293.2212  -4034430.6121  -2458140.4377   5  13   3.6861   4.5315   2.8401  -3.1674   2.8224  -2.0493   0.00    0.0
2019/02/11 10:01:00.000   4280292.2354  -4034430.5433  -2458140.0241   5  13   3.6850   4.5214   2.8392  -3.1586   2.8165  -2.0433   0.00    0.0
2019/02/11 10:01:15.000   4280292.0989  -4034429.5476  -2458139.8287   5  13   3.6839   4.5113   2.8383  -3.1498   2.8106  -2.0374   0.00    0.0
2019/02/11 10:01:30.000   4280291.7040  -4034430.0519  -2458140.3572   5  13   3.6828   4.5013   2.8374  -3.1410   2.8048  -2.0315   0.00    0.0
2019/02/11 10:01:45.000   4280292.1610  -4034429.5688  -2458140.8365   5  13   3.6818   4.4913   2.8365  -3.1323   2.7990  -2.0256   0.00    0.0
2019/02/11 10:02:00.000   4280292.3917  -4034429.6635  -2458141.0343   5  13   3.6809   4.4815   2.8356  -3.1237   2.7932  -2.0197   0.00    0.0
2019/02/11 10:02:15.000   4280292.3943  -4034429.4965  -2458140.7929   5  13   3.6800   4.4717   2.8347  -3.1151   2.7875  -2.0139   0.00    0.0
2019/02/11 10:02:30.000   4280292.0502  -4034430.2086  -2458140.9834   5  13   3.6792   4.4620   2.8338  -3.1066   2.7818  -2.0081   0.00    0.0
2019/02/11 10:02:45.000   4280292.5714  -4034429.9419  -2458140.9921   5  13   3.6785   4.4523   2.8329  -3.0981   2.7761  -2.0023   0.00    0.0
2019/02/11 10:03:00.000   4280292.4335  -4034430.3957  -2458140.8767   5  13   3.6778   4.4427   2.8321  -3.0897   2.7705  -1.9965   0.00    0.0
2019/02/11 10:03:15.000   4280293.0815  -4034430.6519  -2458140.1928   5  13   3.6771   4.4332   2.8312  -3.0814   2.7649  -1.9908   0.00    0.0
2019/02/11 10:03:30.000   4280292.2719  -4034429.8572  -2458140.3957   5  13   3.6765   4.4238   2.8304  -3.0730   2.7593  -1.9850   0.00    0.0
2019/02/11 10:03:45.000   4280292.2261  -4034430.3688  -2458140.2608   5  13   3.6760   4.4144   2.8296  -3.0648   2.7538  -1.9793   0.00    0.0
2019/02/11 10:04:00.000   4280292.6931  -4034430.5755  -2458141.1118   5  13   3.6755   4.4052   2.8287  -3.0566   2.7483  -1.9736   0.00    0.0
2019/02/11 10:04:15.000   4280292.6421  -4034430.1579  -2458140.4780   5  13   3.6751   4.3959   2.8279  -3.0484   2.7429  -1.9680   0.00    0.0
2019/02/11 10:04:30.000   4280292.7031  -4034430.3206  -2458140.5909   5  13   3.6747   4.3868   2.8271  -3.0403   2.7374  -1.9623   0.00    0.0
2019/02/11 10:04:45.000   4280293.7491  -4034431.3835  -2458140.8453   5  13   3.6744   4.3777   2.8263  -3.0323   2.7320  -1.9567   0.00    0.0
2019/02/11 10:05:00.000   4280294.3429  -4034431.8350  -2458141.8412   5  13   3.6742   4.3687   2.8255  -3.0243   2.7267  -1.9511   0.00    0.0
2019/02/11 10:05:15.000   4280293.6365  -4034431.6464  -2458141.3376   5  13   3.6740   4.3598   2.8248  -3.0164   2.7213  -1.9456   0.00    0.0
2019/02/11 10:05:30.000   4280292.8377  -4034431.4118  -2458141.3094   5  13   3.6738   4.3509   2.8240  -3.0085   2.7160  -1.9400   0.00    0.0
2019/02/11 10:05:45.000   4280292.6015  -4034430.7704  -2458140.7660   5  13   3.6737   4.3421   2.8232  -3.0006   2.7108  -1.9345   0.00    0.0
2019/02/11 10:06:00.000   4280292.7328  -4034430.8734  -2458141.0095   5  13   3.6737   4.3333   2.8225  -2.9928   2.7056  -1.9290   0.00    0.0
2019/02/11 10:06:15.000   4280292.6850  -4034430.5710  -2458140.3682   5  13   3.6737   4.3247   2.8217  -2.9851   2.7004  -1.9235   0.00    0.0
2019/02/11 10:06:30.000   4280292.6966  -4034430.3169  -2458140.7992   5  13   3.6737   4.3161   2.8210  -2.9774   2.6952  -1.9181   0.00    0.0
2019/02/11 10:06:45.000   4280292.7676  -4034429.6879  -2458140.7058   5  13   3.6739   4.3075   2.8203  -2.9698   2.6901  -1.9126   0.00    0.0
2019/02/11 10:07:00.000   4280292.7968  -4034429.9505  -2458140.4079   5  14   3.2696   4.2757   2.6882  -2.8329   2.6132  -1.4874   0.00    0.0
2019/02/11 10:07:15.000   4280292.6152  -4034430.3190  -2458140.5135   5  14   3.2698   4.2681   2.6889  -2.8274   2.6097  -1.4830   0.00    0.0
2019/02/11 10:07:30.000   4280292.4069  -4034429.8278  -2458139.9839   5  14   3.2700   4.2606   2.6896  -2.8220   2.6062  -1.4786   0.00    0.0
2019/02/11 10:07:45.000   4280293.3580  -4034430.2845  -2458140.9983   5  14   3.2702   4.2530   2.6902  -2.8165   2.6027  -1.4742   0.00    0.0
2019/02/11 10:08:00.000   4280292.8070  -4034429.3630  -2458140.4000   5  14   3.2704   4.2456   2.6909  -2.8111   2.5992  -1.4698   0.00    0.0
2019/02/11 10:08:15.000   4280292.4800  -4034430.2128  -2458140.7511   5  14   3.2706   4.2381   2.6916  -2.8058   2.5958  -1.4655   0.00    0.0
2019/02/11 10:08:30.000   4280293.2197  -4034430.0715  -2458140.7792   5  14   3.2709   4.2308   2.6922  -2.8005   2.5923  -1.4611   0.00    0.0
2019/02/11 10:08:45.000   4280292.4395  -4034430.0784  -2458140.7893   5  14   3.2712   4.2234   2.6929  -2.7952   2.5889  -1.4568   0.00    0.0
2019/02/11 10:09:00.000   4280292.8474  -4034429.9326  -2458140.6953   5  14   3.2716   4.2162   2.6935  -2.7900   2.5855  -1.4525   0.00    0.0
2019/02/11 10:09:15.000   4280292.3107  -4034429.0555  -2458139.9946   5  14   3.2720   4.2089   2.6942  -2.7848   2.5820  -1.4482   0.00    0.0
2019/02/11 10:09:30.000   4280292.6595  -4034429.8463  -2458140.6583   5  14   3.2724   4.2017   2.6948  -2.7797   2.5787  -1.4439   0.00    0.0
2019/02/11 10:09:45.000   4280292.2428  -4034429.5900  -2458140.8387   5  14   3.2728   4.1946   2.6954  -2.7746   2.5753  -1.4397   0.00    0.0
2019/02/11 10:10:00.000   4280293.0756  -4034429.1444  -2458140.9271   5  14   3.2732   4.1875   2.6961  -2.7695   2.5719  -1.4354   0.00    0.0
2019/02/11 10:10:15.000   4280292.8772  -4034428.9486  -2458140.4440   5  14   3.2737   4.1804   2.6967  -2.7645   2.5685  -1.4312   0.00    0.0
2019/02/11 10:10:30.000   4280291.5810  -4034429.0074  -2458140.2872   5  14   3.2742   4.1734   2.6973  -2.7595   2.5652  -1.4270   0.00    0.0
2019/02/11 10:10:45.000   4280292.1410  -4034429.3133  -2458140.6624   5  14   3.2748   4.1665   2.6980  -2.7545   2.5619  -1.4228   0.00    0.0
2019/02/11 10:11:00.000   4280293.4496  -4034430.0372  -2458141.2871   5  13   3.4788   4.3175   3.2794  -2.9861   2.9500  -2.0486   0.00    0.0
2019/02/11 10:11:15.000   4280293.6600  -4034430.7199  -2458141.6518   5  13   3.4800   4.3126   3.2841  -2.9832   2.9505  -2.0488   0.00    0.0
2019/02/11 10:11:30.000   4280292.3835  -4034430.0554  -2458140.6153   5  13   3.4813   4.3076   3.2888  -2.9804   2.9511  -2.0490   0.00    0.0
2019/02/11 10:11:45.000   4280291.8776  -4034429.4215  -2458140.2175   5  13   3.4826   4.3027   3.2935  -2.9776   2.9516  -2.0492   0.00    0.0
2019/02/11 10:12:00.000   4280292.4734  -4034429.9440  -2458140.5182   5  13   3.4839   4.2979   3.2981  -2.9748   2.9522  -2.0495   0.00    0.0
2019/02/11 10:12:15.000   4280292.6591  -4034429.6129  -2458140.1565   5  13   3.4853   4.2931   3.3028  -2.9720   2.9527  -2.0497   0.00    0.0
2019/02/11 10:12:30.000   4280294.1596  -4034430.3919  -2458141.2800   5  13   3.4867   4.2883   3.3075  -2.9693   2.9533  -2.0500   0.00    0.0
2019/02/11 10:12:45.000   4280293.3350  -4034429.8876  -2458141.1329   5  14   3.1770   4.1936   3.3120  -2.7464   2.9492  -2.0392   0.00    0.0
2019/02/11 10:13:00.000   4280293.4047  -4034430.3252  -2458141.2189   5  14   3.1796   4.1903   3.3167  -2.7458   2.9505  -2.0412   0.00    0.0
2019/02/11 10:13:15.000   4280292.9378  -4034429.6046  -2458140.7915   5  14   3.1822   4.1871   3.3213  -2.7452   2.9518  -2.0431   0.00    0.0
2019/02/11 10:13:30.000   4280292.4520  -4034429.6285  -2458140.1773   5  14   3.1848   4.1838   3.3260  -2.7447   2.9531  -2.0451   0.00    0.0
2019/02/11 10:13:45.000   4280291.7815  -4034429.6028  -2458139.6915   5  14   3.1875   4.1806   3.3306  -2.7441   2.9544  -2.0471   0.00    0.0
2019/02/11 10:14:00.000   4280292.8997  -4034430.1713  -2458140.8752   5  14   3.1901   4.1775   3.3352  -2.7436   2.9557  -2.0491   0.00    0.0
2019/02/11 10:14:15.000   4280292.5387  -4034430.2185  -2458140.5592   5  14   3.1928   4.1743   3.3397  -2.7431   2.9569  -2.0511   0.00    0.0
2019/02/11 10:14:30.000   4280293.4818  -4034430.8682  -2458141.5033   5  14   3.1955   4.1712   3.3443  -2.7426   2.9582  -2.0531   0.00    0.0
2019/02/11 10:14:45.000   4280293.2076  -4034430.6971  -2458141.1156   5  14   3.1982   4.1681   3.3488  -2.7422   2.9594  -2.0551   0.00    0.0
2019/02/11 10:15:00.000   4280292.6792  -4034429.8492  -2458141.0531   5  14   3.2009   4.1651   3.3533  -2.7418   2.9607  -2.0571   0.00    0.0
2019/02/11 10:15:15.000   4280293.3007  -4034429.7665  -2458141.2090   5  14   3.2037   4.1621   3.3578  -2.7414   2.9619  -2.0592   0.00    0.0
2019/02/11 10:15:30.000   4280292.7042  -4034430.4096  -2458141.4190   5  14   3.2064   4.1590   3.3623  -2.7410   2.9632  -2.0612   0.00    0.0
2019/02/11 10:15:45.000   4280293.2546  -4034431.0175  -2458141.4958   5  14   3.2092   4.1561   3.3667  -2.7406   2.9644  -2.0633   0.00    0.0
2019/02/11 10:16:00.000   4280293.5845  -4034430.5867  -2458141.6232   5  14   3.2120   4.1531   3.3712  -2.7403   2.9656  -2.0653   0.00    0.0
2019/02/11 10:16:15.000   4280292.5290  -4034429.2282  -2458141.1734   5  15   3.1050   4.0912   3.0666  -2.6319   2.7961  -1.7603   0.00    0.0
2019/02/11 10:16:30.000   4280292.9384  -4034430.1738  -2458141.1189   5  15   3.1080   4.0888   3.0714  -2.6321   2.7982  -1.7627   0.00    0.0
2019/02/11 10:16:45.000   4280292.6747  -4034430.0657  -2458140.8925   5  15   3.1109   4.0864   3.0761  -2.6323   2.8003  -1.7651   0.00    0.0
2019/02/11 10:17:00.000   4280292.5579  -4034430.0408  -2458141.3305   5  15   3.1139   4.0841   3.0808  -2.6326   2.8024  -1.7675   0.00    0.0
2019/02/11 10:17:15.000   4280292.4107  -4034430.5547  -2458141.8972   5  15   3.1169   4.0817   3.0855  -2.6329   2.8044  -1.7700   0.00    0.0
2019/02/11 10:17:30.000   4280291.9270  -4034429.3429  -2458140.9713   5  15   3.1199   4.0794   3.0902  -2.6332   2.8065  -1.7724   0.00    0.0
2019/02/11 10:17:45.000   4280292.7847  -4034430.1121  -2458141.2384   5  15   3.1229   4.0772   3.0949  -2.6335   2.8086  -1.7749   0.00    0.0
2019/02/11 10:18:00.000   4280293.5652  -4034430.6059  -2458141.5965   5  15   3.1260   4.0749   3.0996  -2.6339   2.8106  -1.7773   0.00    0.0
2019/02/11 10:18:15.000   4280293.9999  -4034430.8960  -2458142.1152   5  15   3.1290   4.0727   3.1042  -2.6343   2.8127  -1.7798   0.00    0.0
2019/02/11 10:18:30.000   4280293.5908  -4034430.4547  -2458141.8609   5  15   3.1321   4.0705   3.1089  -2.6347   2.8147  -1.7823   0.00    0.0
2019/02/11 10:18:45.000   4280293.6999  -4034430.5964  -2458142.1991   5  15   3.1352   4.0683   3.1135  -2.6352   2.8168  -1.7848   0.00    0.0
2019/02/11 10:19:00.000   4280292.5319  -4034430.4466  -2458142.0178   5  15   3.1383   4.0661   3.1181  -2.6356   2.8188  -1.7874   0.00    0.0
2019/02/11 10:19:15.000   4280292.2699  -4034430.7846  -2458141.2249   5  15   3.1414   4.0640   3.1227  -2.6361   2.8208  -1.7899   0.00    0.0
2019/02/11 10:19:30.000   4280293.3583  -4034431.3627  -2458141.9152   5  15   3.1446   4.0619   3.1273  -2.6366   2.8228  -1.7925   0.00    0.0
2019/02/11 10:19:45.000   4280293.1598  -4034430.5629  -2458141.5908   5  15   3.1478   4.0598   3.1318  -2.6372   2.8248  -1.7950   0.00    0.0
2019/02/11 10:20:00.000   4280293.2578  -4034430.4574  -2458141.9503   5  15   3.1509   4.0577   3.1364  -2.6377   2.8268  -1.7976   0.00    0.0
2019/02/11 10:20:15.000   4280293.0334  -4034430.5128  -2458141.4314   5  15   3.1541   4.0556   3.1409  -2.6383   2.8288  -1.8002   0.00    0.0
2019/02/11 10:20:30.000   4280293.0784  -4034429.3581  -2458141.1126   5  15   3.1574   4.0536   3.1454  -2.6389   2.8308  -1.8028   0.00    0.0
2019/02/11 10:20:45.000   4280292.9469  -4034430.0879  -2458141.5747   5  15   3.1606   4.0516   3.1499  -2.6395   2.8328  -1.8054   0.00    0.0
2019/02/11 10:21:00.000   4280292.4212  -4034428.9664  -2458140.8371   5  15   3.1639   4.0496   3.1544  -2.6402   2.8348  -1.8081   0.00    0.0
2019/02/11 10:21:15.000   4280292.2161  -4034429.1908  -2458140.8495   5  15   3.1671   4.0476   3.1588  -2.6409   2.8367  -1.8107   0.00    0.0
2019/02/11 10:21:30.000   4280292.1167  -4034428.7285  -2458140.9697   5  15   3.1704   4.0456   3.1633  -2.6415   2.8387  -1.8134   0.00    0.0
2019/02/11 10:21:45.000   4280292.5056  -4034430.0227  -2458141.4449   5  15   3.1737   4.0437   3.1677  -2.6423   2.8406  -1.8160   0.00    0.0
2019/02/11 10:22:00.000   4280293.3802  -4034430.2154  -2458141.8830   5  15   3.1771   4.0418   3.1721  -2.6430   2.8425  -1.8187   0.00    0.0
2019/02/11 10:22:15.000   4280293.3596  -4034429.6512  -2458141.6765   5  15   3.1804   4.0399   3.1765  -2.6438   2.8444  -1.8214   0.00    0.0
2019/02/11 10:22:30.000   4280293.3118  -4034429.8443  -2458141.5272   5  15   3.1838   4.0380   3.1808  -2.6446   2.8463  -1.8241   0.00    0.0
2019/02/11 10:22:45.000   4280293.4565  -4034429.8964  -2458141.9242   5  15   3.1872   4.0361   3.1851  -2.6454   2.8482  -1.8268   0.00    0.0
2019/02/11 10:23:00.000   4280292.6680  -4034430.1927  -2458141.6071   5  15   3.1906   4.0343   3.1894  -2.6462   2.8501  -1.8296   0.00    0.0
2019/02/11 10:23:15.000   4280292.5036  -4034430.1547  -2458141.5214   5  15   3.1940   4.0324   3.1937  -2.6471   2.8520  -1.8323   0.00    0.0
2019/02/11 10:23:30.000   4280292.0273  -4034429.7222  -2458141.2406   5  15   3.1974   4.0306   3.1980  -2.6479   2.8538  -1.8351   0.00    0.0
2019/02/11 10:23:45.000   4280292.2784  -4034430.0702  -2458140.4101   5  14   3.3082   4.0723   3.4939  -2.7409   2.9974  -2.1320   0.00    0.0
2019/02/11 10:24:00.000   4280293.5238  -4034430.8692  -2458141.8025   5  15   3.2043   4.0270   3.2065  -2.6498   2.8575  -1.8406   0.00    0.0
2019/02/11 10:24:15.000   4280293.9578  -4034430.4148  -2458142.0868   5  15   3.2078   4.0253   3.2107  -2.6507   2.8593  -1.8434   0.00    0.0
2019/02/11 10:24:30.000   4280293.7152  -4034430.5377  -2458141.7984   5  15   3.2113   4.0235   3.2148  -2.6517   2.8611  -1.8462   0.00    0.0
2019/02/11 10:24:45.000   4280293.5682  -4034429.7575  -2458141.6708   5  15   3.2149   4.0218   3.2190  -2.6526   2.8629  -1.8490   0.00    0.0
2019/02/11 10:25:00.000   4280293.6192  -4034429.6993  -2458141.6648   5  15   3.2184   4.0201   3.2231  -2.6537   2.8647  -1.8518   0.00    0.0
2019/02/11 10:25:15.000   4280292.8180  -4034429.6304  -2458141.5542   5  15   3.2220   4.0184   3.2272  -2.6547   2.8664  -1.8547   0.00    0.0
2019/02/11 10:25:30.000   4280292.8117  -4034429.8796  -2458141.3842   5  15   3.2256   4.0167   3.2313  -2.6557   2.8682  -1.8575   0.00    0.0
2019/02/11 10:25:45.000   4280293.0715  -4034429.9285  -2458141.6240   5  15   3.2292   4.0150   3.2353  -2.6568   2.8699  -1.8604   0.00    0.0
2019/02/11 10:26:00.000   4280293.2709  -4034430.3690  -2458141.8655   5  16   2.8488   3.9721   3.2393  -2.4874   2.8727  -1.8678   0.00    0.0
