     2.11           OBSERVATION DATA    M: Mixed            RINEX VERSION / TYPE
Geo++ RINEX Logger  Geo++               20190115 092504 UTC PGM / RUN BY / DATE
************************************************************COMMENT
This file was generated by the Geo++ RINEX Logger App       COMMENT
for Android devices (Version 2.0.1). If you encounter       COMMENT
any issues, please send an email to android@geopp.de        COMMENT
************************************************************COMMENT
Marco 91500                                                 MARKER NAME
Guilherme L M G CarvUERJ                                    OBSERVER / AGENCY
ce11171bcbf17f3503  samsung             SM-G955F            REC # / TYPE / VERS
ce11171bcbf17f3503  SM-G955F                                ANT # / TYPE
  4280221.1939 -4034417.0116 -2458268.9016                  APPROX POSITION XYZ
        0.0000        0.0000        0.0000                  ANTENNA: DELTA H/E/N
     4    C1    L1    S1    D1                              # / TYPES OF OBSERV
  2019     1    15     9    25   22.0001326     GPS         TIME OF FIRST OBS
                                                            END OF HEADER
 19  1 15  9 55 17.0001326  0 12G13G15G17G19G28G30R02R11R12R21R22R23
  20923375.748                          34.817       -1149.552  
  22203751.263                          37.646         754.411  
  20803761.556                          36.170       -1920.925  
  20455770.565                          34.457        -442.064  
  22859026.825                          24.476       -1887.985  
  23132313.433                          26.777       -2073.015  
  22674006.612                          29.002       -2237.339  
  21776095.823                          28.416        -684.324  
  20625333.479                          32.940        1280.012  
  23317623.245                          20.158       -3696.611  
  19625444.388                          31.740        -497.099  
  20593680.791                          32.503        3748.650  
 19  1 15  9 55 18.0001326  0 12G13G15G17G19G28G30R02R11R12R21R22R23
  20923584.357                          35.359       -1151.476
  22203591.730                          38.408         752.919
  20804139.524                          29.417       -1919.424
  20455844.832                          32.857        -441.968
  22859388.845                          19.025       -1889.585
  23132698.284                          27.895       -2074.037
  22674428.903                          26.744       -2237.448
  21776223.376                          26.118        -684.470
  20625097.150                          27.964        1281.014
  23318321.726                          17.024       -3696.920
  19625536.560                          29.186        -497.898
  20592968.433                          34.906        3748.635
 19  1 15  9 55 19.0001326  0 11G13G15G17G19G30R02R11R12R21R22R23
  20923801.109                          33.137       -1151.084
  22075455.833                          35.826         752.658
  20816466.498                          27.025       -1919.505
  20502721.401                          31.532        -440.300
  22912196.622                          30.750       -2074.345
  22499763.509                          22.195       -2236.858
  21691091.341                          26.553        -683.486
  20654745.108                          22.267        1281.613
  23079544.350                          16.522       -3697.579
  19755437.882                          28.040        -500.028
  20625336.846                          36.424        3747.153
 19  1 15  9 55 20.0001326  0 10G13G15G17G19G30R02R11R21R22R23
  20924028.411                          33.449       -1150.268
  22011358.559                          35.834         753.654
  20822760.301                          26.378       -1920.082
  20526207.110                          31.727        -440.057
  22802106.957                          29.537       -2075.140
  22412626.221                          20.777       -2237.487
  21648611.845                          25.105        -684.208
  22960450.187                          16.758       -3697.423
  19820446.101                          26.431        -500.170
  20641296.426                          35.128        3746.009
 19  1 15  9 55 21.0001326  0 10G13G15G17G19G30R02R11R21R22R23
  20924241.792                          33.944       -1151.644
  21947308.909                          33.644         753.272
  20829060.044                          26.718       -1919.376
  20549697.955                          31.424        -441.419
  22692000.575                          30.749       -2076.330
  22325462.846                          22.951       -2234.981
  21606110.332                          25.393        -683.928
  22841301.592                          16.664       -3697.329
  19885458.931                          25.173        -500.606
  20657358.793                          36.323        3746.833
 19  1 15  9 55 22.0001326  0 11G13G15G17G19G30R02R11R12R21R22R23
  20924460.998                          36.374       -1151.939
  21883291.786                          37.496         751.211
  20835345.862                          27.522       -1920.144
  20573219.299                          33.286        -443.346
  22581871.771                          26.685       -2076.705
  22238262.461                          24.348       -2234.029
  21563637.026                          26.389        -683.948
  22722079.535                          17.178       -3697.867
  19950498.933                          22.448        -499.721
  20673516.541                          33.937        3748.286
 19  1 15  9 55 23.0001326  0 11G13G15G17G19G30R02R11R12R21R22R23
  20924689.041                          37.440       -1153.053
  21819313.439                          39.116         749.629
  20841617.788                          28.242       -1920.427
  20596757.869                          34.852        -443.348
  22471732.229                          29.171       -2076.852
  22151040.873                          26.771       -2235.327
  21521182.093                          28.357        -684.373
  20638910.581                          21.284        1284.344
  22602798.703                          17.873       -3698.475
  20015553.539                          20.697        -499.731
  20689763.695                          33.901        3749.142
 19  1 15  9 55 24.0001326  0 11G13G15G17G19G30R02R11R12R21R22R23
  20924910.152                          36.585       -1153.813
  21755373.867                          38.228         749.168
  20847878.106                          28.884       -1921.507
  20620312.283                          33.804        -443.621
  22361578.751                          27.122       -2077.529
  22063802.784                          32.113       -2237.265
  21478720.723                          28.719        -683.743
  20653756.327                          25.334        1283.212
  22483500.247                          21.956       -3699.230
  20080633.357                          19.945        -501.582
  20706097.506                          33.244        3746.738
 19  1 15  9 55 25.0001326  0 11G13G15G17G19G30R02R11R12R21R22R23
  20925123.847                          35.043       -1153.768
  21691460.739                          34.928         749.656
  20854122.569                          36.377       -1922.691
  20643863.909                          35.362        -444.951
  22251399.941                          25.938       -2076.376
  21976541.174                          30.988       -2238.807
  21436268.971                          28.759        -683.530
  20668609.458                          28.070        1279.798
  22364125.568                          20.578       -3699.913
  20145707.387                          30.491        -503.653
  20722523.772                          32.530        3745.424
 19  1 15  9 55 26.0001326  0 11G13G15G17G19G30R02R11R12R21R22R23
  20925347.877                          35.191       -1152.861
  21627594.509                          36.341         750.341
  20860359.342                          36.888       -1921.944
  20667437.330                          35.075        -445.546
  22141208.593                          26.588       -2075.511
  21889288.213                          30.205       -2238.873
  21393832.046                          27.882        -684.187
  20683537.745                          33.552        1276.660
  22244729.650                          21.923       -3700.034
  20210806.239                          31.324        -505.182
  20739043.468                          32.938        3746.230
 19  1 15  9 55 27.0001326  0 12G13G15G17G19G28G30R02R11R12R21R22R23
  20925570.604                          35.245       -1151.932
  21563757.311                          36.665         750.509
  20866572.105                          35.864       -1922.909
  20691026.403                          35.188        -443.803
  22031005.021                          27.758       -2076.095
  21801984.312                          30.529       -2238.830
  21351425.177                          28.512        -685.453
  20698486.851                          33.063        1275.737
  22125272.084                          23.107       -3702.172
  20275914.508                          31.726        -506.066
  20755659.658                          33.075        3745.767
 19  1 15  9 55 28.0001326  0 12G13G15G17G19G28G30R02R11R12R21R22R23
  20925784.299                          35.460       -1153.983
  21499961.936                          36.742         748.433
  20872772.431                          36.286       -1924.347
  20714623.232                          35.534        -442.608
  22766141.616                          24.578       -1886.783
  21920776.392                          28.282       -2075.812
  21714680.748                          30.457       -2239.164
  21309014.967                          28.436        -685.974
  20713496.660                          33.414        1278.485
  22005800.573                          23.147       -3703.482
  20341018.423                          31.559        -507.196
  20772355.458                          33.348        3745.071
 19  1 15  9 55 29.0001326  0 12G13G15G17G19G28G30R02R11R12R21R22R23
  20926003.569                          35.531       -1156.968
  21436197.527                          36.963         746.510
  20878954.961                          36.834       -1925.602
  20738231.393                          35.542        -444.453
  22669641.849                          25.032       -1885.975
  21810530.805                          28.759       -2076.144
  21627342.014                          30.691       -2238.855
  21266604.558                          29.087        -686.982
  20728536.320                          33.643        1279.459
  21886257.568                          22.865       -3705.372
  20406152.138                          31.275        -507.571
  20789153.064                          33.413        3744.034
