% program   : RTKPOST ver.2.4.2
% inp file  : D:\Google Drive\UERJ\_Projeto Final\Python\tcc-guilherme\20190115_LevantamentoCompleto_Smoothed.19o
% inp file  : D:\Google Drive\UERJ\_Projeto Final\20190115_Marco 91500 IBGE\brdm0150.19p
% obs start : 2019/01/15 09:25:22.0 GPST (week2036 206722.0s)
% obs end   : 2019/01/15 10:25:42.0 GPST (week2036 210342.0s)
% pos mode  : single
% elev mask : 15.0 deg
% ionos opt : broadcast
% tropo opt : saastamoinen
% ephemeris : broadcast
%
% (x/y/z-ecef=WGS84,Q=1:fix,2:float,3:sbas,4:dgps,5:single,6:ppp,ns=# of satellites)
%  GPST                      x-ecef(m)      y-ecef(m)      z-ecef(m)   Q  ns   sdx(m)   sdy(m)   sdz(m)  sdxy(m)  sdyz(m)  sdzx(m) age(s)  ratio
2019/01/15 09:25:22.000   4280233.1717  -4034427.9486  -2458271.8181   5   6   4.8327   5.1596   4.1740  -4.0107  -2.1828  -2.1275   0.00    0.0
2019/01/15 09:25:23.000   4280228.4969  -4034431.4249  -2458287.7481   5   6   4.8334   5.1599   4.1740  -4.0115  -2.1826  -2.1274   0.00    0.0
2019/01/15 09:25:24.000   4280228.6835  -4034430.8761  -2458278.9726   5   6   4.8341   5.1603   4.1741  -4.0123  -2.1824  -2.1273   0.00    0.0
2019/01/15 09:25:25.000   4280222.0939  -4034428.5896  -2458266.9925   5   6   4.8348   5.1606   4.1741  -4.0131  -2.1822  -2.1272   0.00    0.0
2019/01/15 09:25:26.000   4280216.6777  -4034422.0646  -2458256.8440   5   6   4.8356   5.1610   4.1741  -4.0138  -2.1820  -2.1271   0.00    0.0
2019/01/15 09:25:27.000   4280221.4729  -4034418.2400  -2458286.7717   5   5   5.3834   5.2333   8.7391  -4.2618   1.3721  -4.7623   0.00    0.0
2019/01/15 09:25:28.000   4280231.3127  -4034429.2801  -2458284.4059   5   6   4.8370   5.1617   4.1742  -4.0154  -2.1817  -2.1270   0.00    0.0
2019/01/15 09:25:29.000   4280221.5787  -4034417.7595  -2458285.0868   5   5   5.3827   5.2339   8.7312  -4.2626   1.3679  -4.7562   0.00    0.0
2019/01/15 09:25:30.000   4280230.3667  -4034425.4392  -2458288.1345   5   5   5.3823   5.2342   8.7272  -4.2630   1.3657  -4.7532   0.00    0.0
2019/01/15 09:25:31.000   4280222.7426  -4034417.6687  -2458276.4730   5   5   5.3820   5.2345   8.7233  -4.2634   1.3636  -4.7502   0.00    0.0
2019/01/15 09:25:32.000   4280215.9950  -4034410.9631  -2458273.1601   5   5   5.3817   5.2348   8.7194  -4.2638   1.3615  -4.7472   0.00    0.0
2019/01/15 09:25:33.000   4280222.8617  -4034420.1044  -2458278.8730   5   5   5.3813   5.2350   8.7154  -4.2642   1.3594  -4.7442   0.00    0.0
2019/01/15 09:25:34.000   4280221.0931  -4034415.6771  -2458273.8133   5   5   5.3810   5.2353   8.7115  -4.2646   1.3573  -4.7412   0.00    0.0
2019/01/15 09:25:35.000   4280224.0745  -4034420.5915  -2458278.6855   5   5   5.3806   5.2356   8.7076  -4.2650   1.3552  -4.7382   0.00    0.0
2019/01/15 09:25:36.000   4280224.9236  -4034421.8749  -2458276.9489   5   5   5.3803   5.2359   8.7036  -4.2654   1.3531  -4.7352   0.00    0.0
2019/01/15 09:25:37.000   4280226.4996  -4034423.6648  -2458278.6490   5   5   5.3799   5.2362   8.6997  -4.2658   1.3510  -4.7322   0.00    0.0
2019/01/15 09:25:38.000   4280227.4784  -4034421.6357  -2458285.0477   5   6   5.3525   4.2419   7.0983  -4.0676   4.1523  -5.0074   0.00    0.0
2019/01/15 09:25:39.000   4280226.9794  -4034421.2597  -2458282.1732   5   6   5.3519   4.2413   7.0964  -4.0669   4.1509  -5.0057   0.00    0.0
2019/01/15 09:25:40.000   4280226.4760  -4034421.6165  -2458283.6920   5   6   5.3513   4.2407   7.0945  -4.0662   4.1495  -5.0040   0.00    0.0
2019/01/15 09:25:41.000   4280227.1555  -4034423.8765  -2458281.5772   5   6   5.3507   4.2402   7.0926  -4.0656   4.1480  -5.0022   0.00    0.0
2019/01/15 09:25:42.000   4280227.3708  -4034425.0197  -2458279.5362   5   6   5.3501   4.2396   7.0908  -4.0649   4.1466  -5.0005   0.00    0.0
2019/01/15 09:25:43.000   4280226.8874  -4034422.6297  -2458283.2481   5   6   5.3495   4.2390   7.0889  -4.0643   4.1451  -4.9988   0.00    0.0
2019/01/15 09:25:44.000   4280227.0986  -4034423.7216  -2458281.6124   5   6   5.3489   4.2385   7.0870  -4.0636   4.1437  -4.9971   0.00    0.0
2019/01/15 09:25:45.000   4280227.2218  -4034424.9453  -2458279.3355   5   6   5.3483   4.2379   7.0851  -4.0629   4.1423  -4.9954   0.00    0.0
2019/01/15 09:25:46.000   4280227.0717  -4034424.0569  -2458280.8309   5   6   5.3477   4.2373   7.0833  -4.0623   4.1408  -4.9937   0.00    0.0
2019/01/15 09:25:47.000   4280226.7466  -4034422.4480  -2458283.5105   5   6   5.3471   4.2367   7.0814  -4.0616   4.1394  -4.9920   0.00    0.0
2019/01/15 09:25:48.000   4280226.5587  -4034421.9615  -2458284.0455   5   6   5.3465   4.2362   7.0795  -4.0610   4.1380  -4.9902   0.00    0.0
2019/01/15 09:25:49.000   4280226.5753  -4034422.6401  -2458282.5541   5   6   5.3459   4.2356   7.0776  -4.0603   4.1365  -4.9885   0.00    0.0
2019/01/15 09:27:31.000   4280222.1603  -4034415.4952  -2458277.1376   5   6   5.2892   4.1812   6.8863  -3.9976   3.9929  -4.8153   0.00    0.0
2019/01/15 09:27:32.000   4280222.0912  -4034415.5026  -2458276.9159   5   6   5.2887   4.1807   6.8844  -3.9970   3.9915  -4.8136   0.00    0.0
2019/01/15 09:27:33.000   4280222.1822  -4034415.6148  -2458276.9805   5   6   5.2882   4.1802   6.8826  -3.9965   3.9901  -4.8119   0.00    0.0
2019/01/15 09:27:34.000   4280222.1648  -4034415.6855  -2458276.9981   5   6   5.2877   4.1797   6.8807  -3.9959   3.9887  -4.8103   0.00    0.0
2019/01/15 09:27:35.000   4280222.1641  -4034415.6708  -2458276.7326   5   6   5.2871   4.1792   6.8788  -3.9953   3.9873  -4.8086   0.00    0.0
2019/01/15 09:27:36.000   4280222.2599  -4034415.7250  -2458276.8847   5   6   5.2866   4.1787   6.8770  -3.9947   3.9860  -4.8069   0.00    0.0
2019/01/15 09:27:37.000   4280222.2527  -4034415.7055  -2458276.8503   5   6   5.2861   4.1782   6.8751  -3.9942   3.9846  -4.8052   0.00    0.0
2019/01/15 09:27:38.000   4280222.3001  -4034415.6393  -2458276.8108   5   6   5.2856   4.1777   6.8732  -3.9936   3.9832  -4.8035   0.00    0.0
2019/01/15 09:27:39.000   4280222.3412  -4034415.6258  -2458276.7911   5   6   5.2851   4.1772   6.8713  -3.9930   3.9818  -4.8019   0.00    0.0
2019/01/15 09:27:40.000   4280222.3799  -4034415.5597  -2458276.9192   5   6   5.2846   4.1768   6.8695  -3.9925   3.9804  -4.8002   0.00    0.0
2019/01/15 09:27:41.000   4280222.4400  -4034415.5147  -2458277.1030   5   6   5.2841   4.1763   6.8676  -3.9919   3.9791  -4.7985   0.00    0.0
2019/01/15 09:27:42.000   4280222.3779  -4034415.4034  -2458277.2126   5   6   5.2836   4.1758   6.8657  -3.9913   3.9777  -4.7968   0.00    0.0
2019/01/15 09:27:43.000   4280222.4558  -4034415.3512  -2458277.2953   5   6   5.2831   4.1753   6.8639  -3.9908   3.9763  -4.7951   0.00    0.0
2019/01/15 09:27:44.000   4280222.4892  -4034415.3194  -2458277.2505   5   6   5.2826   4.1748   6.8620  -3.9902   3.9750  -4.7935   0.00    0.0
2019/01/15 09:27:45.000   4280222.5771  -4034415.3071  -2458277.5108   5   6   5.2821   4.1743   6.8601  -3.9896   3.9736  -4.7918   0.00    0.0
2019/01/15 09:27:46.000   4280222.4856  -4034415.2560  -2458277.4852   5   6   5.2816   4.1738   6.8583  -3.9891   3.9722  -4.7901   0.00    0.0
2019/01/15 09:27:47.000   4280222.5583  -4034415.1679  -2458277.6947   5   6   5.2811   4.1733   6.8564  -3.9885   3.9708  -4.7884   0.00    0.0
2019/01/15 09:27:48.000   4280222.5607  -4034415.0475  -2458277.7710   5   6   5.2806   4.1728   6.8545  -3.9880   3.9695  -4.7868   0.00    0.0
2019/01/15 09:27:49.000   4280222.6786  -4034415.1675  -2458277.7738   5   6   5.2801   4.1723   6.8526  -3.9874   3.9681  -4.7851   0.00    0.0
2019/01/15 09:27:50.000   4280222.5862  -4034415.0853  -2458277.6494   5   6   5.2796   4.1718   6.8508  -3.9868   3.9667  -4.7834   0.00    0.0
2019/01/15 09:27:51.000   4280222.5878  -4034415.0617  -2458277.5522   5   6   5.2791   4.1713   6.8489  -3.9863   3.9654  -4.7817   0.00    0.0
2019/01/15 09:27:52.000   4280222.5475  -4034415.0396  -2458277.4961   5   6   5.2786   4.1709   6.8470  -3.9857   3.9640  -4.7801   0.00    0.0
2019/01/15 09:27:53.000   4280222.7142  -4034415.1425  -2458277.6211   5   6   5.2781   4.1704   6.8452  -3.9852   3.9626  -4.7784   0.00    0.0
2019/01/15 09:27:54.000   4280222.6550  -4034415.0670  -2458277.4715   5   6   5.2776   4.1699   6.8433  -3.9846   3.9613  -4.7767   0.00    0.0
2019/01/15 09:27:55.000   4280222.5918  -4034415.0116  -2458277.4960   5   6   5.2771   4.1694   6.8414  -3.9840   3.9599  -4.7750   0.00    0.0
2019/01/15 09:27:56.000   4280222.6290  -4034414.9313  -2458277.6567   5   6   5.2766   4.1689   6.8396  -3.9835   3.9585  -4.7734   0.00    0.0
2019/01/15 09:27:57.000   4280222.6328  -4034414.9553  -2458277.6484   5   6   5.2761   4.1684   6.8377  -3.9829   3.9572  -4.7717   0.00    0.0
2019/01/15 09:27:58.000   4280222.5878  -4034414.9367  -2458277.8272   5   6   5.2756   4.1679   6.8358  -3.9824   3.9558  -4.7700   0.00    0.0
2019/01/15 09:27:59.000   4280222.7382  -4034414.9874  -2458278.1168   5   6   5.2751   4.1675   6.8340  -3.9818   3.9544  -4.7684   0.00    0.0
2019/01/15 09:28:00.000   4280222.7660  -4034414.9771  -2458278.2402   5   6   5.2746   4.1670   6.8321  -3.9813   3.9531  -4.7667   0.00    0.0
2019/01/15 09:28:01.000   4280222.6792  -4034414.8500  -2458278.3020   5   6   5.2742   4.1665   6.8302  -3.9807   3.9517  -4.7650   0.00    0.0
2019/01/15 09:28:02.000   4280222.7002  -4034414.8560  -2458278.3790   5   6   5.2737   4.1660   6.8284  -3.9802   3.9503  -4.7633   0.00    0.0
2019/01/15 09:28:03.000   4280222.7534  -4034414.8580  -2458278.3995   5   6   5.2732   4.1655   6.8265  -3.9796   3.9490  -4.7617   0.00    0.0
2019/01/15 09:28:04.000   4280222.5741  -4034415.0086  -2458278.2241   5   6   5.2727   4.1651   6.8246  -3.9791   3.9476  -4.7600   0.00    0.0
2019/01/15 09:28:05.000   4280222.1690  -4034414.9899  -2458278.0684   5   6   5.2722   4.1646   6.8228  -3.9785   3.9463  -4.7583   0.00    0.0
2019/01/15 09:28:06.000   4280221.9151  -4034414.9865  -2458278.1670   5   6   5.2717   4.1641   6.8209  -3.9780   3.9449  -4.7567   0.00    0.0
2019/01/15 09:28:07.000   4280222.1191  -4034415.3732  -2458278.1491   5   6   5.2712   4.1636   6.8190  -3.9774   3.9435  -4.7550   0.00    0.0
2019/01/15 09:28:08.000   4280222.3472  -4034415.7758  -2458278.1869   5   6   5.2708   4.1631   6.8172  -3.9769   3.9422  -4.7533   0.00    0.0
2019/01/15 09:28:09.000   4280222.7624  -4034416.1881  -2458278.3478   5   6   5.2703   4.1627   6.8153  -3.9763   3.9408  -4.7517   0.00    0.0
2019/01/15 09:28:10.000   4280223.3674  -4034416.5612  -2458278.6959   5   6   5.2698   4.1622   6.8134  -3.9758   3.9395  -4.7500   0.00    0.0
2019/01/15 09:28:11.000   4280223.7562  -4034416.5704  -2458278.9108   5   6   5.2693   4.1617   6.8116  -3.9753   3.9381  -4.7483   0.00    0.0
2019/01/15 09:28:12.000   4280223.6253  -4034416.5577  -2458278.9462   5   6   5.2688   4.1612   6.8097  -3.9747   3.9367  -4.7467   0.00    0.0
2019/01/15 09:28:13.000   4280223.2330  -4034416.4746  -2458279.0165   5   6   5.2684   4.1608   6.8078  -3.9742   3.9354  -4.7450   0.00    0.0
2019/01/15 09:28:14.000   4280222.7583  -4034416.5856  -2458278.7313   5   6   5.2679   4.1603   6.8060  -3.9736   3.9340  -4.7433   0.00    0.0
2019/01/15 09:28:15.000   4280222.8392  -4034417.1142  -2458278.3939   5   6   5.2674   4.1598   6.8041  -3.9731   3.9327  -4.7417   0.00    0.0
2019/01/15 09:28:16.000   4280223.2274  -4034417.5014  -2458278.0329   5   6   5.2669   4.1593   6.8023  -3.9726   3.9313  -4.7400   0.00    0.0
2019/01/15 09:28:17.000   4280223.5719  -4034417.5565  -2458277.6101   5   6   5.2664   4.1589   6.8004  -3.9720   3.9300  -4.7383   0.00    0.0
2019/01/15 09:28:18.000   4280223.6726  -4034417.4613  -2458277.0564   5   6   5.2660   4.1584   6.7985  -3.9715   3.9286  -4.7367   0.00    0.0
2019/01/15 09:28:19.000   4280223.9212  -4034417.6652  -2458277.1117   5   6   5.2655   4.1579   6.7967  -3.9709   3.9273  -4.7350   0.00    0.0
2019/01/15 09:28:20.000   4280223.3710  -4034417.5503  -2458276.8811   5   6   5.2650   4.1575   6.7948  -3.9704   3.9259  -4.7334   0.00    0.0
2019/01/15 09:28:21.000   4280222.8940  -4034417.4318  -2458276.9801   5   6   5.2645   4.1570   6.7929  -3.9699   3.9246  -4.7317   0.00    0.0
2019/01/15 09:28:22.000   4280222.4590  -4034417.3636  -2458277.3765   5   6   5.2641   4.1565   6.7911  -3.9693   3.9232  -4.7300   0.00    0.0
2019/01/15 09:28:23.000   4280222.3354  -4034417.2065  -2458277.6730   5   6   5.2636   4.1561   6.7892  -3.9688   3.9219  -4.7284   0.00    0.0
2019/01/15 09:28:24.000   4280222.7820  -4034417.2757  -2458278.2976   5   6   5.2631   4.1556   6.7874  -3.9683   3.9205  -4.7267   0.00    0.0
2019/01/15 09:28:25.000   4280223.3687  -4034417.3914  -2458279.0952   5   6   5.2627   4.1551   6.7855  -3.9677   3.9192  -4.7250   0.00    0.0
2019/01/15 09:28:26.000   4280223.9067  -4034417.6330  -2458279.7749   5   6   5.2622   4.1547   6.7836  -3.9672   3.9178  -4.7234   0.00    0.0
2019/01/15 09:28:27.000   4280223.8497  -4034417.6190  -2458279.6061   5   6   5.2617   4.1542   6.7818  -3.9667   3.9165  -4.7217   0.00    0.0
2019/01/15 09:28:28.000   4280223.3904  -4034417.5598  -2458278.9995   5   6   5.2613   4.1537   6.7799  -3.9662   3.9151  -4.7201   0.00    0.0
2019/01/15 09:28:29.000   4280223.1820  -4034417.5121  -2458278.6293   5   6   5.2608   4.1533   6.7781  -3.9656   3.9138  -4.7184   0.00    0.0
2019/01/15 09:28:30.000   4280223.1478  -4034417.7519  -2458278.4983   5   6   5.2603   4.1528   6.7762  -3.9651   3.9124  -4.7168   0.00    0.0
2019/01/15 09:28:31.000   4280223.1159  -4034417.7787  -2458278.0981   5   6   5.2599   4.1523   6.7743  -3.9646   3.9111  -4.7151   0.00    0.0
2019/01/15 09:28:32.000   4280222.5384  -4034417.2473  -2458277.3587   5   6   5.2594   4.1519   6.7725  -3.9640   3.9097  -4.7134   0.00    0.0
2019/01/15 09:28:33.000   4280222.2148  -4034416.9482  -2458276.9281   5   6   5.2590   4.1514   6.7706  -3.9635   3.9084  -4.7118   0.00    0.0
2019/01/15 09:28:34.000   4280221.6460  -4034416.5697  -2458276.2370   5   6   5.2585   4.1509   6.7688  -3.9630   3.9071  -4.7101   0.00    0.0
2019/01/15 09:28:35.000   4280221.6826  -4034416.3827  -2458275.9253   5   6   5.2580   4.1505   6.7669  -3.9625   3.9057  -4.7085   0.00    0.0
2019/01/15 09:28:36.000   4280222.4277  -4034416.6408  -2458275.9458   5   6   5.2576   4.1500   6.7650  -3.9620   3.9044  -4.7068   0.00    0.0
2019/01/15 09:28:37.000   4280222.7502  -4034416.7022  -2458275.7549   5   6   5.2571   4.1496   6.7632  -3.9614   3.9030  -4.7052   0.00    0.0
2019/01/15 09:28:38.000   4280222.8870  -4034416.8001  -2458275.6196   5   6   5.2567   4.1491   6.7613  -3.9609   3.9017  -4.7035   0.00    0.0
2019/01/15 09:28:39.000   4280222.9184  -4034416.9979  -2458275.7397   5   6   5.2562   4.1487   6.7595  -3.9604   3.9003  -4.7019   0.00    0.0
2019/01/15 09:28:40.000   4280223.1778  -4034417.3466  -2458275.9519   5   6   5.2557   4.1482   6.7576  -3.9599   3.8990  -4.7002   0.00    0.0
2019/01/15 09:28:41.000   4280223.4637  -4034417.5256  -2458276.0261   5   6   5.2553   4.1477   6.7557  -3.9593   3.8977  -4.6985   0.00    0.0
2019/01/15 09:28:42.000   4280223.5620  -4034417.5100  -2458276.2656   5   6   5.2548   4.1473   6.7539  -3.9588   3.8963  -4.6969   0.00    0.0
2019/01/15 09:28:43.000   4280223.0316  -4034416.9468  -2458275.9448   5   6   5.2544   4.1468   6.7520  -3.9583   3.8950  -4.6952   0.00    0.0
2019/01/15 09:28:44.000   4280222.2917  -4034416.4342  -2458275.8319   5   6   5.2539   4.1464   6.7502  -3.9578   3.8937  -4.6936   0.00    0.0
2019/01/15 09:28:45.000   4280221.7815  -4034416.0515  -2458275.7277   5   6   5.2535   4.1459   6.7483  -3.9573   3.8923  -4.6919   0.00    0.0
2019/01/15 09:28:46.000   4280221.3567  -4034415.5442  -2458275.6474   5   6   5.2530   4.1455   6.7465  -3.9568   3.8910  -4.6903   0.00    0.0
2019/01/15 09:28:47.000   4280221.1720  -4034415.1141  -2458275.4722   5   6   5.2526   4.1450   6.7446  -3.9563   3.8897  -4.6886   0.00    0.0
2019/01/15 09:28:48.000   4280221.7643  -4034415.2051  -2458275.7934   5   6   5.2521   4.1446   6.7427  -3.9557   3.8883  -4.6870   0.00    0.0
2019/01/15 09:28:49.000   4280221.7763  -4034415.2154  -2458275.7100   5   6   5.2517   4.1441   6.7409  -3.9552   3.8870  -4.6853   0.00    0.0
2019/01/15 09:28:50.000   4280221.1758  -4034414.9180  -2458275.5670   5   6   5.2512   4.1437   6.7390  -3.9547   3.8857  -4.6837   0.00    0.0
2019/01/15 09:28:51.000   4280220.9318  -4034414.6937  -2458275.2524   5   6   5.2508   4.1432   6.7372  -3.9542   3.8843  -4.6820   0.00    0.0
2019/01/15 09:28:52.000   4280220.8877  -4034414.6748  -2458275.0637   5   6   5.2503   4.1428   6.7353  -3.9537   3.8830  -4.6804   0.00    0.0
2019/01/15 09:28:53.000   4280221.1303  -4034414.8977  -2458275.2452   5   6   5.2499   4.1423   6.7335  -3.9532   3.8817  -4.6787   0.00    0.0
2019/01/15 09:28:54.000   4280221.6065  -4034415.2921  -2458275.7633   5   6   5.2495   4.1419   6.7316  -3.9527   3.8803  -4.6771   0.00    0.0
2019/01/15 09:28:55.000   4280221.8248  -4034415.4394  -2458276.0756   5   6   5.2490   4.1414   6.7298  -3.9522   3.8790  -4.6754   0.00    0.0
2019/01/15 09:28:56.000   4280221.4551  -4034415.3749  -2458275.9171   5   6   5.2486   4.1410   6.7279  -3.9517   3.8777  -4.6738   0.00    0.0
2019/01/15 09:28:57.000   4280220.7812  -4034415.2234  -2458275.6817   5   6   5.2481   4.1405   6.7261  -3.9512   3.8763  -4.6722   0.00    0.0
2019/01/15 09:28:58.000   4280220.3346  -4034415.1506  -2458275.8716   5   6   5.2477   4.1401   6.7242  -3.9507   3.8750  -4.6705   0.00    0.0
2019/01/15 09:28:59.000   4280219.7618  -4034414.8625  -2458276.0090   5   6   5.2473   4.1396   6.7223  -3.9501   3.8737  -4.6689   0.00    0.0
2019/01/15 09:29:00.000   4280219.6304  -4034414.7563  -2458276.3686   5   6   5.2468   4.1392   6.7205  -3.9496   3.8724  -4.6672   0.00    0.0
2019/01/15 09:29:01.000   4280220.1344  -4034414.7537  -2458276.9728   5   6   5.2464   4.1387   6.7186  -3.9491   3.8710  -4.6656   0.00    0.0
2019/01/15 09:29:02.000   4280220.8337  -4034414.7003  -2458277.3493   5   6   5.2459   4.1383   6.7168  -3.9486   3.8697  -4.6639   0.00    0.0
2019/01/15 09:29:03.000   4280221.9615  -4034415.1069  -2458277.5990   5   6   5.2455   4.1378   6.7149  -3.9481   3.8684  -4.6623   0.00    0.0
2019/01/15 09:29:04.000   4280222.3781  -4034415.5534  -2458277.3556   5   6   5.2451   4.1374   6.7131  -3.9476   3.8671  -4.6606   0.00    0.0
2019/01/15 09:29:05.000   4280222.1234  -4034415.5783  -2458276.7185   5   6   5.2446   4.1370   6.7112  -3.9471   3.8657  -4.6590   0.00    0.0
2019/01/15 09:29:06.000   4280221.3850  -4034415.2861  -2458275.7132   5   6   5.2442   4.1365   6.7094  -3.9466   3.8644  -4.6574   0.00    0.0
2019/01/15 09:29:07.000   4280220.9282  -4034415.2693  -2458274.9378   5   6   5.2438   4.1361   6.7075  -3.9461   3.8631  -4.6557   0.00    0.0
2019/01/15 09:29:08.000   4280220.9101  -4034415.2487  -2458274.6828   5   6   5.2433   4.1356   6.7057  -3.9456   3.8618  -4.6541   0.00    0.0
2019/01/15 09:29:09.000   4280221.1116  -4034415.2112  -2458274.6569   5   6   5.2429   4.1352   6.7038  -3.9452   3.8604  -4.6524   0.00    0.0
2019/01/15 09:29:10.000   4280221.4664  -4034415.2205  -2458274.9756   5   6   5.2425   4.1348   6.7020  -3.9447   3.8591  -4.6508   0.00    0.0
2019/01/15 09:29:11.000   4280221.6616  -4034415.3215  -2458275.0948   5   6   5.2421   4.1343   6.7001  -3.9442   3.8578  -4.6492   0.00    0.0
2019/01/15 09:29:12.000   4280221.8396  -4034415.3144  -2458275.4990   5   6   5.2416   4.1339   6.6983  -3.9437   3.8565  -4.6475   0.00    0.0
2019/01/15 09:29:13.000   4280221.4990  -4034414.9649  -2458275.6097   5   6   5.2412   4.1334   6.6964  -3.9432   3.8552  -4.6459   0.00    0.0
2019/01/15 09:29:14.000   4280221.2855  -4034414.8592  -2458275.7198   5   6   5.2408   4.1330   6.6946  -3.9427   3.8538  -4.6442   0.00    0.0
2019/01/15 09:29:15.000   4280221.1580  -4034414.6730  -2458275.4888   5   6   5.2403   4.1326   6.6927  -3.9422   3.8525  -4.6426   0.00    0.0
2019/01/15 09:29:16.000   4280221.5729  -4034414.9152  -2458275.2943   5   6   5.2399   4.1321   6.6909  -3.9417   3.8512  -4.6410   0.00    0.0
2019/01/15 09:29:17.000   4280221.7121  -4034414.9905  -2458274.9899   5   6   5.2395   4.1317   6.6890  -3.9412   3.8499  -4.6393   0.00    0.0
2019/01/15 09:29:18.000   4280221.3248  -4034414.9659  -2458274.4886   5   6   5.2391   4.1313   6.6872  -3.9407   3.8486  -4.6377   0.00    0.0
2019/01/15 09:29:19.000   4280221.1673  -4034414.8912  -2458274.1012   5   6   5.2387   4.1308   6.6853  -3.9402   3.8473  -4.6361   0.00    0.0
2019/01/15 09:29:20.000   4280221.4713  -4034415.0051  -2458273.4841   5   6   5.2382   4.1304   6.6835  -3.9397   3.8460  -4.6344   0.00    0.0
2019/01/15 09:29:21.000   4280221.7036  -4034415.0524  -2458272.9410   5   6   5.2378   4.1300   6.6817  -3.9393   3.8446  -4.6328   0.00    0.0
2019/01/15 09:29:22.000   4280221.5776  -4034414.5642  -2458272.5762   5   6   5.2374   4.1295   6.6798  -3.9388   3.8433  -4.6312   0.00    0.0
2019/01/15 09:29:23.000   4280221.1733  -4034413.9053  -2458272.3644   5   6   5.2370   4.1291   6.6780  -3.9383   3.8420  -4.6295   0.00    0.0
2019/01/15 09:29:24.000   4280221.1026  -4034413.6833  -2458272.4123   5   6   5.2366   4.1287   6.6761  -3.9378   3.8407  -4.6279   0.00    0.0
2019/01/15 09:29:25.000   4280221.1346  -4034413.8308  -2458272.6583   5   6   5.2361   4.1283   6.6743  -3.9373   3.8394  -4.6263   0.00    0.0
2019/01/15 09:29:26.000   4280221.3519  -4034414.2492  -2458273.0974   5   6   5.2357   4.1278   6.6724  -3.9368   3.8381  -4.6246   0.00    0.0
2019/01/15 09:29:27.000   4280221.3249  -4034414.7067  -2458273.1088   5   6   5.2353   4.1274   6.6706  -3.9364   3.8368  -4.6230   0.00    0.0
2019/01/15 09:29:28.000   4280221.2232  -4034414.9083  -2458272.8536   5   6   5.2349   4.1270   6.6687  -3.9359   3.8355  -4.6214   0.00    0.0
2019/01/15 09:29:29.000   4280221.0722  -4034415.0846  -2458272.7197   5   6   5.2345   4.1265   6.6669  -3.9354   3.8342  -4.6197   0.00    0.0
2019/01/15 09:29:30.000   4280221.0790  -4034415.2784  -2458272.7931   5   6   5.2341   4.1261   6.6650  -3.9349   3.8329  -4.6181   0.00    0.0
2019/01/15 09:29:31.000   4280220.9655  -4034415.0886  -2458272.8973   5   6   5.2337   4.1257   6.6632  -3.9344   3.8315  -4.6165   0.00    0.0
2019/01/15 09:29:32.000   4280220.5489  -4034414.4829  -2458272.5736   5   6   5.2332   4.1253   6.6614  -3.9340   3.8302  -4.6148   0.00    0.0
2019/01/15 09:29:33.000   4280220.6222  -4034414.2459  -2458272.5417   5   6   5.2328   4.1248   6.6595  -3.9335   3.8289  -4.6132   0.00    0.0
2019/01/15 09:29:34.000   4280220.3703  -4034414.0377  -2458272.3126   5   6   5.2324   4.1244   6.6577  -3.9330   3.8276  -4.6116   0.00    0.0
2019/01/15 09:29:35.000   4280219.6484  -4034413.5979  -2458271.9832   5   6   5.2320   4.1240   6.6558  -3.9325   3.8263  -4.6100   0.00    0.0
2019/01/15 09:29:36.000   4280219.0630  -4034413.3462  -2458271.5238   5   6   5.2316   4.1236   6.6540  -3.9321   3.8250  -4.6083   0.00    0.0
2019/01/15 09:29:37.000   4280218.9610  -4034413.4203  -2458271.4627   5   6   5.2312   4.1231   6.6522  -3.9316   3.8237  -4.6067   0.00    0.0
2019/01/15 09:29:38.000   4280218.6236  -4034413.3451  -2458270.9647   5   6   5.2308   4.1227   6.6503  -3.9311   3.8224  -4.6051   0.00    0.0
2019/01/15 09:29:39.000   4280218.6348  -4034413.5513  -2458270.4824   5   6   5.2304   4.1223   6.6485  -3.9306   3.8211  -4.6035   0.00    0.0
2019/01/15 09:29:40.000   4280219.0082  -4034413.8421  -2458270.1840   5   6   5.2300   4.1219   6.6466  -3.9302   3.8198  -4.6018   0.00    0.0
2019/01/15 09:29:41.000   4280219.4089  -4034413.9885  -2458270.1212   5   6   5.2296   4.1215   6.6448  -3.9297   3.8185  -4.6002   0.00    0.0
2019/01/15 09:29:42.000   4280219.4919  -4034413.9521  -2458270.5430   5   6   5.2292   4.1210   6.6429  -3.9292   3.8172  -4.5986   0.00    0.0
2019/01/15 09:29:43.000   4280219.4371  -4034413.9484  -2458271.3759   5   6   5.2288   4.1206   6.6411  -3.9288   3.8159  -4.5970   0.00    0.0
2019/01/15 09:29:44.000   4280219.3319  -4034414.0267  -2458271.8564   5   6   5.2284   4.1202   6.6393  -3.9283   3.8146  -4.5953   0.00    0.0
2019/01/15 09:29:45.000   4280219.2736  -4034414.5326  -2458272.2865   5   6   5.2280   4.1198   6.6374  -3.9278   3.8133  -4.5937   0.00    0.0
2019/01/15 09:29:46.000   4280219.2401  -4034414.8758  -2458272.1801   5   6   5.2276   4.1194   6.6356  -3.9274   3.8120  -4.5921   0.00    0.0
2019/01/15 09:29:47.000   4280219.2885  -4034414.9428  -2458271.3031   5   6   5.2272   4.1190   6.6338  -3.9269   3.8107  -4.5905   0.00    0.0
2019/01/15 09:29:48.000   4280219.0190  -4034414.7537  -2458270.1605   5   6   5.2268   4.1185   6.6319  -3.9264   3.8094  -4.5888   0.00    0.0
2019/01/15 09:29:49.000   4280219.2779  -4034414.8725  -2458269.6237   5   6   5.2264   4.1181   6.6301  -3.9260   3.8081  -4.5872   0.00    0.0
2019/01/15 09:29:50.000   4280219.1080  -4034414.7149  -2458269.2268   5   6   5.2260   4.1177   6.6282  -3.9255   3.8068  -4.5856   0.00    0.0
2019/01/15 09:29:51.000   4280219.4364  -4034414.6622  -2458269.2140   5   6   5.2256   4.1173   6.6264  -3.9250   3.8056  -4.5840   0.00    0.0
2019/01/15 09:29:52.000   4280219.5656  -4034414.4091  -2458268.7609   5   6   5.2252   4.1169   6.6246  -3.9246   3.8043  -4.5824   0.00    0.0
2019/01/15 09:29:53.000   4280219.5707  -4034414.2954  -2458268.5165   5   6   5.2248   4.1165   6.6227  -3.9241   3.8030  -4.5807   0.00    0.0
2019/01/15 09:29:54.000   4280218.8361  -4034413.6841  -2458268.0689   5   6   5.2244   4.1161   6.6209  -3.9237   3.8017  -4.5791   0.00    0.0
2019/01/15 09:29:55.000   4280218.4426  -4034413.2844  -2458268.0007   5   6   5.2241   4.1157   6.6191  -3.9232   3.8004  -4.5775   0.00    0.0
2019/01/15 09:29:56.000   4280218.5159  -4034413.3742  -2458268.1105   5   6   5.2237   4.1152   6.6172  -3.9227   3.7991  -4.5759   0.00    0.0
2019/01/15 09:29:57.000   4280218.6664  -4034413.6029  -2458268.2770   5   6   5.2233   4.1148   6.6154  -3.9223   3.7978  -4.5743   0.00    0.0
2019/01/15 09:29:58.000   4280218.7340  -4034413.7831  -2458268.5604   5   6   5.2229   4.1144   6.6136  -3.9218   3.7965  -4.5727   0.00    0.0
2019/01/15 09:29:59.000   4280219.4494  -4034414.3449  -2458269.2424   5   6   5.2225   4.1140   6.6117  -3.9214   3.7952  -4.5710   0.00    0.0
2019/01/15 09:30:00.000   4280220.3345  -4034414.9477  -2458270.2075   5   6   5.2221   4.1136   6.6099  -3.9209   3.7939  -4.5694   0.00    0.0
2019/01/15 09:30:01.000   4280221.0384  -4034415.2131  -2458270.8335   5   6   5.2217   4.1132   6.6081  -3.9205   3.7927  -4.5678   0.00    0.0
2019/01/15 09:30:02.000   4280221.0115  -4034414.9587  -2458270.9996   5   6   5.2213   4.1128   6.6062  -3.9200   3.7914  -4.5662   0.00    0.0
2019/01/15 09:30:03.000   4280221.0926  -4034414.6738  -2458271.0766   5   6   5.2210   4.1124   6.6044  -3.9196   3.7901  -4.5646   0.00    0.0
2019/01/15 09:30:04.000   4280221.1918  -4034414.4946  -2458270.7946   5   6   5.2206   4.1120   6.6026  -3.9191   3.7888  -4.5630   0.00    0.0
2019/01/15 09:30:05.000   4280221.6465  -4034414.8657  -2458270.9353   5   6   5.2202   4.1116   6.6007  -3.9187   3.7875  -4.5614   0.00    0.0
2019/01/15 09:30:06.000   4280222.1352  -4034415.2165  -2458271.0845   5   6   5.2198   4.1112   6.5989  -3.9182   3.7862  -4.5598   0.00    0.0
2019/01/15 09:30:07.000   4280222.2637  -4034415.3692  -2458270.8880   5   6   5.2194   4.1108   6.5971  -3.9178   3.7849  -4.5581   0.00    0.0
2019/01/15 09:30:08.000   4280222.3756  -4034415.2756  -2458270.9524   5   6   5.2191   4.1104   6.5952  -3.9173   3.7837  -4.5565   0.00    0.0
2019/01/15 09:30:09.000   4280222.3452  -4034415.0394  -2458271.0960   5   6   5.2187   4.1100   6.5934  -3.9169   3.7824  -4.5549   0.00    0.0
2019/01/15 09:30:10.000   4280222.0599  -4034414.8778  -2458271.0063   5   6   5.2183   4.1096   6.5916  -3.9164   3.7811  -4.5533   0.00    0.0
2019/01/15 09:30:11.000   4280222.1068  -4034414.9292  -2458271.0821   5   6   5.2179   4.1092   6.5897  -3.9160   3.7798  -4.5517   0.00    0.0
2019/01/15 09:30:12.000   4280222.4396  -4034415.1880  -2458270.9371   5   6   5.2176   4.1088   6.5879  -3.9155   3.7785  -4.5501   0.00    0.0
2019/01/15 09:30:13.000   4280222.7641  -4034415.4105  -2458270.8709   5   6   5.2172   4.1084   6.5861  -3.9151   3.7773  -4.5485   0.00    0.0
2019/01/15 09:30:14.000   4280222.8368  -4034415.5891  -2458270.5640   5   6   5.2168   4.1080   6.5843  -3.9146   3.7760  -4.5469   0.00    0.0
2019/01/15 09:30:15.000   4280223.0015  -4034416.0573  -2458270.6267   5   6   5.2164   4.1076   6.5824  -3.9142   3.7747  -4.5453   0.00    0.0
2019/01/15 09:30:16.000   4280223.2805  -4034416.5585  -2458270.8688   5   6   5.2161   4.1072   6.5806  -3.9137   3.7734  -4.5437   0.00    0.0
2019/01/15 09:30:17.000   4280223.4804  -4034416.8662  -2458270.8747   5   6   5.2157   4.1068   6.5788  -3.9133   3.7722  -4.5421   0.00    0.0
2019/01/15 09:30:18.000   4280223.4595  -4034416.7517  -2458270.5315   5   6   5.2153   4.1064   6.5769  -3.9129   3.7709  -4.5405   0.00    0.0
2019/01/15 09:30:19.000   4280223.0898  -4034416.3913  -2458269.8995   5   6   5.2150   4.1060   6.5751  -3.9124   3.7696  -4.5389   0.00    0.0
2019/01/15 09:30:20.000   4280223.0046  -4034416.0625  -2458269.4264   5   6   5.2146   4.1056   6.5733  -3.9120   3.7683  -4.5372   0.00    0.0
2019/01/15 09:30:21.000   4280222.9687  -4034415.7943  -2458269.3166   5   6   5.2142   4.1052   6.5715  -3.9115   3.7671  -4.5356   0.00    0.0
2019/01/15 09:30:22.000   4280222.3839  -4034415.3376  -2458268.7918   5   6   5.2139   4.1048   6.5696  -3.9111   3.7658  -4.5340   0.00    0.0
2019/01/15 09:30:23.000   4280221.7815  -4034415.1294  -2458268.4500   5   6   5.2135   4.1044   6.5678  -3.9107   3.7645  -4.5324   0.00    0.0
2019/01/15 09:30:24.000   4280221.5702  -4034415.1207  -2458268.4110   5   6   5.2131   4.1040   6.5660  -3.9102   3.7632  -4.5308   0.00    0.0
2019/01/15 09:30:25.000   4280221.6145  -4034415.1955  -2458268.4104   5   6   5.2128   4.1036   6.5642  -3.9098   3.7620  -4.5292   0.00    0.0
2019/01/15 09:30:26.000   4280221.5328  -4034415.2336  -2458268.0611   5   6   5.2124   4.1032   6.5623  -3.9094   3.7607  -4.5276   0.00    0.0
2019/01/15 09:30:27.000   4280221.0996  -4034414.9531  -2458267.5365   5   6   5.2120   4.1028   6.5605  -3.9089   3.7594  -4.5260   0.00    0.0
2019/01/15 09:30:28.000   4280220.8046  -4034414.7430  -2458267.1801   5   6   5.2117   4.1024   6.5587  -3.9085   3.7582  -4.5244   0.00    0.0
2019/01/15 09:30:29.000   4280220.4708  -4034414.3381  -2458266.8454   5   6   5.2113   4.1020   6.5569  -3.9081   3.7569  -4.5228   0.00    0.0
2019/01/15 09:30:30.000   4280220.0321  -4034413.9605  -2458266.5646   5   6   5.2110   4.1017   6.5550  -3.9076   3.7556  -4.5212   0.00    0.0
2019/01/15 09:30:31.000   4280219.8550  -4034413.6715  -2458266.4487   5   6   5.2106   4.1013   6.5532  -3.9072   3.7544  -4.5196   0.00    0.0
2019/01/15 09:30:32.000   4280219.8902  -4034413.3424  -2458266.4456   5   6   5.2102   4.1009   6.5514  -3.9068   3.7531  -4.5180   0.00    0.0
2019/01/15 09:30:33.000   4280219.5754  -4034413.1480  -2458266.1222   5   6   5.2099   4.1005   6.5496  -3.9064   3.7518  -4.5164   0.00    0.0
2019/01/15 09:30:34.000   4280219.6086  -4034413.2470  -2458266.2694   5   6   5.2095   4.1001   6.5478  -3.9059   3.7506  -4.5148   0.00    0.0
2019/01/15 09:30:35.000   4280219.5577  -4034413.1100  -2458266.3952   5   6   5.2092   4.0997   6.5459  -3.9055   3.7493  -4.5132   0.00    0.0
2019/01/15 09:30:36.000   4280219.6429  -4034413.0677  -2458266.6594   5   6   5.2088   4.0993   6.5441  -3.9051   3.7480  -4.5117   0.00    0.0
2019/01/15 09:30:37.000   4280220.1629  -4034413.4030  -2458266.9918   5   6   5.2085   4.0989   6.5423  -3.9046   3.7468  -4.5101   0.00    0.0
2019/01/15 09:30:38.000   4280220.4956  -4034413.6743  -2458267.0628   5   6   5.2081   4.0986   6.5405  -3.9042   3.7455  -4.5085   0.00    0.0
2019/01/15 09:30:39.000   4280220.6460  -4034413.8577  -2458266.9547   5   6   5.2078   4.0982   6.5387  -3.9038   3.7443  -4.5069   0.00    0.0
2019/01/15 09:30:40.000   4280220.6078  -4034413.7703  -2458266.6734   5   6   5.2074   4.0978   6.5368  -3.9034   3.7430  -4.5053   0.00    0.0
2019/01/15 09:30:41.000   4280219.8297  -4034413.4481  -2458266.1752   5   6   5.2071   4.0974   6.5350  -3.9030   3.7417  -4.5037   0.00    0.0
2019/01/15 09:30:42.000   4280218.9191  -4034413.0054  -2458265.4519   5   6   5.2067   4.0970   6.5332  -3.9025   3.7405  -4.5021   0.00    0.0
2019/01/15 09:30:43.000   4280218.7310  -4034412.7612  -2458265.1271   5   6   5.2064   4.0966   6.5314  -3.9021   3.7392  -4.5005   0.00    0.0
2019/01/15 09:30:44.000   4280219.0477  -4034412.7148  -2458265.1838   5   6   5.2060   4.0963   6.5296  -3.9017   3.7380  -4.4989   0.00    0.0
2019/01/15 09:30:45.000   4280219.0042  -4034412.7017  -2458265.1727   5   6   5.2057   4.0959   6.5278  -3.9013   3.7367  -4.4973   0.00    0.0
2019/01/15 09:30:46.000   4280218.8869  -4034412.6907  -2458265.5799   5   6   5.2053   4.0955   6.5259  -3.9009   3.7355  -4.4957   0.00    0.0
2019/01/15 09:30:47.000   4280218.7242  -4034412.5979  -2458266.3115   5   6   5.2050   4.0951   6.5241  -3.9004   3.7342  -4.4941   0.00    0.0
2019/01/15 09:30:48.000   4280218.7294  -4034412.6130  -2458267.0459   5   6   5.2046   4.0947   6.5223  -3.9000   3.7329  -4.4925   0.00    0.0
2019/01/15 09:30:49.000   4280218.8770  -4034412.7447  -2458267.4061   5   6   5.2043   4.0944   6.5205  -3.8996   3.7317  -4.4910   0.00    0.0
2019/01/15 09:30:50.000   4280219.2743  -4034413.0241  -2458267.7390   5   6   5.2040   4.0940   6.5187  -3.8992   3.7304  -4.4894   0.00    0.0
2019/01/15 09:30:51.000   4280219.2336  -4034413.3244  -2458267.4708   5   6   5.2036   4.0936   6.5169  -3.8988   3.7292  -4.4878   0.00    0.0
2019/01/15 09:30:52.000   4280219.3916  -4034413.4419  -2458267.5235   5   6   5.2033   4.0932   6.5151  -3.8984   3.7279  -4.4862   0.00    0.0
2019/01/15 09:30:53.000   4280219.3891  -4034413.4663  -2458267.6077   5   6   5.2029   4.0929   6.5132  -3.8980   3.7267  -4.4846   0.00    0.0
2019/01/15 09:30:54.000   4280219.1071  -4034413.3391  -2458267.6847   5   6   5.2026   4.0925   6.5114  -3.8975   3.7254  -4.4830   0.00    0.0
2019/01/15 09:30:55.000   4280218.5058  -4034413.1050  -2458267.6852   5   6   5.2023   4.0921   6.5096  -3.8971   3.7242  -4.4814   0.00    0.0
2019/01/15 09:30:56.000   4280218.4151  -4034413.1842  -2458267.8323   5   6   5.2019   4.0917   6.5078  -3.8967   3.7229  -4.4799   0.00    0.0
2019/01/15 09:30:57.000   4280218.2541  -4034413.1614  -2458267.7799   5   6   5.2016   4.0914   6.5060  -3.8963   3.7217  -4.4783   0.00    0.0
2019/01/15 09:30:58.000   4280218.1766  -4034413.3034  -2458267.4384   5   6   5.2013   4.0910   6.5042  -3.8959   3.7204  -4.4767   0.00    0.0
2019/01/15 09:30:59.000   4280218.3537  -4034413.5761  -2458267.0866   5   6   5.2009   4.0906   6.5024  -3.8955   3.7192  -4.4751   0.00    0.0
2019/01/15 09:31:00.000   4280218.8332  -4034414.0740  -2458267.2425   5   6   5.2006   4.0902   6.5006  -3.8951   3.7179  -4.4735   0.00    0.0
2019/01/15 09:31:01.000   4280218.7175  -4034414.1845  -2458267.1575   5   6   5.2003   4.0899   6.4988  -3.8947   3.7167  -4.4719   0.00    0.0
2019/01/15 09:31:02.000   4280218.4325  -4034414.0175  -2458266.9701   5   6   5.1999   4.0895   6.4969  -3.8943   3.7154  -4.4704   0.00    0.0
2019/01/15 09:31:03.000   4280218.0871  -4034413.6580  -2458266.5726   5   6   5.1996   4.0891   6.4951  -3.8939   3.7142  -4.4688   0.00    0.0
2019/01/15 09:31:04.000   4280218.0641  -4034413.7030  -2458266.3570   5   6   5.1993   4.0888   6.4933  -3.8935   3.7130  -4.4672   0.00    0.0
2019/01/15 09:31:05.000   4280218.3717  -4034413.9820  -2458265.9636   5   6   5.1989   4.0884   6.4915  -3.8931   3.7117  -4.4656   0.00    0.0
2019/01/15 09:31:06.000   4280218.9354  -4034414.4137  -2458266.2399   5   6   5.1986   4.0880   6.4897  -3.8927   3.7105  -4.4640   0.00    0.0
2019/01/15 09:31:07.000   4280219.4720  -4034414.7871  -2458266.7269   5   6   5.1983   4.0876   6.4879  -3.8923   3.7092  -4.4625   0.00    0.0
2019/01/15 09:31:08.000   4280219.6083  -4034414.6954  -2458266.9317   5   6   5.1980   4.0873   6.4861  -3.8919   3.7080  -4.4609   0.00    0.0
2019/01/15 09:31:09.000   4280219.5156  -4034414.5890  -2458266.4392   5   6   5.1976   4.0869   6.4843  -3.8915   3.7067  -4.4593   0.00    0.0
2019/01/15 09:31:10.000   4280219.4715  -4034414.5492  -2458266.0835   5   6   5.1973   4.0865   6.4825  -3.8911   3.7055  -4.4577   0.00    0.0
2019/01/15 09:31:11.000   4280219.3831  -4034414.7070  -2458265.7339   5   6   5.1970   4.0862   6.4807  -3.8907   3.7043  -4.4562   0.00    0.0
2019/01/15 09:31:12.000   4280219.3160  -4034414.6335  -2458265.4267   5   6   5.1967   4.0858   6.4789  -3.8903   3.7030  -4.4546   0.00    0.0
2019/01/15 09:31:13.000   4280219.6364  -4034414.7230  -2458265.5652   5   6   5.1963   4.0855   6.4771  -3.8899   3.7018  -4.4530   0.00    0.0
2019/01/15 09:31:14.000   4280219.6976  -4034414.7140  -2458265.5941   5   6   5.1960   4.0851   6.4753  -3.8895   3.7006  -4.4514   0.00    0.0
2019/01/15 09:31:15.000   4280219.9010  -4034414.8409  -2458265.7225   5   6   5.1957   4.0847   6.4735  -3.8891   3.6993  -4.4499   0.00    0.0
2019/01/15 09:31:16.000   4280219.9665  -4034414.9043  -2458265.7714   5   6   5.1954   4.0844   6.4717  -3.8887   3.6981  -4.4483   0.00    0.0
2019/01/15 09:31:17.000   4280220.0413  -4034415.0767  -2458265.3829   5   6   5.1951   4.0840   6.4699  -3.8883   3.6968  -4.4467   0.00    0.0
2019/01/15 09:31:18.000   4280220.2247  -4034415.4831  -2458265.2045   5   6   5.1948   4.0836   6.4681  -3.8879   3.6956  -4.4451   0.00    0.0
2019/01/15 09:31:19.000   4280220.9018  -4034416.1063  -2458265.4977   5   6   5.1944   4.0833   6.4662  -3.8875   3.6944  -4.4436   0.00    0.0
2019/01/15 09:31:20.000   4280221.0845  -4034416.2549  -2458265.4097   5   6   5.1941   4.0829   6.4644  -3.8871   3.6931  -4.4420   0.00    0.0
2019/01/15 09:31:21.000   4280221.1096  -4034416.2290  -2458265.4285   5   6   5.1938   4.0826   6.4626  -3.8867   3.6919  -4.4404   0.00    0.0
2019/01/15 09:31:22.000   4280221.4521  -4034416.2751  -2458265.2116   5   6   5.1935   4.0822   6.4608  -3.8863   3.6907  -4.4389   0.00    0.0
2019/01/15 09:31:23.000   4280221.6470  -4034416.4613  -2458264.8109   5   6   5.1932   4.0818   6.4590  -3.8860   3.6895  -4.4373   0.00    0.0
2019/01/15 09:31:24.000   4280221.9024  -4034416.6064  -2458264.7631   5   6   5.1929   4.0815   6.4572  -3.8856   3.6882  -4.4357   0.00    0.0
2019/01/15 09:31:25.000   4280221.9864  -4034416.5801  -2458264.9333   5   6   5.1926   4.0811   6.4554  -3.8852   3.6870  -4.4342   0.00    0.0
2019/01/15 09:31:26.000   4280222.2785  -4034416.6063  -2458265.5651   5   6   5.1923   4.0808   6.4536  -3.8848   3.6858  -4.4326   0.00    0.0
2019/01/15 09:31:27.000   4280222.2999  -4034416.4248  -2458265.9191   5   6   5.1919   4.0804   6.4518  -3.8844   3.6845  -4.4310   0.00    0.0
2019/01/15 09:31:28.000   4280222.2608  -4034416.4232  -2458266.1602   5   6   5.1916   4.0801   6.4500  -3.8840   3.6833  -4.4295   0.00    0.0
2019/01/15 09:31:29.000   4280221.9700  -4034416.4935  -2458266.2542   5   6   5.1913   4.0797   6.4483  -3.8836   3.6821  -4.4279   0.00    0.0
2019/01/15 09:31:30.000   4280221.4882  -4034416.3493  -2458266.3479   5   6   5.1910   4.0794   6.4465  -3.8833   3.6809  -4.4263   0.00    0.0
2019/01/15 09:31:31.000   4280221.2259  -4034416.1777  -2458266.3952   5   6   5.1907   4.0790   6.4447  -3.8829   3.6796  -4.4248   0.00    0.0
2019/01/15 09:31:32.000   4280221.0591  -4034416.3569  -2458266.4067   5   6   5.1904   4.0786   6.4429  -3.8825   3.6784  -4.4232   0.00    0.0
2019/01/15 09:31:33.000   4280221.2860  -4034416.8468  -2458266.7624   5   6   5.1901   4.0783   6.4411  -3.8821   3.6772  -4.4216   0.00    0.0
2019/01/15 09:31:34.000   4280221.7002  -4034417.2543  -2458267.1012   5   6   5.1898   4.0779   6.4393  -3.8817   3.6760  -4.4201   0.00    0.0
2019/01/15 09:31:35.000   4280221.8661  -4034417.4392  -2458267.1922   5   6   5.1895   4.0776   6.4375  -3.8814   3.6747  -4.4185   0.00    0.0
2019/01/15 09:31:36.000   4280222.1828  -4034417.7497  -2458267.6558   5   6   5.1892   4.0772   6.4357  -3.8810   3.6735  -4.4169   0.00    0.0
2019/01/15 09:31:37.000   4280222.1319  -4034417.6473  -2458267.8414   5   6   5.1889   4.0769   6.4339  -3.8806   3.6723  -4.4154   0.00    0.0
2019/01/15 09:31:38.000   4280221.9734  -4034417.5962  -2458267.9162   5   6   5.1886   4.0765   6.4321  -3.8802   3.6711  -4.4138   0.00    0.0
2019/01/15 09:31:39.000   4280221.7082  -4034417.4252  -2458267.8876   5   6   5.1883   4.0762   6.4303  -3.8798   3.6699  -4.4123   0.00    0.0
2019/01/15 09:31:40.000   4280221.1262  -4034416.9176  -2458267.4577   5   6   5.1880   4.0758   6.4285  -3.8795   3.6686  -4.4107   0.00    0.0
2019/01/15 09:31:41.000   4280220.7436  -4034416.6954  -2458266.8499   5   6   5.1877   4.0755   6.4267  -3.8791   3.6674  -4.4091   0.00    0.0
2019/01/15 09:31:42.000   4280221.0019  -4034417.0245  -2458266.8882   5   6   5.1874   4.0751   6.4249  -3.8787   3.6662  -4.4076   0.00    0.0
2019/01/15 09:31:43.000   4280220.7716  -4034417.0404  -2458266.8630   5   6   5.1871   4.0748   6.4231  -3.8784   3.6650  -4.4060   0.00    0.0
2019/01/15 09:31:44.000   4280220.4811  -4034416.8711  -2458266.9817   5   6   5.1868   4.0745   6.4213  -3.8780   3.6638  -4.4045   0.00    0.0
2019/01/15 09:31:45.000   4280220.5388  -4034416.7848  -2458267.1476   5   6   5.1865   4.0741   6.4196  -3.8776   3.6626  -4.4029   0.00    0.0
2019/01/15 09:31:46.000   4280220.3875  -4034416.4607  -2458267.3685   5   6   5.1863   4.0738   6.4178  -3.8772   3.6613  -4.4014   0.00    0.0
2019/01/15 09:31:47.000   4280220.5266  -4034416.2171  -2458267.6745   5   6   5.1860   4.0734   6.4160  -3.8769   3.6601  -4.3998   0.00    0.0
2019/01/15 09:31:48.000   4280220.5319  -4034416.2633  -2458267.6715   5   6   5.1857   4.0731   6.4142  -3.8765   3.6589  -4.3983   0.00    0.0
2019/01/15 09:31:49.000   4280220.5972  -4034416.3395  -2458267.6853   5   6   5.1854   4.0727   6.4124  -3.8761   3.6577  -4.3967   0.00    0.0
2019/01/15 09:31:50.000   4280220.6799  -4034416.4558  -2458267.6421   5   6   5.1851   4.0724   6.4106  -3.8758   3.6565  -4.3951   0.00    0.0
2019/01/15 09:31:51.000   4280220.0924  -4034416.1304  -2458267.1122   5   6   5.1848   4.0721   6.4088  -3.8754   3.6553  -4.3936   0.00    0.0
2019/01/15 09:31:52.000   4280219.8201  -4034415.7829  -2458267.0136   5   6   5.1845   4.0717   6.4070  -3.8750   3.6541  -4.3920   0.00    0.0
2019/01/15 09:31:53.000   4280219.7504  -4034415.5572  -2458266.9976   5   6   5.1842   4.0714   6.4052  -3.8747   3.6529  -4.3905   0.00    0.0
2019/01/15 09:31:54.000   4280219.8830  -4034415.4487  -2458267.3556   5   6   5.1839   4.0710   6.4035  -3.8743   3.6517  -4.3889   0.00    0.0
2019/01/15 09:31:55.000   4280219.7827  -4034415.4505  -2458267.5369   5   6   5.1837   4.0707   6.4017  -3.8739   3.6504  -4.3874   0.00    0.0
2019/01/15 09:31:56.000   4280219.2924  -4034415.4549  -2458267.0262   5   6   5.1834   4.0704   6.3999  -3.8736   3.6492  -4.3858   0.00    0.0
2019/01/15 09:31:57.000   4280219.2928  -4034415.6558  -2458266.7746   5   6   5.1831   4.0700   6.3981  -3.8732   3.6480  -4.3843   0.00    0.0
2019/01/15 09:31:58.000   4280219.2996  -4034415.7988  -2458266.5384   5   6   5.1828   4.0697   6.3963  -3.8729   3.6468  -4.3827   0.00    0.0
2019/01/15 09:31:59.000   4280219.4756  -4034416.0492  -2458266.6372   5   6   5.1825   4.0693   6.3945  -3.8725   3.6456  -4.3812   0.00    0.0
2019/01/15 09:32:00.000   4280219.1902  -4034415.6770  -2458266.4877   5   6   5.1823   4.0690   6.3928  -3.8721   3.6444  -4.3797   0.00    0.0
2019/01/15 09:32:01.000   4280218.9126  -4034415.2354  -2458266.5384   5   6   5.1820   4.0687   6.3910  -3.8718   3.6432  -4.3781   0.00    0.0
2019/01/15 09:32:02.000   4280218.7492  -4034415.0660  -2458266.5035   5   6   5.1817   4.0683   6.3892  -3.8714   3.6420  -4.3766   0.00    0.0
2019/01/15 09:32:03.000   4280218.8353  -4034415.1776  -2458266.4368   5   6   5.1814   4.0680   6.3874  -3.8711   3.6408  -4.3750   0.00    0.0
2019/01/15 09:32:04.000   4280218.7754  -4034415.1687  -2458266.3625   5   6   5.1812   4.0677   6.3856  -3.8707   3.6396  -4.3735   0.00    0.0
2019/01/15 09:32:05.000   4280218.5098  -4034415.0170  -2458266.0297   5   6   5.1809   4.0673   6.3838  -3.8704   3.6384  -4.3719   0.00    0.0
2019/01/15 09:32:06.000   4280217.9401  -4034414.6005  -2458266.2560   5   6   5.1806   4.0670   6.3821  -3.8700   3.6372  -4.3704   0.00    0.0
2019/01/15 09:32:07.000   4280218.0287  -4034414.6775  -2458266.6694   5   6   5.1803   4.0667   6.3803  -3.8697   3.6360  -4.3688   0.00    0.0
2019/01/15 09:32:08.000   4280218.3591  -4034414.7993  -2458266.7543   5   6   5.1801   4.0663   6.3785  -3.8693   3.6348  -4.3673   0.00    0.0
2019/01/15 09:32:09.000   4280218.6437  -4034415.0489  -2458266.9152   5   6   5.1798   4.0660   6.3767  -3.8689   3.6336  -4.3658   0.00    0.0
2019/01/15 09:32:10.000   4280218.5068  -4034415.0046  -2458267.0671   5   6   5.1795   4.0657   6.3750  -3.8686   3.6324  -4.3642   0.00    0.0
2019/01/15 09:32:11.000   4280218.7632  -4034415.2640  -2458267.5268   5   6   5.1792   4.0653   6.3732  -3.8682   3.6312  -4.3627   0.00    0.0
2019/01/15 09:32:12.000   4280218.8781  -4034415.3875  -2458267.5487   5   6   5.1790   4.0650   6.3714  -3.8679   3.6300  -4.3611   0.00    0.0
2019/01/15 09:32:13.000   4280219.2479  -4034415.6054  -2458267.6809   5   6   5.1787   4.0647   6.3696  -3.8675   3.6288  -4.3596   0.00    0.0
2019/01/15 09:32:14.000   4280219.7193  -4034415.9082  -2458267.9229   5   6   5.1784   4.0643   6.3678  -3.8672   3.6276  -4.3581   0.00    0.0
2019/01/15 09:32:15.000   4280219.9194  -4034416.0797  -2458267.5332   5   6   5.1782   4.0640   6.3661  -3.8669   3.6264  -4.3565   0.00    0.0
2019/01/15 09:32:16.000   4280219.5928  -4034415.9218  -2458266.8024   5   6   5.1779   4.0637   6.3643  -3.8665   3.6252  -4.3550   0.00    0.0
2019/01/15 09:32:17.000   4280219.1147  -4034415.6538  -2458266.2294   5   6   5.1776   4.0634   6.3625  -3.8662   3.6241  -4.3534   0.00    0.0
2019/01/15 09:32:18.000   4280218.7890  -4034415.4382  -2458265.6919   5   6   5.1774   4.0630   6.3607  -3.8658   3.6229  -4.3519   0.00    0.0
2019/01/15 09:32:19.000   4280218.3230  -4034415.2613  -2458265.3885   5   6   5.1771   4.0627   6.3590  -3.8655   3.6217  -4.3504   0.00    0.0
2019/01/15 09:32:20.000   4280218.5724  -4034415.6737  -2458265.6441   5   6   5.1769   4.0624   6.3572  -3.8651   3.6205  -4.3488   0.00    0.0
2019/01/15 09:32:21.000   4280219.3581  -4034416.5851  -2458265.9250   5   6   5.1766   4.0621   6.3554  -3.8648   3.6193  -4.3473   0.00    0.0
2019/01/15 09:32:22.000   4280220.1709  -4034417.1562  -2458266.2622   5   6   5.1763   4.0617   6.3537  -3.8644   3.6181  -4.3458   0.00    0.0
2019/01/15 09:32:23.000   4280220.4633  -4034417.1279  -2458266.1127   5   6   5.1761   4.0614   6.3519  -3.8641   3.6169  -4.3442   0.00    0.0
2019/01/15 09:32:24.000   4280220.7496  -4034416.9434  -2458266.0595   5   6   5.1758   4.0611   6.3501  -3.8638   3.6157  -4.3427   0.00    0.0
2019/01/15 09:32:25.000   4280221.0861  -4034416.9643  -2458266.3533   5   6   5.1756   4.0608   6.3483  -3.8634   3.6145  -4.3412   0.00    0.0
2019/01/15 09:32:26.000   4280220.6947  -4034416.8763  -2458266.1478   5   6   5.1753   4.0604   6.3466  -3.8631   3.6134  -4.3396   0.00    0.0
2019/01/15 09:32:27.000   4280220.0307  -4034416.5936  -2458265.6911   5   6   5.1751   4.0601   6.3448  -3.8627   3.6122  -4.3381   0.00    0.0
2019/01/15 09:32:28.000   4280219.7180  -4034416.6016  -2458265.2860   5   6   5.1748   4.0598   6.3430  -3.8624   3.6110  -4.3366   0.00    0.0
2019/01/15 09:32:29.000   4280219.8801  -4034416.6976  -2458265.0282   5   6   5.1745   4.0595   6.3413  -3.8621   3.6098  -4.3351   0.00    0.0
2019/01/15 09:32:30.000   4280220.0671  -4034416.8990  -2458265.2743   5   6   5.1743   4.0592   6.3395  -3.8617   3.6086  -4.3335   0.00    0.0
2019/01/15 09:32:31.000   4280220.1926  -4034417.0312  -2458265.4366   5   6   5.1740   4.0588   6.3377  -3.8614   3.6074  -4.3320   0.00    0.0
2019/01/15 09:32:32.000   4280220.2043  -4034417.1181  -2458265.8753   5   6   5.1738   4.0585   6.3360  -3.8611   3.6063  -4.3305   0.00    0.0
2019/01/15 09:32:33.000   4280220.0078  -4034417.0639  -2458265.9870   5   6   5.1735   4.0582   6.3342  -3.8607   3.6051  -4.3289   0.00    0.0
2019/01/15 09:32:34.000   4280219.5698  -4034416.8911  -2458265.7886   5   6   5.1733   4.0579   6.3324  -3.8604   3.6039  -4.3274   0.00    0.0
2019/01/15 09:32:35.000   4280219.5240  -4034416.8544  -2458265.9117   5   6   5.1730   4.0576   6.3307  -3.8601   3.6027  -4.3259   0.00    0.0
2019/01/15 09:32:36.000   4280219.7959  -4034416.7062  -2458266.4197   5   6   5.1728   4.0573   6.3289  -3.8597   3.6015  -4.3244   0.00    0.0
2019/01/15 09:32:37.000   4280219.6661  -4034416.4391  -2458266.4927   5   6   5.1725   4.0569   6.3271  -3.8594   3.6004  -4.3228   0.00    0.0
2019/01/15 09:32:38.000   4280219.2432  -4034416.1649  -2458266.5613   5   6   5.1723   4.0566   6.3254  -3.8591   3.5992  -4.3213   0.00    0.0
2019/01/15 09:32:39.000   4280218.8363  -4034415.8821  -2458266.3520   5   6   5.1721   4.0563   6.3236  -3.8588   3.5980  -4.3198   0.00    0.0
2019/01/15 09:32:40.000   4280218.6486  -4034415.5084  -2458266.3537   5   6   5.1718   4.0560   6.3218  -3.8584   3.5968  -4.3183   0.00    0.0
2019/01/15 09:32:41.000   4280218.3584  -4034415.2240  -2458266.1161   5   6   5.1716   4.0557   6.3201  -3.8581   3.5956  -4.3167   0.00    0.0
2019/01/15 09:32:42.000   4280218.3711  -4034415.0854  -2458266.2412   5   6   5.1713   4.0554   6.3183  -3.8578   3.5945  -4.3152   0.00    0.0
2019/01/15 09:32:43.000   4280218.3691  -4034415.0086  -2458266.6256   5   6   5.1711   4.0551   6.3165  -3.8575   3.5933  -4.3137   0.00    0.0
2019/01/15 09:32:44.000   4280218.9636  -4034415.4291  -2458267.2268   5   6   5.1708   4.0548   6.3148  -3.8571   3.5921  -4.3122   0.00    0.0
2019/01/15 09:32:45.000   4280219.7577  -4034416.0947  -2458268.1153   5   6   5.1706   4.0544   6.3130  -3.8568   3.5910  -4.3107   0.00    0.0
2019/01/15 09:32:46.000   4280220.0415  -4034416.4460  -2458268.6304   5   6   5.1704   4.0541   6.3113  -3.8565   3.5898  -4.3091   0.00    0.0
2019/01/15 09:32:47.000   4280220.2415  -4034416.5370  -2458269.2307   5   6   5.1701   4.0538   6.3095  -3.8562   3.5886  -4.3076   0.00    0.0
2019/01/15 09:32:48.000   4280220.2162  -4034416.2850  -2458269.8498   5   6   5.1699   4.0535   6.3077  -3.8558   3.5874  -4.3061   0.00    0.0
2019/01/15 09:32:49.000   4280220.0506  -4034416.1607  -2458270.2383   5   6   5.1697   4.0532   6.3060  -3.8555   3.5863  -4.3046   0.00    0.0
2019/01/15 09:32:50.000   4280219.8199  -4034416.0429  -2458270.2386   5   6   5.1694   4.0529   6.3042  -3.8552   3.5851  -4.3031   0.00    0.0
2019/01/15 09:32:51.000   4280220.0528  -4034416.0517  -2458270.4629   5   6   5.1692   4.0526   6.3025  -3.8549   3.5839  -4.3016   0.00    0.0
2019/01/15 09:32:52.000   4280220.4109  -4034416.1114  -2458270.7997   5   6   5.1690   4.0523   6.3007  -3.8546   3.5828  -4.3000   0.00    0.0
2019/01/15 09:32:53.000   4280220.9068  -4034416.2969  -2458271.3113   5   6   5.1687   4.0520   6.2990  -3.8542   3.5816  -4.2985   0.00    0.0
2019/01/15 09:32:54.000   4280220.2991  -4034415.8470  -2458271.2973   5   6   5.1685   4.0517   6.2972  -3.8539   3.5804  -4.2970   0.00    0.0
2019/01/15 09:32:55.000   4280219.9236  -4034415.5913  -2458271.5519   5   6   5.1683   4.0514   6.2954  -3.8536   3.5793  -4.2955   0.00    0.0
2019/01/15 09:32:56.000   4280219.7521  -4034415.4068  -2458272.2858   5   6   5.1680   4.0511   6.2937  -3.8533   3.5781  -4.2940   0.00    0.0
2019/01/15 09:32:57.000   4280220.0065  -4034415.4104  -2458273.0476   5   6   5.1678   4.0508   6.2919  -3.8530   3.5769  -4.2925   0.00    0.0
2019/01/15 09:32:58.000   4280219.5358  -4034415.2748  -2458273.1165   5   6   5.1676   4.0505   6.2902  -3.8527   3.5758  -4.2910   0.00    0.0
2019/01/15 09:32:59.000   4280218.9819  -4034415.0566  -2458272.9835   5   6   5.1673   4.0501   6.2884  -3.8524   3.5746  -4.2895   0.00    0.0
2019/01/15 09:33:00.000   4280218.5802  -4034414.8825  -2458272.6426   5   6   5.1671   4.0498   6.2867  -3.8520   3.5735  -4.2880   0.00    0.0
2019/01/15 09:33:01.000   4280218.4935  -4034414.8722  -2458272.8848   5   6   5.1669   4.0495   6.2849  -3.8517   3.5723  -4.2864   0.00    0.0
2019/01/15 09:33:02.000   4280218.8301  -4034415.0727  -2458273.2768   5   6   5.1667   4.0492   6.2832  -3.8514   3.5711  -4.2849   0.00    0.0
2019/01/15 09:33:03.000   4280219.6872  -4034415.2486  -2458273.8372   5   6   5.1664   4.0489   6.2814  -3.8511   3.5700  -4.2834   0.00    0.0
2019/01/15 09:33:04.000   4280220.4119  -4034415.4104  -2458274.3205   5   6   5.1662   4.0486   6.2797  -3.8508   3.5688  -4.2819   0.00    0.0
2019/01/15 09:33:05.000   4280220.3316  -4034415.1380  -2458274.1864   5   6   5.1660   4.0483   6.2779  -3.8505   3.5677  -4.2804   0.00    0.0
2019/01/15 09:33:06.000   4280219.6820  -4034414.6249  -2458273.6525   5   6   5.1658   4.0480   6.2762  -3.8502   3.5665  -4.2789   0.00    0.0
2019/01/15 09:33:07.000   4280219.0605  -4034414.2127  -2458273.4807   5   6   5.1656   4.0477   6.2744  -3.8499   3.5653  -4.2774   0.00    0.0
2019/01/15 09:33:08.000   4280218.3974  -4034413.8941  -2458273.1125   5   6   5.1653   4.0474   6.2727  -3.8496   3.5642  -4.2759   0.00    0.0
2019/01/15 09:33:09.000   4280218.0241  -4034413.8505  -2458272.7336   5   6   5.1651   4.0472   6.2709  -3.8493   3.5630  -4.2744   0.00    0.0
2019/01/15 09:33:10.000   4280218.1042  -4034413.9626  -2458272.6805   5   6   5.1649   4.0469   6.2692  -3.8490   3.5619  -4.2729   0.00    0.0
2019/01/15 09:33:11.000   4280218.1794  -4034413.9839  -2458272.7467   5   6   5.1647   4.0466   6.2674  -3.8487   3.5607  -4.2714   0.00    0.0
2019/01/15 09:33:12.000   4280218.0546  -4034413.7666  -2458272.5141   5   6   5.1645   4.0463   6.2657  -3.8484   3.5596  -4.2699   0.00    0.0
2019/01/15 09:33:13.000   4280217.6358  -4034413.4112  -2458272.0338   5   6   5.1643   4.0460   6.2639  -3.8481   3.5584  -4.2684   0.00    0.0
2019/01/15 09:33:14.000   4280217.4506  -4034413.1141  -2458271.9228   5   6   5.1640   4.0457   6.2622  -3.8478   3.5573  -4.2669   0.00    0.0
2019/01/15 09:33:15.000   4280217.8131  -4034413.3061  -2458272.2834   5   6   5.1638   4.0454   6.2604  -3.8475   3.5561  -4.2654   0.00    0.0
2019/01/15 09:33:16.000   4280218.0108  -4034413.2940  -2458272.8679   5   6   5.1636   4.0451   6.2587  -3.8472   3.5550  -4.2639   0.00    0.0
2019/01/15 09:33:17.000   4280218.1114  -4034413.4090  -2458273.8336   5   6   5.1634   4.0448   6.2570  -3.8469   3.5538  -4.2624   0.00    0.0
2019/01/15 09:33:18.000   4280218.2777  -4034413.6927  -2458274.7250   5   6   5.1632   4.0445   6.2552  -3.8466   3.5527  -4.2609   0.00    0.0
2019/01/15 09:33:19.000   4280218.7878  -4034414.2454  -2458275.4322   5   6   5.1630   4.0442   6.2535  -3.8463   3.5515  -4.2594   0.00    0.0
2019/01/15 09:33:20.000   4280219.1185  -4034414.6078  -2458275.5842   5   6   5.1628   4.0439   6.2517  -3.8460   3.5504  -4.2579   0.00    0.0
2019/01/15 09:33:21.000   4280219.0389  -4034414.6679  -2458275.0996   5   6   5.1626   4.0436   6.2500  -3.8457   3.5492  -4.2564   0.00    0.0
2019/01/15 09:33:22.000   4280219.2934  -4034414.8764  -2458274.9396   5   6   5.1624   4.0433   6.2482  -3.8454   3.5481  -4.2549   0.00    0.0
2019/01/15 09:33:23.000   4280219.7057  -4034415.2237  -2458275.0757   5   6   5.1622   4.0430   6.2465  -3.8451   3.5469  -4.2534   0.00    0.0
2019/01/15 09:33:24.000   4280219.7941  -4034415.2987  -2458274.9921   5   6   5.1620   4.0428   6.2448  -3.8448   3.5458  -4.2519   0.00    0.0
2019/01/15 09:33:25.000   4280219.9919  -4034415.5176  -2458274.9512   5   6   5.1618   4.0425   6.2430  -3.8445   3.5447  -4.2504   0.00    0.0
2019/01/15 09:33:26.000   4280219.7139  -4034415.3174  -2458274.7140   5   6   5.1615   4.0422   6.2413  -3.8442   3.5435  -4.2489   0.00    0.0
2019/01/15 09:33:27.000   4280219.3511  -4034415.1025  -2458274.0332   5   6   5.1613   4.0419   6.2395  -3.8439   3.5424  -4.2474   0.00    0.0
2019/01/15 09:33:28.000   4280219.7522  -4034415.3099  -2458273.9629   5   6   5.1611   4.0416   6.2378  -3.8436   3.5412  -4.2459   0.00    0.0
2019/01/15 09:33:29.000   4280220.1998  -4034415.5516  -2458274.0659   5   6   5.1609   4.0413   6.2361  -3.8433   3.5401  -4.2444   0.00    0.0
2019/01/15 09:33:30.000   4280220.8622  -4034415.9927  -2458274.1598   5   6   5.1607   4.0410   6.2343  -3.8430   3.5389  -4.2430   0.00    0.0
2019/01/15 09:33:31.000   4280221.1320  -4034416.1385  -2458273.9330   5   6   5.1605   4.0407   6.2326  -3.8428   3.5378  -4.2415   0.00    0.0
2019/01/15 09:33:32.000   4280221.0544  -4034416.1110  -2458273.7210   5   6   5.1603   4.0405   6.2309  -3.8425   3.5367  -4.2400   0.00    0.0
2019/01/15 09:33:33.000   4280220.6155  -4034415.9253  -2458273.2850   5   6   5.1601   4.0402   6.2291  -3.8422   3.5355  -4.2385   0.00    0.0
2019/01/15 09:33:34.000   4280220.8338  -4034416.1228  -2458273.2724   5   6   5.1600   4.0399   6.2274  -3.8419   3.5344  -4.2370   0.00    0.0
2019/01/15 09:33:35.000   4280221.1880  -4034416.4059  -2458273.0335   5   6   5.1598   4.0396   6.2257  -3.8416   3.5333  -4.2355   0.00    0.0
2019/01/15 09:33:36.000   4280220.7186  -4034416.3521  -2458272.3398   5   6   5.1596   4.0393   6.2239  -3.8413   3.5321  -4.2340   0.00    0.0
2019/01/15 09:33:37.000   4280220.3957  -4034416.4896  -2458271.5744   5   6   5.1594   4.0390   6.2222  -3.8410   3.5310  -4.2325   0.00    0.0
2019/01/15 09:33:38.000   4280219.8783  -4034416.5736  -2458271.1916   5   6   5.1592   4.0388   6.2205  -3.8408   3.5299  -4.2311   0.00    0.0
2019/01/15 09:33:39.000   4280219.6672  -4034416.5562  -2458271.1261   5   6   5.1590   4.0385   6.2187  -3.8405   3.5287  -4.2296   0.00    0.0
2019/01/15 09:33:40.000   4280219.1240  -4034416.3781  -2458270.7366   5   6   5.1588   4.0382   6.2170  -3.8402   3.5276  -4.2281   0.00    0.0
2019/01/15 09:33:41.000   4280218.7447  -4034416.2799  -2458269.8762   5   6   5.1586   4.0379   6.2153  -3.8399   3.5265  -4.2266   0.00    0.0
2019/01/15 09:33:42.000   4280218.5365  -4034416.4803  -2458268.8605   5   6   5.1584   4.0376   6.2135  -3.8396   3.5253  -4.2251   0.00    0.0
2019/01/15 09:33:43.000   4280218.3187  -4034416.9252  -2458267.9564   5   6   5.1582   4.0374   6.2118  -3.8394   3.5242  -4.2236   0.00    0.0
2019/01/15 09:33:44.000   4280218.6259  -4034417.4443  -2458267.8353   5   6   5.1580   4.0371   6.2101  -3.8391   3.5231  -4.2222   0.00    0.0
2019/01/15 09:33:45.000   4280218.9003  -4034417.7872  -2458268.1080   5   6   5.1579   4.0368   6.2084  -3.8388   3.5219  -4.2207   0.00    0.0
2019/01/15 09:33:46.000   4280218.3813  -4034417.4468  -2458268.2918   5   6   5.1577   4.0365   6.2066  -3.8385   3.5208  -4.2192   0.00    0.0
2019/01/15 09:33:47.000   4280217.8437  -4034416.9603  -2458268.5623   5   6   5.1575   4.0363   6.2049  -3.8383   3.5197  -4.2177   0.00    0.0
2019/01/15 09:33:48.000   4280217.7574  -4034416.7810  -2458268.8598   5   6   5.1573   4.0360   6.2032  -3.8380   3.5186  -4.2162   0.00    0.0
2019/01/15 09:33:49.000   4280217.8503  -4034416.7860  -2458269.0515   5   6   5.1571   4.0357   6.2014  -3.8377   3.5174  -4.2148   0.00    0.0
2019/01/15 09:33:50.000   4280218.1260  -4034416.8454  -2458269.0281   5   6   5.1569   4.0354   6.1997  -3.8374   3.5163  -4.2133   0.00    0.0
