% program   : RTKPOST ver.2.4.2
% inp file  : D:\Google Drive\UERJ\_Projeto Final\20190115_Marco 91500 IBGE\20190115_LevantamentoCompleto.19o
% inp file  : D:\Google Drive\UERJ\_Projeto Final\20190115_Marco 91500 IBGE\brdm0150.19p
% obs start : 2019/01/15 09:25:22.0 GPST (week2036 206722.0s)
% obs end   : 2019/01/15 10:25:42.0 GPST (week2036 210342.0s)
% pos mode  : single
% elev mask : 15.0 deg
% ionos opt : broadcast
% tropo opt : saastamoinen
% ephemeris : broadcast
%
% (x/y/z-ecef=WGS84,Q=1:fix,2:float,3:sbas,4:dgps,5:single,6:ppp,ns=# of satellites)
%  GPST                      x-ecef(m)      y-ecef(m)      z-ecef(m)   Q  ns   sdx(m)   sdy(m)   sdz(m)  sdxy(m)  sdyz(m)  sdzx(m) age(s)  ratio
2019/01/15 09:25:22.000   4280233.1717  -4034427.9486  -2458271.8181   5   6   4.8327   5.1596   4.1740  -4.0107  -2.1828  -2.1275   0.00    0.0
2019/01/15 09:25:23.000   4280228.2552  -4034431.6112  -2458288.5966   5   6   4.8334   5.1599   4.1740  -4.0115  -2.1826  -2.1274   0.00    0.0
2019/01/15 09:25:24.000   4280228.7038  -4034430.8167  -2458278.0008   5   6   4.8341   5.1603   4.1741  -4.0123  -2.1824  -2.1273   0.00    0.0
2019/01/15 09:25:25.000   4280220.9106  -4034428.1757  -2458264.8263   5   6   4.8348   5.1606   4.1741  -4.0131  -2.1822  -2.1272   0.00    0.0
2019/01/15 09:25:26.000   4280215.3072  -4034420.4465  -2458254.2281   5   6   4.8356   5.1610   4.1741  -4.0138  -2.1820  -2.1271   0.00    0.0
2019/01/15 09:25:27.000   4280221.3341  -4034416.3309  -2458291.1632   5   5   5.3834   5.2333   8.7391  -4.2618   1.3721  -4.7623   0.00    0.0
2019/01/15 09:25:28.000   4280236.8883  -4034434.5460  -2458287.7606   5   6   4.8370   5.1617   4.1742  -4.0154  -2.1817  -2.1270   0.00    0.0
2019/01/15 09:25:29.000   4280215.5902  -4034411.3353  -2458283.0038   5   5   5.3827   5.2339   8.7312  -4.2626   1.3679  -4.7562   0.00    0.0
2019/01/15 09:25:30.000   4280236.2061  -4034430.5835  -2458290.1500   5   5   5.3823   5.2342   8.7272  -4.2630   1.3657  -4.7532   0.00    0.0
2019/01/15 09:25:31.000   4280216.5191  -4034411.2897  -2458266.9443   5   5   5.3820   5.2345   8.7233  -4.2634   1.3636  -4.7502   0.00    0.0
2019/01/15 09:25:32.000   4280209.2987  -4034404.3531  -2458269.8797   5   5   5.3817   5.2348   8.7194  -4.2638   1.3615  -4.7472   0.00    0.0
2019/01/15 09:25:33.000   4280231.2912  -4034431.3452  -2458285.9301   5   5   5.3813   5.2350   8.7154  -4.2642   1.3594  -4.7442   0.00    0.0
2019/01/15 09:25:34.000   4280218.5029  -4034409.1852  -2458266.1820   5   5   5.3810   5.2353   8.7115  -4.2646   1.3573  -4.7412   0.00    0.0
2019/01/15 09:25:35.000   4280229.6090  -4034429.8297  -2458287.7683   5   5   5.3806   5.2356   8.7076  -4.2650   1.3552  -4.7382   0.00    0.0
2019/01/15 09:25:36.000   4280227.0288  -4034424.9983  -2458273.1195   5   5   5.3803   5.2359   8.7036  -4.2654   1.3531  -4.7352   0.00    0.0
2019/01/15 09:25:37.000   4280231.3013  -4034429.1610  -2458283.8638   5   5   5.3799   5.2362   8.6997  -4.2658   1.3510  -4.7322   0.00    0.0
2019/01/15 09:25:38.000   4280233.5226  -4034424.5531  -2458292.8447   5   6   5.3525   4.2419   7.0983  -4.0676   4.1523  -5.0074   0.00    0.0
2019/01/15 09:25:39.000   4280223.9167  -4034416.8553  -2458270.1769   5   6   5.3519   4.2413   7.0964  -4.0669   4.1509  -5.0057   0.00    0.0
2019/01/15 09:25:40.000   4280221.9625  -4034426.4810  -2458294.5500   5   6   5.3513   4.2407   7.0945  -4.0662   4.1495  -5.0040   0.00    0.0
2019/01/15 09:25:41.000   4280234.6263  -4034432.9718  -2458298.8361   5   6   5.3507   4.2402   7.0926  -4.0656   4.1480  -5.0022   0.00    0.0
2019/01/15 09:25:42.000   4280227.1565  -4034423.7956  -2458278.5759   5   6   5.3501   4.2396   7.0908  -4.0649   4.1466  -5.0005   0.00    0.0
2019/01/15 09:25:43.000   4280218.8316  -4034414.4153  -2458276.5329   5   6   5.3495   4.2390   7.0889  -4.0643   4.1451  -4.9988   0.00    0.0
2019/01/15 09:25:44.000   4280227.6458  -4034431.1238  -2458286.4783   5   6   5.3489   4.2384   7.0870  -4.0636   4.1437  -4.9971   0.00    0.0
2019/01/15 09:25:45.000   4280227.3969  -4034426.0587  -2458276.3625   5   6   5.3483   4.2379   7.0851  -4.0629   4.1423  -4.9954   0.00    0.0
2019/01/15 09:25:46.000   4280227.6696  -4034423.5017  -2458279.7890   5   6   5.3477   4.2373   7.0833  -4.0623   4.1408  -4.9937   0.00    0.0
2019/01/15 09:25:47.000   4280226.3655  -4034424.3617  -2458293.3951   5   6   5.3471   4.2367   7.0814  -4.0616   4.1394  -4.9920   0.00    0.0
2019/01/15 09:25:48.000   4280222.1289  -4034422.3972  -2458282.9677   5   6   5.3465   4.2362   7.0795  -4.0610   4.1380  -4.9902   0.00    0.0
2019/01/15 09:25:49.000   4280218.5052  -4034419.0433  -2458274.7436   5   6   5.3459   4.2356   7.0776  -4.0603   4.1365  -4.9885   0.00    0.0
2019/01/15 09:25:50.000   4280217.3780  -4034410.8756  -2458262.9938   5   6   5.3453   4.2351   7.0758  -4.0597   4.1351  -4.9868   0.00    0.0
2019/01/15 09:25:51.000   4280225.8901  -4034414.2712  -2458278.3658   5   6   5.3447   4.2345   7.0739  -4.0590   4.1337  -4.9851   0.00    0.0
2019/01/15 09:25:52.000   4280227.7488  -4034415.6365  -2458267.5335   5   6   5.3441   4.2339   7.0720  -4.0584   4.1322  -4.9834   0.00    0.0
2019/01/15 09:25:53.000   4280218.2247  -4034402.6996  -2458277.1163   5   6   5.3435   4.2334   7.0701  -4.0577   4.1308  -4.9817   0.00    0.0
2019/01/15 09:25:54.000   4280227.4546  -4034419.3396  -2458282.0920   5   6   5.3429   4.2328   7.0682  -4.0571   4.1294  -4.9800   0.00    0.0
2019/01/15 09:25:55.000   4280216.7358  -4034408.9250  -2458277.9179   5   6   5.3423   4.2322   7.0664  -4.0564   4.1279  -4.9783   0.00    0.0
2019/01/15 09:25:56.000   4280216.8208  -4034408.9585  -2458261.6241   5   6   5.3417   4.2317   7.0645  -4.0558   4.1265  -4.9766   0.00    0.0
2019/01/15 09:25:57.000   4280227.9755  -4034409.5310  -2458270.6776   5   6   5.3412   4.2311   7.0626  -4.0551   4.1251  -4.9748   0.00    0.0
2019/01/15 09:25:58.000   4280221.2539  -4034414.6678  -2458286.2943   5   6   5.3406   4.2306   7.0607  -4.0545   4.1236  -4.9731   0.00    0.0
2019/01/15 09:25:59.000   4280213.7756  -4034410.2339  -2458254.3347   5   6   5.3400   4.2300   7.0589  -4.0538   4.1222  -4.9714   0.00    0.0
2019/01/15 09:26:00.000   4280228.7095  -4034423.4437  -2458287.6526   5   6   5.3394   4.2294   7.0570  -4.0532   4.1208  -4.9697   0.00    0.0
2019/01/15 09:26:01.000   4280219.3914  -4034410.5059  -2458269.7363   5   6   5.3388   4.2289   7.0551  -4.0525   4.1193  -4.9680   0.00    0.0
2019/01/15 09:26:02.000   4280208.9503  -4034404.6418  -2458248.8701   5   6   5.3382   4.2283   7.0532  -4.0519   4.1179  -4.9663   0.00    0.0
2019/01/15 09:26:03.000   4280219.0042  -4034411.0768  -2458272.7331   5   6   5.3376   4.2278   7.0514  -4.0512   4.1165  -4.9646   0.00    0.0
2019/01/15 09:26:04.000   4280220.5476  -4034414.3808  -2458268.0565   5   6   5.3370   4.2272   7.0495  -4.0506   4.1151  -4.9629   0.00    0.0
2019/01/15 09:26:05.000   4280221.3175  -4034411.2642  -2458268.6473   5   6   5.3365   4.2266   7.0476  -4.0500   4.1136  -4.9612   0.00    0.0
2019/01/15 09:26:06.000   4280224.8725  -4034417.3306  -2458277.8006   5   6   5.3359   4.2261   7.0457  -4.0493   4.1122  -4.9595   0.00    0.0
2019/01/15 09:26:07.000   4280225.2823  -4034420.5500  -2458281.9743   5   6   5.3353   4.2255   7.0438  -4.0487   4.1108  -4.9577   0.00    0.0
2019/01/15 09:26:08.000   4280226.9430  -4034410.5625  -2458272.7583   5   6   5.3347   4.2250   7.0420  -4.0480   4.1093  -4.9560   0.00    0.0
2019/01/15 09:26:09.000   4280216.0348  -4034416.6688  -2458258.6272   5   6   5.3341   4.2244   7.0401  -4.0474   4.1079  -4.9543   0.00    0.0
2019/01/15 09:26:10.000   4280213.5049  -4034410.9501  -2458278.5706   5   6   5.3335   4.2239   7.0382  -4.0468   4.1065  -4.9526   0.00    0.0
2019/01/15 09:26:11.000   4280219.5723  -4034412.9901  -2458279.6401   5   6   5.3330   4.2233   7.0363  -4.0461   4.1051  -4.9509   0.00    0.0
2019/01/15 09:26:12.000   4280230.7533  -4034425.3706  -2458277.8021   5   6   5.3324   4.2228   7.0345  -4.0455   4.1036  -4.9492   0.00    0.0
2019/01/15 09:26:13.000   4280224.3383  -4034422.2679  -2458276.2431   5   6   5.3318   4.2222   7.0326  -4.0448   4.1022  -4.9475   0.00    0.0
2019/01/15 09:26:14.000   4280224.1535  -4034424.4141  -2458280.9994   5   6   5.3312   4.2217   7.0307  -4.0442   4.1008  -4.9458   0.00    0.0
2019/01/15 09:26:15.000   4280223.1802  -4034416.8644  -2458261.5105   5   6   5.3306   4.2211   7.0288  -4.0436   4.0994  -4.9441   0.00    0.0
2019/01/15 09:26:16.000   4280229.5501  -4034420.2684  -2458279.0807   5   6   5.3301   4.2206   7.0269  -4.0429   4.0980  -4.9424   0.00    0.0
2019/01/15 09:26:17.000   4280220.4065  -4034411.9877  -2458259.8285   5   6   5.3295   4.2200   7.0251  -4.0423   4.0965  -4.9407   0.00    0.0
2019/01/15 09:26:18.000   4280225.6245  -4034417.9399  -2458274.8476   5   6   5.3289   4.2195   7.0232  -4.0417   4.0951  -4.9390   0.00    0.0
2019/01/15 09:26:19.000   4280221.7542  -4034417.6518  -2458289.2972   5   6   5.3284   4.2189   7.0213  -4.0410   4.0937  -4.9373   0.00    0.0
2019/01/15 09:26:20.000   4280214.0188  -4034402.0867  -2458248.6054   5   6   5.3278   4.2184   7.0194  -4.0404   4.0923  -4.9356   0.00    0.0
2019/01/15 09:26:21.000   4280225.5120  -4034419.5966  -2458279.7807   5   6   5.3272   4.2178   7.0176  -4.0398   4.0909  -4.9339   0.00    0.0
2019/01/15 09:26:22.000   4280223.5243  -4034415.3157  -2458286.7420   5   6   5.3266   4.2173   7.0157  -4.0391   4.0894  -4.9321   0.00    0.0
2019/01/15 09:26:24.000   4280233.9185  -4034424.7137  -2458289.2301   5   6   5.3255   4.2162   7.0119  -4.0379   4.0866  -4.9287   0.00    0.0
2019/01/15 09:26:25.000   4280239.1789  -4034430.9990  -2458304.5696   5   6   5.3249   4.2157   7.0100  -4.0373   4.0852  -4.9270   0.00    0.0
2019/01/15 09:26:26.000   4280230.1785  -4034419.7293  -2458286.9760   5   6   5.3244   4.2151   7.0082  -4.0366   4.0838  -4.9253   0.00    0.0
2019/01/15 09:26:27.000   4280224.3877  -4034414.5454  -2458280.2805   5   6   5.3238   4.2146   7.0063  -4.0360   4.0824  -4.9236   0.00    0.0
2019/01/15 09:26:28.000   4280228.0938  -4034425.7655  -2458291.8054   5   6   5.3232   4.2140   7.0044  -4.0354   4.0809  -4.9219   0.00    0.0
2019/01/15 09:26:29.000   4280229.5578  -4034426.7691  -2458275.3888   5   6   5.3227   4.2135   7.0025  -4.0348   4.0795  -4.9202   0.00    0.0
2019/01/15 09:26:30.000   4280223.0698  -4034423.3924  -2458294.8223   5   6   5.3221   4.2130   7.0007  -4.0341   4.0781  -4.9185   0.00    0.0
2019/01/15 09:26:31.000   4280214.2445  -4034408.3368  -2458272.0007   5   6   5.3215   4.2124   6.9988  -4.0335   4.0767  -4.9168   0.00    0.0
2019/01/15 09:26:32.000   4280222.4118  -4034422.2370  -2458270.1043   5   6   5.3210   4.2119   6.9969  -4.0329   4.0753  -4.9151   0.00    0.0
2019/01/15 09:26:33.000   4280231.1173  -4034430.0396  -2458289.5971   5   6   5.3204   4.2113   6.9950  -4.0323   4.0739  -4.9134   0.00    0.0
2019/01/15 09:26:34.000   4280225.3804  -4034418.9793  -2458275.2735   5   6   5.3198   4.2108   6.9932  -4.0316   4.0725  -4.9117   0.00    0.0
2019/01/15 09:26:36.000   4280235.1314  -4034428.3883  -2458270.5626   5   6   5.3187   4.2097   6.9894  -4.0304   4.0696  -4.9083   0.00    0.0
2019/01/15 09:26:37.000   4280228.5513  -4034424.4826  -2458278.6309   5   6   5.3182   4.2092   6.9875  -4.0298   4.0682  -4.9066   0.00    0.0
2019/01/15 09:26:38.000   4280233.2899  -4034434.4193  -2458277.3623   5   6   5.3176   4.2087   6.9857  -4.0292   4.0668  -4.9049   0.00    0.0
2019/01/15 09:26:39.000   4280228.6589  -4034430.3431  -2458280.3688   5   6   5.3170   4.2081   6.9838  -4.0286   4.0654  -4.9032   0.00    0.0
2019/01/15 09:26:40.000   4280230.6320  -4034426.4772  -2458288.7401   5   6   5.3165   4.2076   6.9819  -4.0279   4.0640  -4.9015   0.00    0.0
2019/01/15 09:26:41.000   4280218.8483  -4034418.2504  -2458260.9657   5   6   5.3159   4.2071   6.9800  -4.0273   4.0626  -4.8998   0.00    0.0
2019/01/15 09:26:43.000   4280230.5628  -4034425.3802  -2458267.6739   5   6   5.3148   4.2060   6.9763  -4.0261   4.0598  -4.8964   0.00    0.0
2019/01/15 09:26:44.000   4280237.3135  -4034428.2351  -2458289.9373   5   6   5.3143   4.2055   6.9744  -4.0255   4.0584  -4.8947   0.00    0.0
2019/01/15 09:26:45.000   4280214.0729  -4034411.2350  -2458258.3188   5   6   5.3137   4.2049   6.9725  -4.0249   4.0570  -4.8930   0.00    0.0
2019/01/15 09:26:46.000   4280239.2261  -4034429.3549  -2458284.3341   5   6   5.3132   4.2044   6.9706  -4.0243   4.0555  -4.8913   0.00    0.0
2019/01/15 09:26:47.000   4280236.0257  -4034429.3478  -2458283.6465   5   6   5.3126   4.2039   6.9688  -4.0237   4.0541  -4.8896   0.00    0.0
2019/01/15 09:26:49.000   4280234.6737  -4034426.8199  -2458283.2973   5   6   5.3115   4.2028   6.9650  -4.0224   4.0513  -4.8862   0.00    0.0
2019/01/15 09:26:50.000   4280240.1325  -4034435.3630  -2458297.3584   5   6   5.3110   4.2023   6.9631  -4.0218   4.0499  -4.8845   0.00    0.0
2019/01/15 09:26:51.000   4280235.2751  -4034428.5018  -2458282.0290   5   6   5.3104   4.2018   6.9613  -4.0212   4.0485  -4.8828   0.00    0.0
2019/01/15 09:26:52.000   4280236.9809  -4034434.0129  -2458293.3795   5   6   5.3099   4.2012   6.9594  -4.0206   4.0471  -4.8811   0.00    0.0
2019/01/15 09:26:53.000   4280232.6300  -4034420.2817  -2458277.7036   5   6   5.3093   4.2007   6.9575  -4.0200   4.0457  -4.8795   0.00    0.0
2019/01/15 09:26:54.000   4280238.3940  -4034434.0789  -2458280.2912   5   6   5.3088   4.2002   6.9556  -4.0194   4.0443  -4.8778   0.00    0.0
2019/01/15 09:26:55.000   4280234.2591  -4034429.7703  -2458287.4258   5   6   5.3082   4.1997   6.9538  -4.0188   4.0429  -4.8761   0.00    0.0
2019/01/15 09:26:56.000   4280234.5282  -4034429.4116  -2458273.2202   5   6   5.3077   4.1991   6.9519  -4.0182   4.0415  -4.8744   0.00    0.0
2019/01/15 09:26:57.000   4280227.6370  -4034416.2191  -2458273.3290   5   6   5.3072   4.1986   6.9500  -4.0176   4.0401  -4.8727   0.00    0.0
2019/01/15 09:26:58.000   4280226.1683  -4034423.4733  -2458276.4778   5   6   5.3066   4.1981   6.9481  -4.0170   4.0387  -4.8710   0.00    0.0
2019/01/15 09:26:59.000   4280224.9239  -4034422.9229  -2458264.0984   5   6   5.3061   4.1976   6.9463  -4.0164   4.0373  -4.8693   0.00    0.0
2019/01/15 09:27:00.000   4280229.9009  -4034421.5222  -2458267.6865   5   6   5.3055   4.1971   6.9444  -4.0158   4.0359  -4.8676   0.00    0.0
2019/01/15 09:27:01.000   4280219.3397  -4034414.2181  -2458271.6130   5   6   5.3050   4.1965   6.9425  -4.0152   4.0345  -4.8659   0.00    0.0
2019/01/15 09:27:02.000   4280214.9185  -4034419.7190  -2458257.9530   5   6   5.3045   4.1960   6.9406  -4.0146   4.0331  -4.8642   0.00    0.0
2019/01/15 09:27:03.000   4280218.7548  -4034419.1341  -2458281.9954   5   6   5.3039   4.1955   6.9388  -4.0140   4.0317  -4.8625   0.00    0.0
2019/01/15 09:27:04.000   4280215.1158  -4034413.9949  -2458257.7646   5   6   5.3034   4.1950   6.9369  -4.0134   4.0303  -4.8608   0.00    0.0
2019/01/15 09:27:05.000   4280225.6167  -4034427.9857  -2458284.7940   5   6   5.3028   4.1945   6.9350  -4.0128   4.0289  -4.8591   0.00    0.0
2019/01/15 09:27:06.000   4280216.1828  -4034423.7277  -2458265.4931   5   6   5.3023   4.1939   6.9331  -4.0122   4.0275  -4.8575   0.00    0.0
2019/01/15 09:27:07.000   4280233.6869  -4034431.2733  -2458287.0119   5   6   5.3018   4.1934   6.9313  -4.0116   4.0261  -4.8558   0.00    0.0
2019/01/15 09:27:08.000   4280207.1018  -4034412.1993  -2458261.5080   5   6   5.3012   4.1929   6.9294  -4.0110   4.0248  -4.8541   0.00    0.0
2019/01/15 09:27:09.000   4280217.4709  -4034415.0406  -2458270.7105   5   6   5.3007   4.1924   6.9275  -4.0104   4.0234  -4.8524   0.00    0.0
2019/01/15 09:27:10.000   4280221.9252  -4034424.0277  -2458279.1127   5   6   5.3002   4.1919   6.9256  -4.0098   4.0220  -4.8507   0.00    0.0
2019/01/15 09:27:11.000   4280227.9840  -4034426.6892  -2458275.7190   5   6   5.2996   4.1914   6.9238  -4.0093   4.0206  -4.8490   0.00    0.0
2019/01/15 09:27:12.000   4280222.3358  -4034419.1764  -2458271.8798   5   6   5.2991   4.1909   6.9219  -4.0087   4.0192  -4.8473   0.00    0.0
2019/01/15 09:27:13.000   4280215.3390  -4034410.8882  -2458259.5617   5   6   5.2986   4.1903   6.9200  -4.0081   4.0178  -4.8456   0.00    0.0
2019/01/15 09:27:14.000   4280221.5917  -4034420.4380  -2458275.1176   5   6   5.2981   4.1898   6.9181  -4.0075   4.0164  -4.8439   0.00    0.0
2019/01/15 09:27:15.000   4280217.3450  -4034417.4698  -2458275.5871   5   6   5.2975   4.1893   6.9163  -4.0069   4.0150  -4.8422   0.00    0.0
2019/01/15 09:27:16.000   4280221.0807  -4034412.0491  -2458255.9261   5   6   5.2970   4.1888   6.9144  -4.0063   4.0136  -4.8406   0.00    0.0
2019/01/15 09:27:17.000   4280218.5077  -4034406.2471  -2458262.6848   5   6   5.2965   4.1883   6.9125  -4.0057   4.0122  -4.8389   0.00    0.0
2019/01/15 09:27:18.000   4280230.5781  -4034419.9822  -2458278.5489   5   6   5.2959   4.1878   6.9106  -4.0051   4.0108  -4.8372   0.00    0.0
2019/01/15 09:27:19.000   4280216.3369  -4034407.6445  -2458257.9670   5   6   5.2954   4.1873   6.9088  -4.0046   4.0095  -4.8355   0.00    0.0
2019/01/15 09:27:20.000   4280211.9217  -4034402.7761  -2458269.3180   5   6   5.2949   4.1868   6.9069  -4.0040   4.0081  -4.8338   0.00    0.0
2019/01/15 09:27:21.000   4280218.8114  -4034414.1290  -2458284.5692   5   6   5.2944   4.1863   6.9050  -4.0034   4.0067  -4.8321   0.00    0.0
2019/01/15 09:27:22.000   4280225.3889  -4034416.3929  -2458286.0437   5   6   5.2939   4.1858   6.9032  -4.0028   4.0053  -4.8304   0.00    0.0
2019/01/15 09:27:23.000   4280209.9607  -4034404.0860  -2458282.6972   5   6   5.2933   4.1853   6.9013  -4.0022   4.0039  -4.8288   0.00    0.0
2019/01/15 09:27:24.000   4280212.9797  -4034404.1693  -2458255.4595   5   6   5.2928   4.1848   6.8994  -4.0017   4.0025  -4.8271   0.00    0.0
2019/01/15 09:27:25.000   4280208.5997  -4034395.8369  -2458259.4187   5   6   5.2923   4.1843   6.8975  -4.0011   4.0011  -4.8254   0.00    0.0
2019/01/15 09:27:26.000   4280208.0426  -4034392.6912  -2458246.3954   5   6   5.2918   4.1837   6.8957  -4.0005   3.9998  -4.8237   0.00    0.0
2019/01/15 09:27:27.000   4280214.2510  -4034410.1075  -2458265.6907   5   6   5.2913   4.1832   6.8938  -3.9999   3.9984  -4.8220   0.00    0.0
2019/01/15 09:27:28.000   4280209.0689  -4034405.6514  -2458253.7140   5   6   5.2907   4.1827   6.8919  -3.9993   3.9970  -4.8203   0.00    0.0
2019/01/15 09:27:29.000   4280209.2385  -4034406.1918  -2458251.2982   5   6   5.2902   4.1822   6.8901  -3.9988   3.9956  -4.8187   0.00    0.0
2019/01/15 09:27:30.000   4280214.8633  -4034414.0600  -2458256.2957   5   6   5.2897   4.1817   6.8882  -3.9982   3.9942  -4.8170   0.00    0.0
2019/01/15 09:27:31.000   4280214.6338  -4034411.1489  -2458261.5002   5   6   5.2892   4.1812   6.8863  -3.9976   3.9929  -4.8153   0.00    0.0
2019/01/15 09:27:32.000   4280216.4203  -4034414.5600  -2458252.2026   5   6   5.2887   4.1807   6.8844  -3.9970   3.9915  -4.8136   0.00    0.0
2019/01/15 09:27:33.000   4280228.0568  -4034425.3188  -2458280.1520   5   6   5.2882   4.1802   6.8826  -3.9965   3.9901  -4.8119   0.00    0.0
2019/01/15 09:27:34.000   4280216.9407  -4034424.1378  -2458267.7564   5   6   5.2877   4.1797   6.8807  -3.9959   3.9887  -4.8103   0.00    0.0
2019/01/15 09:27:35.000   4280228.2533  -4034422.7562  -2458266.7717   5   6   5.2871   4.1792   6.8788  -3.9953   3.9873  -4.8086   0.00    0.0
2019/01/15 09:27:36.000   4280232.7134  -4034425.5665  -2458284.7594   5   6   5.2866   4.1787   6.8769  -3.9947   3.9860  -4.8069   0.00    0.0
2019/01/15 09:27:37.000   4280220.4119  -4034415.3875  -2458269.6974   5   6   5.2861   4.1782   6.8751  -3.9942   3.9846  -4.8052   0.00    0.0
2019/01/15 09:27:38.000   4280224.9075  -4034414.3221  -2458272.1258   5   6   5.2856   4.1777   6.8732  -3.9936   3.9832  -4.8035   0.00    0.0
2019/01/15 09:27:39.000   4280225.4426  -4034415.4229  -2458266.2521   5   6   5.2851   4.1772   6.8713  -3.9930   3.9818  -4.8019   0.00    0.0
2019/01/15 09:27:40.000   4280227.5169  -4034416.6558  -2458285.3077   5   6   5.2846   4.1768   6.8695  -3.9925   3.9804  -4.8002   0.00    0.0
2019/01/15 09:27:41.000   4280229.0812  -4034412.5792  -2458287.7715   5   6   5.2841   4.1763   6.8676  -3.9919   3.9791  -4.7985   0.00    0.0
2019/01/15 09:27:42.000   4280225.6613  -4034415.8077  -2458292.7683   5   6   5.2836   4.1758   6.8657  -3.9913   3.9777  -4.7968   0.00    0.0
2019/01/15 09:27:43.000   4280227.8052  -4034411.9869  -2458287.0355   5   6   5.2831   4.1753   6.8639  -3.9908   3.9763  -4.7951   0.00    0.0
2019/01/15 09:27:44.000   4280230.7049  -4034422.0726  -2458271.6338   5   6   5.2826   4.1748   6.8620  -3.9902   3.9749  -4.7935   0.00    0.0
2019/01/15 09:27:45.000   4280230.1838  -4034414.1474  -2458296.4703   5   6   5.2821   4.1743   6.8601  -3.9896   3.9736  -4.7918   0.00    0.0
2019/01/15 09:27:46.000   4280221.7291  -4034417.7723  -2458284.1144   5   6   5.2816   4.1738   6.8583  -3.9891   3.9722  -4.7901   0.00    0.0
2019/01/15 09:27:47.000   4280231.8632  -4034414.9104  -2458293.9172   5   6   5.2811   4.1733   6.8564  -3.9885   3.9708  -4.7884   0.00    0.0
2019/01/15 09:27:48.000   4280225.7810  -4034409.8496  -2458280.8133   5   6   5.2806   4.1728   6.8545  -3.9880   3.9695  -4.7868   0.00    0.0
2019/01/15 09:27:49.000   4280237.6306  -4034430.8752  -2458281.9167   5   6   5.2801   4.1723   6.8526  -3.9874   3.9681  -4.7851   0.00    0.0
2019/01/15 09:27:50.000   4280217.6066  -4034414.0320  -2458265.4486   5   6   5.2796   4.1718   6.8508  -3.9868   3.9667  -4.7834   0.00    0.0
2019/01/15 09:27:51.000   4280223.1163  -4034415.3806  -2458266.4452   5   6   5.2791   4.1713   6.8489  -3.9863   3.9654  -4.7817   0.00    0.0
2019/01/15 09:27:52.000   4280224.7982  -4034419.2336  -2458277.7223   5   6   5.2786   4.1709   6.8470  -3.9857   3.9640  -4.7801   0.00    0.0
2019/01/15 09:27:53.000   4280240.9637  -4034433.3680  -2458280.6556   5   6   5.2781   4.1704   6.8452  -3.9852   3.9626  -4.7784   0.00    0.0
2019/01/15 09:27:54.000   4280222.1678  -4034416.9824  -2458268.3527   5   6   5.2776   4.1699   6.8433  -3.9846   3.9613  -4.7767   0.00    0.0
2019/01/15 09:27:55.000   4280227.1742  -4034420.3902  -2458281.8242   5   6   5.2771   4.1694   6.8414  -3.9840   3.9599  -4.7750   0.00    0.0
2019/01/15 09:27:56.000   4280230.0751  -4034416.1762  -2458295.4224   5   6   5.2766   4.1689   6.8396  -3.9835   3.9585  -4.7734   0.00    0.0
2019/01/15 09:27:57.000   4280221.9457  -4034419.1774  -2458278.4582   5   6   5.2761   4.1684   6.8377  -3.9829   3.9572  -4.7717   0.00    0.0
2019/01/15 09:27:58.000   4280228.6024  -4034423.2969  -2458294.2149   5   6   5.2756   4.1679   6.8358  -3.9824   3.9558  -4.7700   0.00    0.0
2019/01/15 09:27:59.000   4280235.8218  -4034424.2655  -2458299.0869   5   6   5.2751   4.1675   6.8340  -3.9818   3.9544  -4.7683   0.00    0.0
2019/01/15 09:28:00.000   4280221.4946  -4034415.1474  -2458292.8455   5   6   5.2746   4.1670   6.8321  -3.9813   3.9531  -4.7667   0.00    0.0
2019/01/15 09:28:01.000   4280219.8388  -4034410.6973  -2458286.5865   5   6   5.2742   4.1665   6.8302  -3.9807   3.9517  -4.7650   0.00    0.0
2019/01/15 09:28:02.000   4280230.4448  -4034423.8914  -2458277.0202   5   6   5.2737   4.1660   6.8284  -3.9802   3.9503  -4.7633   0.00    0.0
2019/01/15 09:28:03.000   4280224.9926  -4034420.2114  -2458281.6030   5   6   5.2732   4.1655   6.8265  -3.9796   3.9490  -4.7617   0.00    0.0
2019/01/15 09:28:04.000   4280235.2942  -4034425.9409  -2458288.4182   5   6   5.2727   4.1651   6.8246  -3.9791   3.9476  -4.7600   0.00    0.0
2019/01/15 09:28:05.000   4280218.6964  -4034416.4187  -2458266.0977   5   6   5.2722   4.1646   6.8228  -3.9785   3.9462  -4.7583   0.00    0.0
2019/01/15 09:28:06.000   4280226.8901  -4034432.8265  -2458280.9207   5   6   5.2717   4.1641   6.8209  -3.9780   3.9449  -4.7567   0.00    0.0
2019/01/15 09:28:07.000   4280224.2425  -4034420.8885  -2458273.5904   5   6   5.2712   4.1636   6.8190  -3.9774   3.9435  -4.7550   0.00    0.0
2019/01/15 09:28:08.000   4280207.5098  -4034409.0729  -2458253.4662   5   6   5.2708   4.1631   6.8172  -3.9769   3.9422  -4.7533   0.00    0.0
2019/01/15 09:28:10.000   4280216.4460  -4034419.9820  -2458254.6717   5   6   5.2698   4.1622   6.8134  -3.9758   3.9395  -4.7500   0.00    0.0
2019/01/15 09:28:11.000   4280219.3450  -4034415.3665  -2458268.1898   5   6   5.2693   4.1617   6.8116  -3.9753   3.9381  -4.7483   0.00    0.0
2019/01/15 09:28:12.000   4280229.3445  -4034429.8721  -2458262.9626   5   6   5.2688   4.1612   6.8097  -3.9747   3.9367  -4.7467   0.00    0.0
2019/01/15 09:28:14.000   4280206.1373  -4034409.6613  -2458264.5884   5   6   5.2679   4.1603   6.8060  -3.9736   3.9340  -4.7433   0.00    0.0
2019/01/15 09:28:15.000   4280220.8614  -4034419.7887  -2458252.7073   5   6   5.2674   4.1598   6.8041  -3.9731   3.9327  -4.7417   0.00    0.0
2019/01/15 09:28:16.000   4280213.6075  -4034408.0895  -2458234.8450   5   6   5.2669   4.1593   6.8023  -3.9726   3.9313  -4.7400   0.00    0.0
2019/01/15 09:28:17.000   4280217.6797  -4034397.2535  -2458243.6775   5   6   5.2665   4.1589   6.8004  -3.9720   3.9300  -4.7383   0.00    0.0
2019/01/15 09:28:19.000   4280232.3192  -4034423.5241  -2458264.4233   5   6   5.2655   4.1579   6.7967  -3.9709   3.9273  -4.7350   0.00    0.0
2019/01/15 09:28:20.000   4280220.8753  -4034422.0254  -2458244.5490   5   6   5.2650   4.1575   6.7948  -3.9704   3.9259  -4.7334   0.00    0.0
2019/01/15 09:28:21.000   4280225.0764  -4034418.8326  -2458250.7407   5   6   5.2645   4.1570   6.7929  -3.9699   3.9246  -4.7317   0.00    0.0
2019/01/15 09:28:22.000   4280231.1821  -4034424.4549  -2458278.2205   5   6   5.2641   4.1565   6.7911  -3.9693   3.9232  -4.7300   0.00    0.0
2019/01/15 09:28:23.000   4280230.5902  -4034418.4294  -2458266.4259   5   6   5.2636   4.1561   6.7892  -3.9688   3.9219  -4.7284   0.00    0.0
2019/01/15 09:28:24.000   4280210.1865  -4034411.3932  -2458248.7052   5   6   5.2631   4.1556   6.7874  -3.9683   3.9205  -4.7267   0.00    0.0
2019/01/15 09:28:25.000   4280228.6126  -4034429.6076  -2458267.2389   5   6   5.2627   4.1551   6.7855  -3.9677   3.9192  -4.7250   0.00    0.0
2019/01/15 09:28:26.000   4280225.6547  -4034428.6664  -2458261.0646   5   6   5.2622   4.1546   6.7836  -3.9672   3.9178  -4.7234   0.00    0.0
2019/01/15 09:28:29.000   4280205.7233  -4034398.8442  -2458242.9821   5   6   5.2608   4.1533   6.7781  -3.9656   3.9138  -4.7184   0.00    0.0
2019/01/15 09:28:31.000   4280218.4641  -4034417.3408  -2458247.7858   5   6   5.2599   4.1523   6.7743  -3.9646   3.9111  -4.7151   0.00    0.0
2019/01/15 09:28:32.000   4280200.8089  -4034400.1498  -2458244.1921   5   6   5.2594   4.1519   6.7725  -3.9641   3.9097  -4.7134   0.00    0.0
2019/01/15 09:28:33.000   4280238.0992  -4034431.7261  -2458265.1338   5   6   5.2589   4.1514   6.7706  -3.9635   3.9084  -4.7118   0.00    0.0
2019/01/15 09:28:34.000   4280209.0210  -4034412.4587  -2458249.1661   5   6   5.2585   4.1509   6.7688  -3.9630   3.9071  -4.7101   0.00    0.0
2019/01/15 09:28:35.000   4280209.6791  -4034408.0187  -2458243.5831   5   6   5.2580   4.1505   6.7669  -3.9625   3.9057  -4.7085   0.00    0.0
2019/01/15 09:28:36.000   4280230.3649  -4034419.1014  -2458264.5385   5   6   5.2576   4.1500   6.7650  -3.9619   3.9044  -4.7068   0.00    0.0
2019/01/15 09:28:39.000   4280228.4367  -4034425.6770  -2458272.9169   5   6   5.2562   4.1486   6.7595  -3.9604   3.9003  -4.7018   0.00    0.0
2019/01/15 09:28:41.000   4280223.8666  -4034418.8022  -2458269.6712   5   6   5.2553   4.1477   6.7557  -3.9593   3.8977  -4.6985   0.00    0.0
2019/01/15 09:28:42.000   4280234.4037  -4034422.1612  -2458279.8843   5   6   5.2548   4.1473   6.7539  -3.9588   3.8963  -4.6969   0.00    0.0
2019/01/15 09:28:43.000   4280224.7581  -4034418.7294  -2458263.3172   5   6   5.2544   4.1468   6.7520  -3.9583   3.8950  -4.6952   0.00    0.0
2019/01/15 09:28:44.000   4280237.9835  -4034431.9163  -2458305.1483   5   6   5.2539   4.1464   6.7502  -3.9578   3.8937  -4.6936   0.00    0.0
2019/01/15 09:28:46.000   4280223.8125  -4034414.6873  -2458279.9301   5   6   5.2530   4.1455   6.7465  -3.9568   3.8910  -4.6903   0.00    0.0
2019/01/15 09:28:47.000   4280223.3060  -4034420.1069  -2458268.2069   5   6   5.2526   4.1450   6.7446  -3.9563   3.8896  -4.6886   0.00    0.0
2019/01/15 09:28:48.000   4280237.6791  -4034427.7942  -2458290.1112   5   6   5.2521   4.1446   6.7427  -3.9557   3.8883  -4.6870   0.00    0.0
2019/01/15 09:28:50.000   4280222.2101  -4034420.7730  -2458287.5641   5   6   5.2512   4.1437   6.7390  -3.9547   3.8857  -4.6837   0.00    0.0
2019/01/15 09:28:51.000   4280219.8877  -4034411.3753  -2458271.5124   5   6   5.2508   4.1432   6.7372  -3.9542   3.8843  -4.6820   0.00    0.0
2019/01/15 09:28:52.000   4280207.5646  -4034404.8013  -2458252.0637   5   6   5.2504   4.1428   6.7353  -3.9537   3.8830  -4.6804   0.00    0.0
2019/01/15 09:28:53.000   4280219.6450  -4034421.7398  -2458282.4282   5   6   5.2499   4.1423   6.7335  -3.9532   3.8817  -4.6787   0.00    0.0
2019/01/15 09:28:54.000   4280241.6718  -4034432.4843  -2458296.0798   5   6   5.2494   4.1419   6.7316  -3.9527   3.8803  -4.6771   0.00    0.0
2019/01/15 09:28:55.000   4280215.1322  -4034411.5908  -2458279.8055   5   6   5.2490   4.1414   6.7298  -3.9522   3.8790  -4.6754   0.00    0.0
2019/01/15 09:28:56.000   4280227.3824  -4034428.6930  -2458290.1234   5   6   5.2486   4.1410   6.7279  -3.9517   3.8777  -4.6738   0.00    0.0
2019/01/15 09:28:57.000   4280214.5425  -4034421.0441  -2458273.3661   5   6   5.2481   4.1405   6.7261  -3.9512   3.8763  -4.6722   0.00    0.0
2019/01/15 09:28:58.000   4280226.5720  -4034426.7699  -2458284.7698   5   6   5.2477   4.1401   6.7242  -3.9506   3.8750  -4.6705   0.00    0.0
2019/01/15 09:28:59.000   4280222.3606  -4034406.1629  -2458283.1378   5   6   5.2473   4.1396   6.7223  -3.9502   3.8737  -4.6689   0.00    0.0
2019/01/15 09:29:00.000   4280219.4496  -4034416.4469  -2458282.7118   5   6   5.2468   4.1392   6.7205  -3.9496   3.8724  -4.6672   0.00    0.0
2019/01/15 09:29:02.000   4280202.5994  -4034398.2963  -2458254.4459   5   6   5.2459   4.1383   6.7168  -3.9486   3.8697  -4.6639   0.00    0.0
2019/01/15 09:29:03.000   4280227.1308  -4034419.6099  -2458274.2749   5   6   5.2455   4.1378   6.7149  -3.9481   3.8684  -4.6623   0.00    0.0
2019/01/15 09:29:04.000   4280211.0411  -4034416.3115  -2458272.2003   5   6   5.2451   4.1374   6.7131  -3.9476   3.8671  -4.6606   0.00    0.0
2019/01/15 09:29:05.000   4280214.5357  -4034401.7200  -2458269.3449   5   6   5.2446   4.1370   6.7112  -3.9471   3.8657  -4.6590   0.00    0.0
2019/01/15 09:29:06.000   4280212.5113  -4034402.4339  -2458270.6911   5   6   5.2442   4.1365   6.7094  -3.9466   3.8644  -4.6574   0.00    0.0
2019/01/15 09:29:07.000   4280227.9669  -4034424.4188  -2458271.7973   5   6   5.2438   4.1361   6.7075  -3.9461   3.8631  -4.6557   0.00    0.0
2019/01/15 09:29:08.000   4280214.5926  -4034398.6887  -2458260.4232   5   6   5.2433   4.1356   6.7057  -3.9457   3.8618  -4.6541   0.00    0.0
2019/01/15 09:29:09.000   4280228.1803  -4034413.4131  -2458280.2080   5   6   5.2429   4.1352   6.7038  -3.9452   3.8604  -4.6524   0.00    0.0
2019/01/15 09:29:10.000   4280236.9290  -4034426.7131  -2458293.7335   5   6   5.2425   4.1348   6.7020  -3.9447   3.8591  -4.6508   0.00    0.0
2019/01/15 09:29:12.000   4280218.6648  -4034417.8180  -2458273.7667   5   6   5.2416   4.1339   6.6983  -3.9437   3.8565  -4.6475   0.00    0.0
2019/01/15 09:29:14.000   4280216.6440  -4034418.4743  -2458268.8655   5   6   5.2408   4.1330   6.6946  -3.9427   3.8538  -4.6442   0.00    0.0
2019/01/15 09:29:15.000   4280214.5151  -4034397.3422  -2458267.8630   5   6   5.2404   4.1326   6.6927  -3.9422   3.8525  -4.6426   0.00    0.0
2019/01/15 09:29:16.000   4280209.7512  -4034402.3823  -2458252.5479   5   6   5.2399   4.1321   6.6909  -3.9417   3.8512  -4.6410   0.00    0.0
2019/01/15 09:29:17.000   4280226.8434  -4034419.5523  -2458284.8928   5   6   5.2395   4.1317   6.6890  -3.9412   3.8499  -4.6393   0.00    0.0
2019/01/15 09:29:18.000   4280219.8227  -4034422.9888  -2458298.7408   5   6   5.2391   4.1313   6.6872  -3.9407   3.8486  -4.6377   0.00    0.0
2019/01/15 09:29:19.000   4280217.7269  -4034408.0697  -2458288.8797   5   6   5.2387   4.1308   6.6853  -3.9402   3.8473  -4.6361   0.00    0.0
2019/01/15 09:29:20.000   4280222.1826  -4034420.2295  -2458270.7533   5   6   5.2382   4.1304   6.6835  -3.9397   3.8460  -4.6344   0.00    0.0
2019/01/15 09:29:21.000   4280230.2381  -4034433.5192  -2458273.8830   5   6   5.2378   4.1300   6.6817  -3.9393   3.8446  -4.6328   0.00    0.0
2019/01/15 09:29:22.000   4280221.2132  -4034414.4885  -2458276.0657   5   6   5.2374   4.1295   6.6798  -3.9388   3.8433  -4.6312   0.00    0.0
2019/01/15 09:29:24.000   4280234.0399  -4034423.0428  -2458269.2575   5   6   5.2366   4.1287   6.6761  -3.9378   3.8407  -4.6279   0.00    0.0
2019/01/15 09:29:26.000   4280223.7173  -4034416.4072  -2458280.8586   5   6   5.2357   4.1278   6.6724  -3.9368   3.8381  -4.6246   0.00    0.0
2019/01/15 09:29:29.000   4280218.8068  -4034415.4467  -2458270.7177   5   6   5.2345   4.1265   6.6669  -3.9354   3.8342  -4.6197   0.00    0.0
2019/01/15 09:29:30.000   4280216.2071  -4034412.4853  -2458254.0183   5   6   5.2341   4.1261   6.6650  -3.9349   3.8329  -4.6181   0.00    0.0
2019/01/15 09:29:31.000   4280216.1107  -4034411.5654  -2458263.5769   5   6   5.2337   4.1257   6.6632  -3.9344   3.8315  -4.6165   0.00    0.0
2019/01/15 09:29:33.000   4280219.6994  -4034411.8929  -2458247.9977   5   6   5.2328   4.1248   6.6595  -3.9335   3.8289  -4.6132   0.00    0.0
2019/01/15 09:29:34.000   4280207.4367  -4034404.0031  -2458241.1198   5   6   5.2324   4.1244   6.6577  -3.9330   3.8276  -4.6116   0.00    0.0
2019/01/15 09:29:36.000   4280206.2538  -4034404.7182  -2458248.6245   5   6   5.2316   4.1236   6.6540  -3.9321   3.8250  -4.6083   0.00    0.0
2019/01/15 09:29:37.000   4280215.9006  -4034409.8867  -2458273.9807   5   6   5.2312   4.1232   6.6522  -3.9316   3.8237  -4.6067   0.00    0.0
2019/01/15 09:29:38.000   4280214.4100  -4034407.8941  -2458265.4764   5   6   5.2308   4.1227   6.6503  -3.9311   3.8224  -4.6051   0.00    0.0
2019/01/15 09:29:39.000   4280208.0836  -4034419.9692  -2458256.8151   5   6   5.2304   4.1223   6.6485  -3.9306   3.8211  -4.6035   0.00    0.0
2019/01/15 09:29:40.000   4280233.9452  -4034434.8508  -2458277.9370   5   6   5.2300   4.1219   6.6466  -3.9302   3.8198  -4.6018   0.00    0.0
2019/01/15 09:29:42.000   4280225.0645  -4034422.2139  -2458279.1242   5   6   5.2292   4.1210   6.6429  -3.9292   3.8172  -4.5986   0.00    0.0
2019/01/15 09:29:43.000   4280211.3376  -4034412.0442  -2458265.3519   5   6   5.2288   4.1206   6.6411  -3.9288   3.8159  -4.5970   0.00    0.0
2019/01/15 09:29:44.000   4280217.4101  -4034411.4964  -2458263.4623   5   6   5.2284   4.1202   6.6393  -3.9283   3.8146  -4.5953   0.00    0.0
2019/01/15 09:29:45.000   4280219.2040  -4034426.3274  -2458275.0863   5   6   5.2280   4.1198   6.6374  -3.9278   3.8133  -4.5937   0.00    0.0
2019/01/15 09:29:46.000   4280218.5808  -4034419.7400  -2458268.1018   5   6   5.2276   4.1194   6.6356  -3.9274   3.8120  -4.5921   0.00    0.0
2019/01/15 09:29:47.000   4280232.5035  -4034423.7836  -2458257.6306   5   6   5.2272   4.1190   6.6338  -3.9269   3.8107  -4.5905   0.00    0.0
2019/01/15 09:29:49.000   4280252.6067  -4034444.6281  -2458276.1094   5   6   5.2264   4.1181   6.6301  -3.9260   3.8081  -4.5872   0.00    0.0
2019/01/15 09:29:51.000   4280231.4695  -4034430.2509  -2458262.5781   5   6   5.2256   4.1173   6.6264  -3.9250   3.8055  -4.5840   0.00    0.0
2019/01/15 09:29:52.000   4280210.7070  -4034406.4253  -2458233.3375   5   6   5.2252   4.1169   6.6246  -3.9246   3.8043  -4.5824   0.00    0.0
2019/01/15 09:29:53.000   4280224.5256  -4034420.2255  -2458254.1351   5   6   5.2248   4.1165   6.6227  -3.9241   3.8030  -4.5807   0.00    0.0
2019/01/15 09:29:54.000   4280221.5590  -4034410.9762  -2458250.4545   5   6   5.2244   4.1161   6.6209  -3.9237   3.8017  -4.5791   0.00    0.0
2019/01/15 09:29:56.000   4280226.6407  -4034417.3557  -2458255.7769   5   6   5.2237   4.1152   6.6172  -3.9227   3.7991  -4.5759   0.00    0.0
2019/01/15 09:29:57.000   4280219.7324  -4034412.1757  -2458263.5022   5   6   5.2233   4.1148   6.6154  -3.9223   3.7978  -4.5743   0.00    0.0
2019/01/15 09:29:58.000   4280226.5983  -4034423.3355  -2458266.5042   5   6   5.2229   4.1144   6.6136  -3.9218   3.7965  -4.5727   0.00    0.0
2019/01/15 09:29:59.000   4280240.6676  -4034432.4121  -2458281.1383   5   6   5.2225   4.1140   6.6117  -3.9214   3.7952  -4.5710   0.00    0.0
2019/01/15 09:30:00.000   4280223.0660  -4034420.4995  -2458266.3875   5   6   5.2221   4.1136   6.6099  -3.9209   3.7939  -4.5694   0.00    0.0
2019/01/15 09:30:01.000   4280229.9301  -4034414.2273  -2458266.0352   5   6   5.2217   4.1132   6.6081  -3.9205   3.7927  -4.5678   0.00    0.0
2019/01/15 09:30:02.000   4280225.6141  -4034416.5922  -2458266.7664   5   6   5.2213   4.1128   6.6062  -3.9200   3.7914  -4.5662   0.00    0.0
2019/01/15 09:30:03.000   4280226.6840  -4034420.0467  -2458267.1613   5   6   5.2210   4.1124   6.6044  -3.9196   3.7901  -4.5646   0.00    0.0
2019/01/15 09:30:04.000   4280223.8326  -4034417.6218  -2458253.7847   5   6   5.2206   4.1120   6.6026  -3.9191   3.7888  -4.5630   0.00    0.0
2019/01/15 09:30:05.000   4280230.9708  -4034436.1056  -2458281.9020   5   6   5.2202   4.1116   6.6007  -3.9186   3.7875  -4.5614   0.00    0.0
2019/01/15 09:30:06.000   4280242.5432  -4034434.1518  -2458285.0845   5   6   5.2198   4.1112   6.5989  -3.9182   3.7862  -4.5597   0.00    0.0
2019/01/15 09:30:07.000   4280224.7671  -4034424.0992  -2458255.4401   5   6   5.2194   4.1108   6.5971  -3.9177   3.7849  -4.5581   0.00    0.0
2019/01/15 09:30:08.000   4280215.9903  -4034417.5941  -2458252.0831   5   6   5.2191   4.1104   6.5952  -3.9173   3.7837  -4.5565   0.00    0.0
2019/01/15 09:30:09.000   4280242.7850  -4034432.0996  -2458293.1052   5   6   5.2187   4.1100   6.5934  -3.9168   3.7824  -4.5549   0.00    0.0
2019/01/15 09:30:10.000   4280236.0445  -4034424.4786  -2458278.6094   5   6   5.2183   4.1096   6.5916  -3.9164   3.7811  -4.5533   0.00    0.0
2019/01/15 09:30:11.000   4280232.5515  -4034424.0833  -2458274.3256   5   6   5.2179   4.1092   6.5897  -3.9160   3.7798  -4.5517   0.00    0.0
2019/01/15 09:30:12.000   4280219.6669  -4034410.3030  -2458253.9947   5   6   5.2176   4.1088   6.5879  -3.9155   3.7785  -4.5501   0.00    0.0
2019/01/15 09:30:13.000   4280224.0249  -4034415.3309  -2458251.5285   5   6   5.2172   4.1084   6.5861  -3.9151   3.7773  -4.5485   0.00    0.0
2019/01/15 09:30:14.000   4280226.8084  -4034418.0897  -2458257.9422   5   6   5.2168   4.1080   6.5843  -3.9146   3.7760  -4.5469   0.00    0.0
2019/01/15 09:30:15.000   4280225.3157  -4034426.3708  -2458280.4572   5   6   5.2164   4.1076   6.5824  -3.9142   3.7747  -4.5453   0.00    0.0
2019/01/15 09:30:16.000   4280231.2267  -4034431.2126  -2458283.6727   5   6   5.2161   4.1072   6.5806  -3.9137   3.7734  -4.5437   0.00    0.0
2019/01/15 09:30:18.000   4280227.0530  -4034422.7710  -2458276.0618   5   6   5.2153   4.1064   6.5769  -3.9129   3.7709  -4.5405   0.00    0.0
2019/01/15 09:30:19.000   4280204.1790  -4034409.1741  -2458260.5686   5   6   5.2150   4.1060   6.5751  -3.9124   3.7696  -4.5389   0.00    0.0
2019/01/15 09:30:20.000   4280215.1774  -4034409.2745  -2458254.1401   5   6   5.2146   4.1056   6.5733  -3.9120   3.7683  -4.5372   0.00    0.0
2019/01/15 09:30:21.000   4280229.6206  -4034421.8735  -2458273.6254   5   6   5.2142   4.1052   6.5715  -3.9115   3.7671  -4.5356   0.00    0.0
2019/01/15 09:30:22.000   4280219.8518  -4034420.4021  -2458269.6002   5   6   5.2139   4.1048   6.5696  -3.9111   3.7658  -4.5340   0.00    0.0
2019/01/15 09:30:23.000   4280221.7702  -4034419.5756  -2458273.6458   5   6   5.2135   4.1044   6.5678  -3.9107   3.7645  -4.5324   0.00    0.0
2019/01/15 09:30:25.000   4280219.2966  -4034411.0586  -2458270.6728   5   6   5.2128   4.1036   6.5642  -3.9098   3.7620  -4.5292   0.00    0.0
2019/01/15 09:30:26.000   4280221.2065  -4034416.6393  -2458261.3894   5   6   5.2124   4.1032   6.5623  -3.9094   3.7607  -4.5276   0.00    0.0
2019/01/15 09:30:27.000   4280222.1531  -4034419.8520  -2458276.4147   5   6   5.2120   4.1028   6.5605  -3.9089   3.7594  -4.5260   0.00    0.0
2019/01/15 09:30:28.000   4280229.9512  -4034423.5318  -2458281.7205   5   6   5.2117   4.1024   6.5587  -3.9085   3.7582  -4.5244   0.00    0.0
2019/01/15 09:30:29.000   4280216.3150  -4034400.9670  -2458268.1363   5   6   5.2113   4.1020   6.5569  -3.9081   3.7569  -4.5228   0.00    0.0
2019/01/15 09:30:30.000   4280200.1680  -4034395.6544  -2458243.5156   5   6   5.2110   4.1017   6.5551  -3.9076   3.7556  -4.5212   0.00    0.0
2019/01/15 09:30:31.000   4280230.8860  -4034420.3181  -2458274.7111   5   6   5.2106   4.1013   6.5532  -3.9072   3.7544  -4.5196   0.00    0.0
2019/01/15 09:30:32.000   4280224.2614  -4034419.0537  -2458280.1758   5   6   5.2102   4.1009   6.5514  -3.9068   3.7531  -4.5180   0.00    0.0
2019/01/15 09:30:33.000   4280216.3594  -4034412.9673  -2458267.0199   5   6   5.2099   4.1005   6.5496  -3.9064   3.7518  -4.5164   0.00    0.0
2019/01/15 09:30:34.000   4280215.9936  -4034418.5374  -2458263.8845   5   6   5.2095   4.1001   6.5478  -3.9059   3.7506  -4.5148   0.00    0.0
2019/01/15 09:30:35.000   4280202.0999  -4034399.1922  -2458255.4468   5   6   5.2092   4.0997   6.5459  -3.9055   3.7493  -4.5133   0.00    0.0
2019/01/15 09:30:36.000   4280212.0969  -4034405.2842  -2458252.6600   5   6   5.2088   4.0993   6.5441  -3.9051   3.7480  -4.5117   0.00    0.0
2019/01/15 09:30:38.000   4280207.0528  -4034405.2905  -2458251.4455   5   6   5.2081   4.0986   6.5405  -3.9042   3.7455  -4.5085   0.00    0.0
2019/01/15 09:30:39.000   4280193.6415  -4034382.5051  -2458244.0164   5   6   5.2078   4.0982   6.5387  -3.9038   3.7443  -4.5069   0.00    0.0
2019/01/15 09:30:40.000   4280202.2249  -4034388.9335  -2458243.1540   5   6   5.2074   4.0978   6.5369  -3.9034   3.7430  -4.5053   0.00    0.0
2019/01/15 09:30:41.000   4280207.8475  -4034392.8509  -2458253.1423   5   6   5.2071   4.0974   6.5350  -3.9030   3.7417  -4.5037   0.00    0.0
2019/01/15 09:30:42.000   4280195.2267  -4034389.8827  -2458246.9661   5   6   5.2067   4.0970   6.5332  -3.9025   3.7405  -4.5021   0.00    0.0
2019/01/15 09:30:43.000   4280212.2987  -4034401.1908  -2458260.4467   5   6   5.2064   4.0966   6.5314  -3.9021   3.7392  -4.5005   0.00    0.0
2019/01/15 09:30:44.000   4280210.4157  -4034400.3008  -2458265.1149   5   6   5.2060   4.0963   6.5296  -3.9017   3.7380  -4.4989   0.00    0.0
2019/01/15 09:30:46.000   4280211.5224  -4034411.8915  -2458269.1916   5   6   5.2053   4.0955   6.5259  -3.9009   3.7355  -4.4957   0.00    0.0
2019/01/15 09:30:47.000   4280219.2890  -4034413.9878  -2458284.2282   5   6   5.2050   4.0951   6.5241  -3.9004   3.7342  -4.4941   0.00    0.0
2019/01/15 09:30:48.000   4280223.2962  -4034418.2452  -2458290.9674   5   6   5.2046   4.0947   6.5223  -3.9000   3.7329  -4.4925   0.00    0.0
2019/01/15 09:30:49.000   4280234.1471  -4034417.3627  -2458278.3025   5   6   5.2043   4.0944   6.5205  -3.8996   3.7317  -4.4910   0.00    0.0
2019/01/15 09:30:50.000   4280218.9667  -4034415.1414  -2458286.9272   5   6   5.2040   4.0940   6.5187  -3.8992   3.7304  -4.4894   0.00    0.0
2019/01/15 09:30:52.000   4280228.5514  -4034418.4212  -2458289.2812   5   6   5.2033   4.0932   6.5151  -3.8984   3.7279  -4.4862   0.00    0.0
2019/01/15 09:30:53.000   4280214.5516  -4034409.7821  -2458284.6233   5   6   5.2029   4.0929   6.5132  -3.8980   3.7267  -4.4846   0.00    0.0
2019/01/15 09:30:54.000   4280227.5874  -4034414.3184  -2458277.3959   5   6   5.2026   4.0925   6.5114  -3.8975   3.7254  -4.4830   0.00    0.0
2019/01/15 09:30:56.000   4280213.2512  -4034411.1466  -2458276.6639   5   6   5.2019   4.0917   6.5078  -3.8967   3.7229  -4.4799   0.00    0.0
2019/01/15 09:30:58.000   4280215.0540  -4034416.2788  -2458266.4480   5   6   5.2013   4.0910   6.5042  -3.8959   3.7204  -4.4767   0.00    0.0
2019/01/15 09:30:59.000   4280217.4715  -4034412.7256  -2458260.8335   5   6   5.2009   4.0906   6.5024  -3.8955   3.7192  -4.4751   0.00    0.0
2019/01/15 09:31:00.000   4280224.2640  -4034418.2848  -2458274.8383   5   6   5.2006   4.0902   6.5006  -3.8951   3.7179  -4.4735   0.00    0.0
2019/01/15 09:31:01.000   4280225.2032  -4034418.7018  -2458270.2453   5   6   5.2003   4.0899   6.4988  -3.8947   3.7167  -4.4719   0.00    0.0
2019/01/15 09:31:02.000   4280231.3293  -4034412.7283  -2458255.2975   5   6   5.1999   4.0895   6.4969  -3.8943   3.7154  -4.4704   0.00    0.0
2019/01/15 09:31:03.000   4280222.0450  -4034403.1790  -2458256.8880   5   6   5.1996   4.0891   6.4951  -3.8939   3.7142  -4.4688   0.00    0.0
2019/01/15 09:31:05.000   4280216.5497  -4034407.2794  -2458243.5337   5   6   5.1989   4.0884   6.4915  -3.8931   3.7117  -4.4656   0.00    0.0
2019/01/15 09:31:06.000   4280222.6377  -4034415.4088  -2458257.1125   5   6   5.1986   4.0880   6.4897  -3.8927   3.7105  -4.4640   0.00    0.0
2019/01/15 09:31:07.000   4280222.0252  -4034416.8226  -2458266.8951   5   6   5.1983   4.0876   6.4879  -3.8923   3.7092  -4.4625   0.00    0.0
2019/01/15 09:31:08.000   4280228.4221  -4034423.7278  -2458268.7501   5   6   5.1980   4.0873   6.4861  -3.8919   3.7080  -4.4609   0.00    0.0
2019/01/15 09:31:09.000   4280226.3551  -4034405.1149  -2458249.3254   5   6   5.1976   4.0869   6.4843  -3.8915   3.7067  -4.4593   0.00    0.0
2019/01/15 09:31:10.000   4280215.3541  -4034405.1104  -2458239.9594   5   6   5.1973   4.0866   6.4825  -3.8911   3.7055  -4.4577   0.00    0.0
2019/01/15 09:31:11.000   4280220.8058  -4034416.4607  -2458255.7424   5   6   5.1970   4.0862   6.4807  -3.8907   3.7043  -4.4562   0.00    0.0
2019/01/15 09:31:12.000   4280222.9568  -4034411.8854  -2458260.1027   5   6   5.1967   4.0858   6.4789  -3.8903   3.7030  -4.4546   0.00    0.0
2019/01/15 09:31:13.000   4280223.8759  -4034411.4385  -2458257.8813   5   6   5.1964   4.0855   6.4771  -3.8899   3.7018  -4.4530   0.00    0.0
2019/01/15 09:31:14.000   4280227.0682  -4034417.1866  -2458271.8972   5   6   5.1960   4.0851   6.4753  -3.8895   3.7006  -4.4514   0.00    0.0
2019/01/15 09:31:15.000   4280236.1149  -4034427.0485  -2458270.2472   5   6   5.1957   4.0847   6.4735  -3.8891   3.6993  -4.4499   0.00    0.0
2019/01/15 09:31:16.000   4280230.1718  -4034424.4762  -2458276.0011   5   6   5.1954   4.0844   6.4717  -3.8887   3.6981  -4.4483   0.00    0.0
2019/01/15 09:31:17.000   4280222.4335  -4034408.8236  -2458268.3830   5   6   5.1951   4.0840   6.4699  -3.8883   3.6969  -4.4467   0.00    0.0
2019/01/15 09:31:19.000   4280236.0384  -4034430.5317  -2458275.9282   5   6   5.1944   4.0833   6.4662  -3.8875   3.6944  -4.4436   0.00    0.0
2019/01/15 09:31:20.000   4280231.0194  -4034422.3491  -2458257.1703   5   6   5.1941   4.0829   6.4644  -3.8871   3.6931  -4.4420   0.00    0.0
2019/01/15 09:31:21.000   4280231.6362  -4034428.8193  -2458289.3909   5   6   5.1938   4.0826   6.4626  -3.8867   3.6919  -4.4404   0.00    0.0
2019/01/15 09:31:22.000   4280229.7953  -4034419.0056  -2458277.6217   5   6   5.1935   4.0822   6.4608  -3.8863   3.6907  -4.4389   0.00    0.0
2019/01/15 09:31:27.000   4280207.9032  -4034402.5378  -2458257.3317   5   6   5.1920   4.0804   6.4519  -3.8844   3.6845  -4.4310   0.00    0.0
2019/01/15 09:31:28.000   4280213.7963  -4034415.2482  -2458256.3927   5   6   5.1916   4.0801   6.4501  -3.8840   3.6833  -4.4295   0.00    0.0
2019/01/15 09:31:29.000   4280222.7990  -4034422.5912  -2458274.9730   5   6   5.1913   4.0797   6.4483  -3.8836   3.6821  -4.4279   0.00    0.0
2019/01/15 09:31:30.000   4280219.2266  -4034420.8173  -2458266.1395   5   6   5.1910   4.0794   6.4465  -3.8833   3.6809  -4.4263   0.00    0.0
2019/01/15 09:31:31.000   4280235.1449  -4034421.9228  -2458277.5834   5   6   5.1907   4.0790   6.4447  -3.8829   3.6796  -4.4248   0.00    0.0
2019/01/15 09:31:32.000   4280215.4764  -4034414.0562  -2458260.8048   5   6   5.1904   4.0786   6.4429  -3.8825   3.6784  -4.4232   0.00    0.0
2019/01/15 09:31:33.000   4280228.7813  -4034423.9747  -2458279.9977   5   6   5.1901   4.0783   6.4411  -3.8821   3.6772  -4.4216   0.00    0.0
2019/01/15 09:31:34.000   4280239.2220  -4034429.3182  -2458272.1380   5   6   5.1898   4.0779   6.4393  -3.8817   3.6760  -4.4201   0.00    0.0
2019/01/15 09:31:35.000   4280228.2633  -4034418.0284  -2458270.7634   5   6   5.1895   4.0776   6.4375  -3.8814   3.6747  -4.4185   0.00    0.0
2019/01/15 09:31:36.000   4280225.5353  -4034427.8571  -2458297.5486   5   6   5.1892   4.0772   6.4357  -3.8810   3.6735  -4.4169   0.00    0.0
2019/01/15 09:31:38.000   4280231.7965  -4034432.5330  -2458289.1244   5   6   5.1886   4.0765   6.4321  -3.8802   3.6711  -4.4138   0.00    0.0
2019/01/15 09:31:39.000   4280230.1437  -4034422.2044  -2458289.3928   5   6   5.1883   4.0762   6.4303  -3.8798   3.6699  -4.4123   0.00    0.0
2019/01/15 09:31:40.000   4280223.5343  -4034414.6711  -2458290.1975   5   6   5.1880   4.0758   6.4285  -3.8795   3.6686  -4.4107   0.00    0.0
2019/01/15 09:31:41.000   4280221.5150  -4034410.6830  -2458287.8611   5   6   5.1877   4.0755   6.4267  -3.8791   3.6674  -4.4091   0.00    0.0
2019/01/15 09:31:42.000   4280228.7959  -4034428.6312  -2458300.6777   5   6   5.1874   4.0751   6.4249  -3.8787   3.6662  -4.4076   0.00    0.0
2019/01/15 09:31:45.000   4280214.5962  -4034403.3632  -2458272.3624   5   6   5.1865   4.0741   6.4196  -3.8776   3.6626  -4.4029   0.00    0.0
2019/01/15 09:31:46.000   4280209.0316  -4034396.7866  -2458277.5035   5   6   5.1863   4.0738   6.4178  -3.8772   3.6614  -4.4014   0.00    0.0
2019/01/15 09:31:47.000   4280217.7555  -4034398.9005  -2458279.1750   5   6   5.1860   4.0734   6.4160  -3.8769   3.6601  -4.3998   0.00    0.0
2019/01/15 09:31:48.000   4280222.5792  -4034408.9093  -2458281.5397   5   6   5.1857   4.0731   6.4142  -3.8765   3.6589  -4.3983   0.00    0.0
2019/01/15 09:31:49.000   4280216.8765  -4034405.5718  -2458282.3632   5   6   5.1854   4.0727   6.4124  -3.8761   3.6577  -4.3967   0.00    0.0
2019/01/15 09:31:50.000   4280222.9457  -4034421.1458  -2458271.7048   5   6   5.1851   4.0724   6.4106  -3.8758   3.6565  -4.3951   0.00    0.0
2019/01/15 09:31:52.000   4280211.3945  -4034400.1929  -2458246.9705   5   6   5.1845   4.0717   6.4070  -3.8750   3.6541  -4.3921   0.00    0.0
2019/01/15 09:31:53.000   4280203.1698  -4034398.4495  -2458260.5573   5   6   5.1842   4.0714   6.4053  -3.8747   3.6529  -4.3905   0.00    0.0
2019/01/15 09:31:54.000   4280216.1027  -4034403.2840  -2458269.8950   5   6   5.1840   4.0710   6.4035  -3.8743   3.6517  -4.3889   0.00    0.0
2019/01/15 09:31:56.000   4280203.6657  -4034396.1671  -2458233.1592   5   6   5.1834   4.0704   6.3999  -3.8736   3.6492  -4.3859   0.00    0.0
2019/01/15 09:32:00.000   4280214.9809  -4034407.4309  -2458234.3111   5   6   5.1823   4.0690   6.3928  -3.8721   3.6444  -4.3797   0.00    0.0
2019/01/15 09:32:01.000   4280216.9619  -4034418.5983  -2458259.3823   5   6   5.1820   4.0687   6.3910  -3.8718   3.6432  -4.3781   0.00    0.0
2019/01/15 09:32:02.000   4280208.3762  -4034410.6044  -2458242.5249   5   6   5.1817   4.0683   6.3892  -3.8714   3.6420  -4.3766   0.00    0.0
2019/01/15 09:32:03.000   4280236.0624  -4034425.5786  -2458256.2145   5   6   5.1814   4.0680   6.3874  -3.8711   3.6408  -4.3750   0.00    0.0
2019/01/15 09:32:04.000   4280215.2807  -4034405.1618  -2458251.2855   5   6   5.1812   4.0677   6.3856  -3.8707   3.6396  -4.3735   0.00    0.0
2019/01/15 09:32:05.000   4280211.9688  -4034403.7417  -2458244.1199   5   6   5.1809   4.0673   6.3839  -3.8704   3.6384  -4.3719   0.00    0.0
2019/01/15 09:32:07.000   4280212.2785  -4034412.4523  -2458249.7158   5   6   5.1803   4.0667   6.3803  -3.8697   3.6360  -4.3688   0.00    0.0
2019/01/15 09:32:08.000   4280213.4057  -4034413.9747  -2458245.6788   5   6   5.1801   4.0663   6.3785  -3.8693   3.6348  -4.3673   0.00    0.0
2019/01/15 09:32:11.000   4280224.2960  -4034432.9394  -2458263.3624   5   6   5.1792   4.0653   6.3732  -3.8682   3.6312  -4.3627   0.00    0.0
2019/01/15 09:32:15.000   4280216.3136  -4034424.5257  -2458244.0118   5   6   5.1782   4.0640   6.3661  -3.8668   3.6264  -4.3565   0.00    0.0
2019/01/15 09:32:17.000   4280208.9614  -4034423.3860  -2458260.3023   5   6   5.1776   4.0634   6.3625  -3.8662   3.6241  -4.3534   0.00    0.0
2019/01/15 09:32:18.000   4280223.4302  -4034427.4063  -2458254.1454   5   6   5.1774   4.0630   6.3607  -3.8658   3.6229  -4.3519   0.00    0.0
2019/01/15 09:32:19.000   4280213.2099  -4034409.6487  -2458249.9607   5   6   5.1771   4.0627   6.3590  -3.8655   3.6217  -4.3504   0.00    0.0
2019/01/15 09:32:20.000   4280228.1879  -4034415.4166  -2458259.9749   5   6   5.1769   4.0624   6.3572  -3.8651   3.6205  -4.3488   0.00    0.0
2019/01/15 09:32:21.000   4280228.8294  -4034423.8862  -2458263.7208   5   6   5.1766   4.0621   6.3554  -3.8648   3.6193  -4.3473   0.00    0.0
2019/01/15 09:32:22.000   4280230.7556  -4034417.1734  -2458273.4890   5   6   5.1763   4.0617   6.3536  -3.8644   3.6181  -4.3458   0.00    0.0
2019/01/15 09:32:23.000   4280220.9318  -4034417.3211  -2458255.0849   5   6   5.1761   4.0614   6.3519  -3.8641   3.6169  -4.3442   0.00    0.0
2019/01/15 09:32:24.000   4280222.5457  -4034408.7474  -2458251.8989   5   6   5.1758   4.0611   6.3501  -3.8638   3.6157  -4.3427   0.00    0.0
2019/01/15 09:32:25.000   4280231.2113  -4034417.6463  -2458265.9262   5   6   5.1756   4.0608   6.3483  -3.8634   3.6145  -4.3412   0.00    0.0
2019/01/15 09:32:26.000   4280214.0798  -4034416.8163  -2458249.2478   5   6   5.1753   4.0604   6.3466  -3.8631   3.6134  -4.3396   0.00    0.0
2019/01/15 09:32:27.000   4280229.0019  -4034420.2957  -2458262.9298   5   6   5.1751   4.0601   6.3448  -3.8627   3.6122  -4.3381   0.00    0.0
2019/01/15 09:32:28.000   4280238.9791  -4034435.2000  -2458267.6591   5   6   5.1748   4.0598   6.3430  -3.8624   3.6110  -4.3366   0.00    0.0
2019/01/15 09:32:29.000   4280226.2024  -4034427.5715  -2458259.3164   5   6   5.1745   4.0595   6.3413  -3.8621   3.6098  -4.3350   0.00    0.0
2019/01/15 09:32:30.000   4280213.6483  -4034421.8808  -2458272.4265   5   6   5.1743   4.0592   6.3395  -3.8617   3.6086  -4.3335   0.00    0.0
2019/01/15 09:32:31.000   4280225.3427  -4034415.0944  -2458255.1008   5   6   5.1740   4.0588   6.3377  -3.8614   3.6074  -4.3320   0.00    0.0
2019/01/15 09:32:32.000   4280216.0045  -4034407.8984  -2458256.8926   5   6   5.1738   4.0585   6.3360  -3.8611   3.6063  -4.3305   0.00    0.0
2019/01/15 09:32:33.000   4280219.5340  -4034416.0015  -2458261.7594   5   6   5.1735   4.0582   6.3342  -3.8607   3.6051  -4.3289   0.00    0.0
2019/01/15 09:32:34.000   4280213.2320  -4034416.1843  -2458258.0777   5   6   5.1733   4.0579   6.3324  -3.8604   3.6039  -4.3274   0.00    0.0
2019/01/15 09:32:36.000   4280225.1795  -4034412.8189  -2458276.6819   5   6   5.1728   4.0573   6.3289  -3.8597   3.6015  -4.3244   0.00    0.0
2019/01/15 09:32:37.000   4280210.7055  -4034406.7668  -2458261.2344   5   6   5.1726   4.0569   6.3271  -3.8594   3.6004  -4.3228   0.00    0.0
2019/01/15 09:32:38.000   4280220.8584  -4034423.8563  -2458293.8582   5   6   5.1723   4.0566   6.3254  -3.8591   3.5992  -4.3213   0.00    0.0
2019/01/15 09:32:39.000   4280209.5021  -4034418.2226  -2458270.7831   5   6   5.1721   4.0563   6.3236  -3.8588   3.5980  -4.3198   0.00    0.0
2019/01/15 09:32:40.000   4280220.1373  -4034416.0595  -2458279.8054   5   6   5.1718   4.0560   6.3218  -3.8584   3.5968  -4.3183   0.00    0.0
2019/01/15 09:32:41.000   4280217.6972  -4034417.7949  -2458274.9413   5   6   5.1716   4.0557   6.3201  -3.8581   3.5957  -4.3167   0.00    0.0
2019/01/15 09:32:43.000   4280204.3683  -4034398.3737  -2458273.9354   5   6   5.1711   4.0551   6.3165  -3.8575   3.5933  -4.3137   0.00    0.0
2019/01/15 09:32:44.000   4280230.9445  -4034424.2784  -2458283.3397   5   6   5.1708   4.0548   6.3148  -3.8571   3.5921  -4.3122   0.00    0.0
2019/01/15 09:32:45.000   4280227.1719  -4034426.9595  -2458289.7207   5   6   5.1706   4.0544   6.3130  -3.8568   3.5910  -4.3107   0.00    0.0
2019/01/15 09:32:46.000   4280223.5742  -4034425.2630  -2458285.6340   5   6   5.1704   4.0541   6.3113  -3.8565   3.5898  -4.3091   0.00    0.0
2019/01/15 09:32:47.000   4280216.3383  -4034410.0284  -2458277.5515   5   6   5.1701   4.0538   6.3095  -3.8562   3.5886  -4.3076   0.00    0.0
2019/01/15 09:32:48.000   4280215.8233  -4034408.1978  -2458287.3509   5   6   5.1699   4.0535   6.3077  -3.8558   3.5874  -4.3061   0.00    0.0
2019/01/15 09:32:50.000   4280211.0946  -4034421.5761  -2458276.6421   5   6   5.1694   4.0529   6.3042  -3.8552   3.5851  -4.3031   0.00    0.0
2019/01/15 09:32:51.000   4280214.9708  -4034409.0459  -2458275.8762   5   6   5.1692   4.0526   6.3025  -3.8549   3.5839  -4.3016   0.00    0.0
2019/01/15 09:32:52.000   4280203.6917  -4034402.0356  -2458283.1829   5   6   5.1690   4.0523   6.3007  -3.8546   3.5828  -4.3001   0.00    0.0
2019/01/15 09:32:53.000   4280221.3148  -4034418.5246  -2458296.4888   5   6   5.1687   4.0520   6.2990  -3.8542   3.5816  -4.2985   0.00    0.0
2019/01/15 09:32:54.000   4280202.9836  -4034409.4239  -2458264.8875   5   6   5.1685   4.0517   6.2972  -3.8539   3.5804  -4.2970   0.00    0.0
2019/01/15 09:32:56.000   4280216.4954  -4034414.9312  -2458287.5925   5   6   5.1680   4.0511   6.2937  -3.8533   3.5781  -4.2940   0.00    0.0
2019/01/15 09:33:01.000   4280221.7255  -4034410.7539  -2458268.0864   5   6   5.1669   4.0495   6.2849  -3.8517   3.5723  -4.2864   0.00    0.0
2019/01/15 09:33:02.000   4280210.5025  -4034410.9076  -2458260.9946   5   6   5.1667   4.0492   6.2832  -3.8514   3.5711  -4.2849   0.00    0.0
2019/01/15 09:33:04.000   4280218.6836  -4034407.3871  -2458261.1396   5   6   5.1662   4.0486   6.2797  -3.8508   3.5688  -4.2819   0.00    0.0
2019/01/15 09:33:05.000   4280203.1276  -4034399.5504  -2458240.6569   5   6   5.1660   4.0483   6.2779  -3.8505   3.5677  -4.2804   0.00    0.0
2019/01/15 09:33:06.000   4280205.4191  -4034403.4853  -2458240.6140   5   6   5.1658   4.0480   6.2762  -3.8502   3.5665  -4.2789   0.00    0.0
2019/01/15 09:33:07.000   4280217.1163  -4034405.4930  -2458272.7306   5   6   5.1656   4.0477   6.2744  -3.8499   3.5654  -4.2774   0.00    0.0
2019/01/15 09:33:08.000   4280210.3357  -4034404.5722  -2458261.3739   5   6   5.1653   4.0474   6.2727  -3.8496   3.5642  -4.2759   0.00    0.0
2019/01/15 09:33:09.000   4280210.8768  -4034411.8392  -2458260.6987   5   6   5.1651   4.0472   6.2709  -3.8493   3.5630  -4.2744   0.00    0.0
2019/01/15 09:33:10.000   4280216.5486  -4034418.1629  -2458276.7550   5   6   5.1649   4.0469   6.2692  -3.8490   3.5619  -4.2729   0.00    0.0
2019/01/15 09:33:11.000   4280226.2206  -4034415.9318  -2458285.5305   5   6   5.1647   4.0466   6.2674  -3.8487   3.5607  -4.2714   0.00    0.0
2019/01/15 09:33:12.000   4280224.6080  -4034406.3824  -2458279.5419   5   6   5.1645   4.0463   6.2657  -3.8484   3.5596  -4.2699   0.00    0.0
2019/01/15 09:33:13.000   4280216.1423  -4034415.6334  -2458273.5320   5   6   5.1643   4.0460   6.2639  -3.8481   3.5584  -4.2684   0.00    0.0
2019/01/15 09:33:14.000   4280228.6173  -4034430.1314  -2458287.4423   5   6   5.1640   4.0457   6.2622  -3.8478   3.5573  -4.2669   0.00    0.0
