% program   : RTKPOST ver.2.4.2
% inp file  : D:\Google Drive\UERJ\_Projeto Final\Python\tcc-guilherme\20190115_LevantamentoCompleto_Smoothed.19o
% inp file  : D:\Google Drive\UERJ\_Projeto Final\20190115_Marco 91500 IBGE\brdm0150.19p
% obs start : 2019/01/15 09:25:22.0 GPST (week2036 206722.0s)
% obs end   : 2019/01/15 10:25:42.0 GPST (week2036 210342.0s)
% pos mode  : single
% elev mask : 15.0 deg
% ionos opt : off
% tropo opt : saastamoinen
% ephemeris : broadcast
%
% (x/y/z-ecef=WGS84,Q=1:fix,2:float,3:sbas,4:dgps,5:single,6:ppp,ns=# of satellites)
%  GPST                      x-ecef(m)      y-ecef(m)      z-ecef(m)   Q  ns   sdx(m)   sdy(m)   sdz(m)  sdxy(m)  sdyz(m)  sdzx(m) age(s)  ratio
2019/01/15 09:25:22.000   4280235.7872  -4034431.1480  -2458273.0131   5   6   8.7972   9.6008   6.7220  -7.5925  -3.8084  -3.3832   0.00    0.0
2019/01/15 09:25:23.000   4280230.3973  -4034434.0916  -2458288.9424   5   6   8.7987   9.6013   6.7222  -7.5938  -3.8078  -3.3835   0.00    0.0
2019/01/15 09:25:24.000   4280231.0626  -4034433.3199  -2458280.6836   5   6   8.8002   9.6017   6.7224  -7.5952  -3.8072  -3.3838   0.00    0.0
2019/01/15 09:25:25.000   4280225.1643  -4034431.3379  -2458268.8927   5   6   8.8016   9.6022   6.7226  -7.5966  -3.8065  -3.3842   0.00    0.0
2019/01/15 09:25:26.000   4280219.6879  -4034425.2268  -2458258.3334   5   6   8.8031   9.6027   6.7228  -7.5980  -3.8059  -3.3845   0.00    0.0
2019/01/15 09:25:27.000   4280223.4926  -4034420.8145  -2458287.7946   5   5   9.5629   9.6578  14.7157  -7.8473  -1.0252  -7.7659   0.00    0.0
2019/01/15 09:25:28.000   4280233.6336  -4034432.0357  -2458285.8005   5   6   8.8061   9.6036   6.7232  -7.6008  -3.8047  -3.3852   0.00    0.0
2019/01/15 09:25:29.000   4280223.7933  -4034420.3477  -2458286.3718   5   5   9.5628   9.6585  14.7026  -7.8492  -1.0372  -7.7564   0.00    0.0
2019/01/15 09:25:30.000   4280232.4427  -4034428.0181  -2458289.2323   5   5   9.5627   9.6589  14.6960  -7.8501  -1.0431  -7.7517   0.00    0.0
2019/01/15 09:25:31.000   4280225.4664  -4034420.2919  -2458278.4460   5   5   9.5626   9.6592  14.6894  -7.8510  -1.0489  -7.7470   0.00    0.0
2019/01/15 09:25:32.000   4280218.8292  -4034413.5924  -2458275.2844   5   5   9.5626   9.6596  14.6829  -7.8520  -1.0546  -7.7423   0.00    0.0
2019/01/15 09:25:33.000   4280225.2801  -4034422.7071  -2458280.4334   5   5   9.5625   9.6600  14.6763  -7.8529  -1.0604  -7.7375   0.00    0.0
2019/01/15 09:25:34.000   4280223.7012  -4034418.2929  -2458275.6309   5   5   9.5625   9.6604  14.6697  -7.8539  -1.0660  -7.7328   0.00    0.0
2019/01/15 09:25:35.000   4280226.3678  -4034423.1861  -2458280.0765   5   5   9.5624   9.6607  14.6632  -7.8548  -1.0716  -7.7281   0.00    0.0
2019/01/15 09:25:36.000   4280227.2905  -4034424.4746  -2458278.4397   5   5   9.5624   9.6611  14.6566  -7.8558  -1.0772  -7.7234   0.00    0.0
2019/01/15 09:25:37.000   4280228.7617  -4034426.2576  -2458279.9974   5   5   9.5623   9.6615  14.6500  -7.8567  -1.0827  -7.7186   0.00    0.0
2019/01/15 09:25:38.000   4280229.3165  -4034423.9721  -2458285.9766   5   6   9.4248   7.4691  11.8771  -7.2000   7.1633  -8.5642   0.00    0.0
2019/01/15 09:25:39.000   4280228.9450  -4034423.6469  -2458283.2012   5   6   9.4240   7.4679  11.8738  -7.1989   7.1609  -8.5615   0.00    0.0
2019/01/15 09:25:40.000   4280228.4623  -4034423.9192  -2458284.8186   5   6   9.4232   7.4667  11.8705  -7.1978   7.1585  -8.5589   0.00    0.0
2019/01/15 09:25:41.000   4280229.4306  -4034426.5243  -2458282.7243   5   6   9.4224   7.4655  11.8671  -7.1967   7.1561  -8.5562   0.00    0.0
2019/01/15 09:25:42.000   4280229.8122  -4034427.8835  -2458280.6800   5   6   9.4216   7.4643  11.8638  -7.1957   7.1537  -8.5536   0.00    0.0
2019/01/15 09:25:43.000   4280229.0288  -4034425.1058  -2458284.3975   5   6   9.4208   7.4631  11.8605  -7.1946   7.1512  -8.5509   0.00    0.0
2019/01/15 09:25:44.000   4280229.3715  -4034426.3667  -2458282.7606   5   6   9.4200   7.4619  11.8572  -7.1935   7.1488  -8.5483   0.00    0.0
2019/01/15 09:25:45.000   4280229.6767  -4034427.8176  -2458280.4875   5   6   9.4193   7.4607  11.8539  -7.1924   7.1464  -8.5457   0.00    0.0
2019/01/15 09:25:46.000   4280229.4127  -4034426.7796  -2458281.9876   5   6   9.4185   7.4595  11.8506  -7.1914   7.1440  -8.5430   0.00    0.0
2019/01/15 09:25:47.000   4280228.8852  -4034424.8996  -2458284.6805   5   6   9.4177   7.4583  11.8472  -7.1903   7.1416  -8.5404   0.00    0.0
2019/01/15 09:25:48.000   4280228.6573  -4034424.3543  -2458285.2233   5   6   9.4169   7.4571  11.8439  -7.1892   7.1392  -8.5377   0.00    0.0
2019/01/15 09:25:49.000   4280228.8071  -4034425.1901  -2458283.7428   5   6   9.4161   7.4559  11.8406  -7.1881   7.1368  -8.5351   0.00    0.0
2019/01/15 09:27:31.000   4280224.5727  -4034418.1735  -2458278.4695   5   6   9.3420   7.3388  11.5048  -7.0851   6.8972  -8.2698   0.00    0.0
2019/01/15 09:27:32.000   4280224.5040  -4034418.1867  -2458278.2426   5   6   9.3413   7.3377  11.5015  -7.0841   6.8949  -8.2673   0.00    0.0
2019/01/15 09:27:33.000   4280224.5772  -4034418.2870  -2458278.2976   5   6   9.3407   7.3366  11.4982  -7.0832   6.8926  -8.2647   0.00    0.0
2019/01/15 09:27:34.000   4280224.5688  -4034418.3606  -2458278.3242   5   6   9.3400   7.3355  11.4950  -7.0822   6.8903  -8.2621   0.00    0.0
2019/01/15 09:27:35.000   4280224.5798  -4034418.3606  -2458278.0586   5   6   9.3393   7.3344  11.4917  -7.0813   6.8880  -8.2596   0.00    0.0
2019/01/15 09:27:36.000   4280224.6711  -4034418.4135  -2458278.2067   5   6   9.3387   7.3333  11.4884  -7.0803   6.8857  -8.2570   0.00    0.0
2019/01/15 09:27:37.000   4280224.6759  -4034418.3994  -2458278.1826   5   6   9.3380   7.3322  11.4852  -7.0794   6.8834  -8.2545   0.00    0.0
2019/01/15 09:27:38.000   4280224.7109  -4034418.3284  -2458278.1327   5   6   9.3374   7.3311  11.4819  -7.0784   6.8812  -8.2519   0.00    0.0
2019/01/15 09:27:39.000   4280224.7318  -4034418.2972  -2458278.1065   5   6   9.3367   7.3300  11.4786  -7.0775   6.8789  -8.2494   0.00    0.0
2019/01/15 09:27:40.000   4280224.7765  -4034418.2318  -2458278.2422   5   6   9.3360   7.3289  11.4754  -7.0765   6.8766  -8.2468   0.00    0.0
2019/01/15 09:27:41.000   4280224.8121  -4034418.1639  -2458278.4196   5   6   9.3354   7.3278  11.4721  -7.0756   6.8743  -8.2443   0.00    0.0
2019/01/15 09:27:42.000   4280224.7384  -4034418.0369  -2458278.5319   5   6   9.3347   7.3268  11.4689  -7.0747   6.8720  -8.2417   0.00    0.0
2019/01/15 09:27:43.000   4280224.8004  -4034417.9764  -2458278.6034   5   6   9.3341   7.3257  11.4656  -7.0737   6.8697  -8.2392   0.00    0.0
2019/01/15 09:27:44.000   4280224.8390  -4034417.9499  -2458278.5601   5   6   9.3334   7.3246  11.4623  -7.0728   6.8674  -8.2366   0.00    0.0
2019/01/15 09:27:45.000   4280224.9166  -4034417.9237  -2458278.8228   5   6   9.3328   7.3235  11.4591  -7.0719   6.8652  -8.2341   0.00    0.0
2019/01/15 09:27:46.000   4280224.8222  -4034417.8638  -2458278.8037   5   6   9.3321   7.3224  11.4558  -7.0709   6.8629  -8.2315   0.00    0.0
2019/01/15 09:27:47.000   4280224.8711  -4034417.7531  -2458279.0076   5   6   9.3315   7.3213  11.4526  -7.0700   6.8606  -8.2290   0.00    0.0
2019/01/15 09:27:48.000   4280224.8712  -4034417.6209  -2458279.0945   5   6   9.3308   7.3202  11.4493  -7.0690   6.8583  -8.2264   0.00    0.0
2019/01/15 09:27:49.000   4280224.9845  -4034417.7345  -2458279.0989   5   6   9.3302   7.3192  11.4461  -7.0681   6.8560  -8.2239   0.00    0.0
2019/01/15 09:27:50.000   4280224.9045  -4034417.6612  -2458278.9816   5   6   9.3295   7.3181  11.4428  -7.0672   6.8538  -8.2213   0.00    0.0
2019/01/15 09:27:51.000   4280224.8899  -4034417.6221  -2458278.8808   5   6   9.3289   7.3170  11.4395  -7.0663   6.8515  -8.2188   0.00    0.0
2019/01/15 09:27:52.000   4280224.8524  -4034417.5997  -2458278.8295   5   6   9.3282   7.3159  11.4363  -7.0653   6.8492  -8.2162   0.00    0.0
2019/01/15 09:27:53.000   4280225.0081  -4034417.6901  -2458278.9544   5   6   9.3276   7.3148  11.4330  -7.0644   6.8469  -8.2137   0.00    0.0
2019/01/15 09:27:54.000   4280224.9663  -4034417.6315  -2458278.8096   5   6   9.3269   7.3138  11.4298  -7.0635   6.8447  -8.2112   0.00    0.0
2019/01/15 09:27:55.000   4280224.8883  -4034417.5614  -2458278.8317   5   6   9.3263   7.3127  11.4265  -7.0625   6.8424  -8.2086   0.00    0.0
2019/01/15 09:27:56.000   4280224.9144  -4034417.4704  -2458278.9902   5   6   9.3257   7.3116  11.4233  -7.0616   6.8401  -8.2061   0.00    0.0
2019/01/15 09:27:57.000   4280224.9299  -4034417.5082  -2458278.9827   5   6   9.3250   7.3105  11.4200  -7.0607   6.8379  -8.2035   0.00    0.0
2019/01/15 09:27:58.000   4280224.8960  -4034417.4900  -2458279.1765   5   6   9.3244   7.3095  11.4168  -7.0598   6.8356  -8.2010   0.00    0.0
2019/01/15 09:27:59.000   4280225.0375  -4034417.5308  -2458279.4657   5   6   9.3238   7.3084  11.4135  -7.0589   6.8333  -8.1985   0.00    0.0
2019/01/15 09:28:00.000   4280225.0628  -4034417.5188  -2458279.5886   5   6   9.3231   7.3073  11.4103  -7.0579   6.8311  -8.1959   0.00    0.0
2019/01/15 09:28:01.000   4280224.9918  -4034417.4006  -2458279.6620   5   6   9.3225   7.3063  11.4070  -7.0570   6.8288  -8.1934   0.00    0.0
2019/01/15 09:28:02.000   4280225.0195  -4034417.4181  -2458279.7355   5   6   9.3219   7.3052  11.4038  -7.0561   6.8265  -8.1908   0.00    0.0
2019/01/15 09:28:03.000   4280225.0658  -4034417.4187  -2458279.7490   5   6   9.3212   7.3041  11.4005  -7.0552   6.8243  -8.1883   0.00    0.0
2019/01/15 09:28:04.000   4280224.9963  -4034417.5850  -2458279.7040   5   6   9.3206   7.3031  11.3973  -7.0543   6.8220  -8.1858   0.00    0.0
2019/01/15 09:28:05.000   4280224.6980  -4034417.6335  -2458279.6162   5   6   9.3200   7.3020  11.3941  -7.0534   6.8198  -8.1833   0.00    0.0
2019/01/15 09:28:06.000   4280224.4600  -4034417.6695  -2458279.6916   5   6   9.3193   7.3009  11.3908  -7.0524   6.8175  -8.1807   0.00    0.0
2019/01/15 09:28:07.000   4280224.6417  -4034418.0769  -2458279.6207   5   6   9.3187   7.2999  11.3876  -7.0515   6.8152  -8.1782   0.00    0.0
2019/01/15 09:28:08.000   4280224.8574  -4034418.4928  -2458279.6270   5   6   9.3181   7.2988  11.3843  -7.0506   6.8130  -8.1757   0.00    0.0
2019/01/15 09:28:09.000   4280225.2845  -4034418.9383  -2458279.7665   5   6   9.3175   7.2977  11.3811  -7.0497   6.8107  -8.1731   0.00    0.0
2019/01/15 09:28:10.000   4280225.8347  -4034419.2974  -2458280.0569   5   6   9.3168   7.2967  11.3778  -7.0488   6.8085  -8.1706   0.00    0.0
2019/01/15 09:28:11.000   4280226.1104  -4034419.2478  -2458280.1870   5   6   9.3162   7.2956  11.3746  -7.0479   6.8062  -8.1681   0.00    0.0
2019/01/15 09:28:12.000   4280225.9416  -4034419.2146  -2458280.1953   5   6   9.3156   7.2945  11.3714  -7.0470   6.8040  -8.1656   0.00    0.0
2019/01/15 09:28:13.000   4280225.5667  -4034419.1467  -2458280.2719   5   6   9.3150   7.2935  11.3681  -7.0461   6.8017  -8.1630   0.00    0.0
2019/01/15 09:28:14.000   4280225.0833  -4034419.2324  -2458280.0049   5   6   9.3144   7.2924  11.3649  -7.0452   6.7995  -8.1605   0.00    0.0
2019/01/15 09:28:15.000   4280225.1097  -4034419.7208  -2458279.6403   5   6   9.3137   7.2914  11.3616  -7.0443   6.7972  -8.1580   0.00    0.0
2019/01/15 09:28:16.000   4280225.4380  -4034420.0847  -2458279.2254   5   6   9.3131   7.2903  11.3584  -7.0434   6.7950  -8.1555   0.00    0.0
2019/01/15 09:28:17.000   4280225.7436  -4034420.1403  -2458278.7493   5   6   9.3125   7.2893  11.3552  -7.0425   6.7927  -8.1529   0.00    0.0
2019/01/15 09:28:18.000   4280225.7895  -4034420.0120  -2458278.1599   5   6   9.3119   7.2882  11.3519  -7.0416   6.7905  -8.1504   0.00    0.0
2019/01/15 09:28:19.000   4280225.9686  -4034420.1933  -2458278.1469   5   6   9.3113   7.2872  11.3487  -7.0407   6.7882  -8.1479   0.00    0.0
2019/01/15 09:28:20.000   4280225.4712  -4034420.1183  -2458277.9423   5   6   9.3107   7.2861  11.3455  -7.0398   6.7860  -8.1454   0.00    0.0
2019/01/15 09:28:21.000   4280225.0349  -4034420.0112  -2458278.0839   5   6   9.3101   7.2850  11.3422  -7.0389   6.7837  -8.1429   0.00    0.0
2019/01/15 09:28:22.000   4280224.6420  -4034419.9293  -2458278.5545   5   6   9.3095   7.2840  11.3390  -7.0380   6.7815  -8.1403   0.00    0.0
2019/01/15 09:28:23.000   4280224.5004  -4034419.7359  -2458278.8697   5   6   9.3088   7.2829  11.3357  -7.0371   6.7793  -8.1378   0.00    0.0
2019/01/15 09:28:24.000   4280224.9022  -4034419.7890  -2458279.4521   5   6   9.3082   7.2819  11.3325  -7.0362   6.7770  -8.1353   0.00    0.0
2019/01/15 09:28:25.000   4280225.4474  -4034419.8999  -2458280.1985   5   6   9.3076   7.2809  11.3293  -7.0353   6.7748  -8.1328   0.00    0.0
2019/01/15 09:28:26.000   4280225.9371  -4034420.1481  -2458280.8043   5   6   9.3070   7.2798  11.3260  -7.0344   6.7725  -8.1303   0.00    0.0
2019/01/15 09:28:27.000   4280225.8950  -4034420.1508  -2458280.6369   5   6   9.3064   7.2788  11.3228  -7.0335   6.7703  -8.1278   0.00    0.0
2019/01/15 09:28:28.000   4280225.4154  -4034420.0902  -2458280.0040   5   6   9.3058   7.2777  11.3196  -7.0327   6.7681  -8.1253   0.00    0.0
2019/01/15 09:28:29.000   4280225.1438  -4034420.0047  -2458279.5918   5   6   9.3052   7.2767  11.3164  -7.0318   6.7658  -8.1227   0.00    0.0
2019/01/15 09:28:30.000   4280225.1221  -4034420.2679  -2458279.4504   5   6   9.3046   7.2756  11.3131  -7.0309   6.7636  -8.1202   0.00    0.0
2019/01/15 09:28:31.000   4280225.0672  -4034420.2926  -2458279.0213   5   6   9.3040   7.2746  11.3099  -7.0300   6.7614  -8.1177   0.00    0.0
2019/01/15 09:28:32.000   4280224.4894  -4034419.7755  -2458278.2646   5   6   9.3034   7.2735  11.3067  -7.0291   6.7591  -8.1152   0.00    0.0
2019/01/15 09:28:33.000   4280224.1859  -4034419.4986  -2458277.8356   5   6   9.3028   7.2725  11.3035  -7.0282   6.7569  -8.1127   0.00    0.0
2019/01/15 09:28:34.000   4280223.6502  -4034419.1351  -2458277.1727   5   6   9.3022   7.2715  11.3002  -7.0274   6.7547  -8.1102   0.00    0.0
2019/01/15 09:28:35.000   4280223.6927  -4034418.9441  -2458276.8741   5   6   9.3016   7.2704  11.2970  -7.0265   6.7525  -8.1077   0.00    0.0
2019/01/15 09:28:36.000   4280224.3866  -4034419.1501  -2458276.8862   5   6   9.3011   7.2694  11.2938  -7.0256   6.7502  -8.1052   0.00    0.0
2019/01/15 09:28:37.000   4280224.7826  -4034419.2424  -2458276.7608   5   6   9.3005   7.2684  11.2906  -7.0247   6.7480  -8.1027   0.00    0.0
2019/01/15 09:28:38.000   4280225.0415  -4034419.4060  -2458276.7169   5   6   9.2999   7.2673  11.2873  -7.0238   6.7458  -8.1002   0.00    0.0
2019/01/15 09:28:39.000   4280225.1548  -4034419.6462  -2458276.9005   5   6   9.2993   7.2663  11.2841  -7.0230   6.7436  -8.0977   0.00    0.0
2019/01/15 09:28:40.000   4280225.4399  -4034420.0002  -2458277.1426   5   6   9.2987   7.2652  11.2809  -7.0221   6.7413  -8.0952   0.00    0.0
2019/01/15 09:28:41.000   4280225.6641  -4034420.1615  -2458277.1523   5   6   9.2981   7.2642  11.2777  -7.0212   6.7391  -8.0927   0.00    0.0
2019/01/15 09:28:42.000   4280225.7632  -4034420.1524  -2458277.3855   5   6   9.2975   7.2632  11.2744  -7.0204   6.7369  -8.0902   0.00    0.0
2019/01/15 09:28:43.000   4280225.2860  -4034419.6249  -2458277.0963   5   6   9.2969   7.2622  11.2712  -7.0195   6.7347  -8.0877   0.00    0.0
2019/01/15 09:28:44.000   4280224.5832  -4034419.1274  -2458277.0175   5   6   9.2964   7.2611  11.2680  -7.0186   6.7325  -8.0852   0.00    0.0
2019/01/15 09:28:45.000   4280224.1330  -4034418.7639  -2458276.9746   5   6   9.2958   7.2601  11.2648  -7.0177   6.7303  -8.0827   0.00    0.0
2019/01/15 09:28:46.000   4280223.7035  -4034418.2406  -2458276.9076   5   6   9.2952   7.2591  11.2616  -7.0169   6.7280  -8.0802   0.00    0.0
2019/01/15 09:28:47.000   4280223.5352  -4034417.8159  -2458276.7493   5   6   9.2946   7.2580  11.2584  -7.0160   6.7258  -8.0777   0.00    0.0
2019/01/15 09:28:48.000   4280224.0438  -4034417.8451  -2458277.0286   5   6   9.2940   7.2570  11.2551  -7.0152   6.7236  -8.0752   0.00    0.0
2019/01/15 09:28:49.000   4280224.0484  -4034417.8566  -2458276.9337   5   6   9.2935   7.2560  11.2519  -7.0143   6.7214  -8.0727   0.00    0.0
2019/01/15 09:28:50.000   4280223.5159  -4034417.6268  -2458276.8045   5   6   9.2929   7.2550  11.2487  -7.0134   6.7192  -8.0702   0.00    0.0
2019/01/15 09:28:51.000   4280223.2928  -4034417.4380  -2458276.4764   5   6   9.2923   7.2539  11.2455  -7.0126   6.7170  -8.0677   0.00    0.0
2019/01/15 09:28:52.000   4280223.3307  -4034417.4883  -2458276.3191   5   6   9.2917   7.2529  11.2423  -7.0117   6.7148  -8.0653   0.00    0.0
2019/01/15 09:28:53.000   4280223.6160  -4034417.7550  -2458276.5077   5   6   9.2912   7.2519  11.2391  -7.0108   6.7126  -8.0628   0.00    0.0
2019/01/15 09:28:54.000   4280224.1066  -4034418.1608  -2458277.0325   5   6   9.2906   7.2509  11.2359  -7.0100   6.7104  -8.0603   0.00    0.0
2019/01/15 09:28:55.000   4280224.3232  -4034418.3261  -2458277.3206   5   6   9.2900   7.2499  11.2326  -7.0091   6.7082  -8.0578   0.00    0.0
2019/01/15 09:28:56.000   4280223.9878  -4034418.3051  -2458277.1575   5   6   9.2895   7.2488  11.2294  -7.0083   6.7060  -8.0553   0.00    0.0
2019/01/15 09:28:57.000   4280223.3341  -4034418.1828  -2458276.9152   5   6   9.2889   7.2478  11.2262  -7.0074   6.7037  -8.0528   0.00    0.0
2019/01/15 09:28:58.000   4280222.9360  -4034418.1484  -2458277.1266   5   6   9.2883   7.2468  11.2230  -7.0066   6.7015  -8.0503   0.00    0.0
2019/01/15 09:28:59.000   4280222.3850  -4034417.8654  -2458277.2892   5   6   9.2878   7.2458  11.2198  -7.0057   6.6993  -8.0478   0.00    0.0
2019/01/15 09:29:00.000   4280222.2350  -4034417.7290  -2458277.6599   5   6   9.2872   7.2448  11.2166  -7.0049   6.6971  -8.0454   0.00    0.0
2019/01/15 09:29:01.000   4280222.6731  -4034417.6854  -2458278.2216   5   6   9.2866   7.2438  11.2134  -7.0040   6.6949  -8.0429   0.00    0.0
2019/01/15 09:29:02.000   4280223.3730  -4034417.6489  -2458278.5782   5   6   9.2861   7.2427  11.2102  -7.0032   6.6928  -8.0404   0.00    0.0
2019/01/15 09:29:03.000   4280224.4862  -4034418.0605  -2458278.8012   5   6   9.2855   7.2417  11.2070  -7.0023   6.6906  -8.0379   0.00    0.0
2019/01/15 09:29:04.000   4280224.8952  -4034418.5240  -2458278.5263   5   6   9.2849   7.2407  11.2038  -7.0015   6.6884  -8.0354   0.00    0.0
2019/01/15 09:29:05.000   4280224.7371  -4034418.6223  -2458277.9358   5   6   9.2844   7.2397  11.2006  -7.0006   6.6862  -8.0330   0.00    0.0
2019/01/15 09:29:06.000   4280224.1033  -4034418.3742  -2458277.0256   5   6   9.2838   7.2387  11.1974  -6.9998   6.6840  -8.0305   0.00    0.0
2019/01/15 09:29:07.000   4280223.6985  -4034418.3874  -2458276.2873   5   6   9.2833   7.2377  11.1942  -6.9989   6.6818  -8.0280   0.00    0.0
2019/01/15 09:29:08.000   4280223.6016  -4034418.3366  -2458275.9575   5   6   9.2827   7.2367  11.1910  -6.9981   6.6796  -8.0255   0.00    0.0
2019/01/15 09:29:09.000   4280223.7940  -4034418.3051  -2458275.9113   5   6   9.2822   7.2357  11.1878  -6.9973   6.6774  -8.0231   0.00    0.0
2019/01/15 09:29:10.000   4280224.1592  -4034418.3310  -2458276.2243   5   6   9.2816   7.2347  11.1846  -6.9964   6.6752  -8.0206   0.00    0.0
2019/01/15 09:29:11.000   4280224.3895  -4034418.4438  -2458276.3795   5   6   9.2811   7.2337  11.1814  -6.9956   6.6730  -8.0181   0.00    0.0
2019/01/15 09:29:12.000   4280224.5333  -4034418.4173  -2458276.7591   5   6   9.2805   7.2327  11.1782  -6.9947   6.6708  -8.0157   0.00    0.0
2019/01/15 09:29:13.000   4280224.2205  -4034418.0758  -2458276.9002   5   6   9.2800   7.2317  11.1750  -6.9939   6.6687  -8.0132   0.00    0.0
2019/01/15 09:29:14.000   4280223.9516  -4034417.9245  -2458276.9880   5   6   9.2794   7.2307  11.1718  -6.9931   6.6665  -8.0107   0.00    0.0
2019/01/15 09:29:15.000   4280223.8124  -4034417.7198  -2458276.7639   5   6   9.2789   7.2297  11.1686  -6.9922   6.6643  -8.0082   0.00    0.0
2019/01/15 09:29:16.000   4280224.2199  -4034417.9572  -2458276.5651   5   6   9.2783   7.2287  11.1654  -6.9914   6.6621  -8.0058   0.00    0.0
2019/01/15 09:29:17.000   4280224.4263  -4034418.0919  -2458276.2829   5   6   9.2778   7.2277  11.1622  -6.9906   6.6599  -8.0033   0.00    0.0
2019/01/15 09:29:18.000   4280224.1253  -4034418.1517  -2458275.7999   5   6   9.2772   7.2267  11.1590  -6.9897   6.6578  -8.0008   0.00    0.0
2019/01/15 09:29:19.000   4280224.0260  -4034418.1454  -2458275.4101   5   6   9.2767   7.2257  11.1558  -6.9889   6.6556  -7.9984   0.00    0.0
2019/01/15 09:29:20.000   4280224.3387  -4034418.2902  -2458274.7666   5   6   9.2762   7.2247  11.1526  -6.9881   6.6534  -7.9959   0.00    0.0
2019/01/15 09:29:21.000   4280224.5711  -4034418.3460  -2458274.2129   5   6   9.2756   7.2237  11.1494  -6.9873   6.6512  -7.9935   0.00    0.0
2019/01/15 09:29:22.000   4280224.5118  -4034417.8837  -2458273.9123   5   6   9.2751   7.2227  11.1462  -6.9864   6.6490  -7.9910   0.00    0.0
2019/01/15 09:29:23.000   4280224.1742  -4034417.2575  -2458273.7557   5   6   9.2745   7.2217  11.1430  -6.9856   6.6469  -7.9885   0.00    0.0
2019/01/15 09:29:24.000   4280224.1231  -4034417.0415  -2458273.8248   5   6   9.2740   7.2207  11.1399  -6.9848   6.6447  -7.9861   0.00    0.0
2019/01/15 09:29:25.000   4280224.1437  -4034417.1864  -2458274.0577   5   6   9.2735   7.2197  11.1367  -6.9840   6.6425  -7.9836   0.00    0.0
2019/01/15 09:29:26.000   4280224.2850  -4034417.5525  -2458274.4536   5   6   9.2729   7.2187  11.1335  -6.9831   6.6404  -7.9812   0.00    0.0
2019/01/15 09:29:27.000   4280224.2216  -4034417.9794  -2458274.4515   5   6   9.2724   7.2177  11.1303  -6.9823   6.6382  -7.9787   0.00    0.0
2019/01/15 09:29:28.000   4280224.0977  -4034418.1639  -2458274.1859   5   6   9.2719   7.2167  11.1271  -6.9815   6.6360  -7.9762   0.00    0.0
2019/01/15 09:29:29.000   4280223.9682  -4034418.3474  -2458274.0747   5   6   9.2713   7.2157  11.1239  -6.9807   6.6339  -7.9738   0.00    0.0
2019/01/15 09:29:30.000   4280224.0185  -4034418.5794  -2458274.1626   5   6   9.2708   7.2148  11.1207  -6.9799   6.6317  -7.9713   0.00    0.0
2019/01/15 09:29:31.000   4280224.0387  -4034418.5011  -2458274.3191   5   6   9.2703   7.2138  11.1176  -6.9791   6.6295  -7.9689   0.00    0.0
2019/01/15 09:29:32.000   4280223.8138  -4034418.0282  -2458274.1050   5   6   9.2698   7.2128  11.1144  -6.9782   6.6274  -7.9664   0.00    0.0
2019/01/15 09:29:33.000   4280223.9307  -4034417.8316  -2458274.0850   5   6   9.2692   7.2118  11.1112  -6.9774   6.6252  -7.9640   0.00    0.0
2019/01/15 09:29:34.000   4280223.6529  -4034417.6293  -2458273.8105   5   6   9.2687   7.2108  11.1080  -6.9766   6.6230  -7.9615   0.00    0.0
2019/01/15 09:29:35.000   4280223.0211  -4034417.2573  -2458273.5256   5   6   9.2682   7.2098  11.1048  -6.9758   6.6209  -7.9591   0.00    0.0
2019/01/15 09:29:36.000   4280222.5149  -4034417.0315  -2458273.1493   5   6   9.2677   7.2089  11.1016  -6.9750   6.6187  -7.9566   0.00    0.0
2019/01/15 09:29:37.000   4280222.4349  -4034417.1115  -2458273.1133   5   6   9.2671   7.2079  11.0985  -6.9742   6.6166  -7.9542   0.00    0.0
2019/01/15 09:29:38.000   4280222.1196  -4034417.0461  -2458272.6353   5   6   9.2666   7.2069  11.0953  -6.9734   6.6144  -7.9517   0.00    0.0
2019/01/15 09:29:39.000   4280222.1095  -4034417.2391  -2458272.1391   5   6   9.2661   7.2059  11.0921  -6.9726   6.6123  -7.9493   0.00    0.0
2019/01/15 09:29:40.000   4280222.3528  -4034417.4566  -2458271.7449   5   6   9.2656   7.2049  11.0889  -6.9718   6.6101  -7.9469   0.00    0.0
2019/01/15 09:29:41.000   4280222.6988  -4034417.5596  -2458271.6581   5   6   9.2651   7.2040  11.0858  -6.9710   6.6079  -7.9444   0.00    0.0
2019/01/15 09:29:42.000   4280222.7455  -4034417.5044  -2458272.0514   5   6   9.2646   7.2030  11.0826  -6.9702   6.6058  -7.9420   0.00    0.0
2019/01/15 09:29:43.000   4280222.6879  -4034417.4999  -2458272.8814   5   6   9.2641   7.2020  11.0794  -6.9694   6.6036  -7.9395   0.00    0.0
2019/01/15 09:29:44.000   4280222.6179  -4034417.5924  -2458273.3956   5   6   9.2635   7.2010  11.0762  -6.9686   6.6015  -7.9371   0.00    0.0
2019/01/15 09:29:45.000   4280222.6153  -4034418.1335  -2458273.8625   5   6   9.2630   7.2001  11.0731  -6.9678   6.5993  -7.9346   0.00    0.0
2019/01/15 09:29:46.000   4280222.5746  -4034418.4770  -2458273.7454   5   6   9.2625   7.1991  11.0699  -6.9670   6.5972  -7.9322   0.00    0.0
2019/01/15 09:29:47.000   4280222.6480  -4034418.5523  -2458272.8949   5   6   9.2620   7.1981  11.0667  -6.9662   6.5951  -7.9298   0.00    0.0
2019/01/15 09:29:48.000   4280222.3956  -4034418.3769  -2458271.7599   5   6   9.2615   7.1971  11.0636  -6.9654   6.5929  -7.9273   0.00    0.0
2019/01/15 09:29:49.000   4280222.6393  -4034418.4826  -2458271.2181   5   6   9.2610   7.1962  11.0604  -6.9646   6.5908  -7.9249   0.00    0.0
2019/01/15 09:29:50.000   4280222.5115  -4034418.3396  -2458270.8647   5   6   9.2605   7.1952  11.0572  -6.9638   6.5886  -7.9225   0.00    0.0
2019/01/15 09:29:51.000   4280222.8738  -4034418.2782  -2458270.9146   5   6   9.2600   7.1942  11.0540  -6.9630   6.5865  -7.9200   0.00    0.0
2019/01/15 09:29:52.000   4280222.9946  -4034418.0023  -2458270.4795   5   6   9.2595   7.1933  11.0509  -6.9622   6.5843  -7.9176   0.00    0.0
2019/01/15 09:29:53.000   4280222.9598  -4034417.8520  -2458270.2244   5   6   9.2590   7.1923  11.0477  -6.9614   6.5822  -7.9152   0.00    0.0
2019/01/15 09:29:54.000   4280222.2603  -4034417.2604  -2458269.8034   5   6   9.2585   7.1913  11.0445  -6.9606   6.5801  -7.9127   0.00    0.0
2019/01/15 09:29:55.000   4280221.9565  -4034416.9156  -2458269.7970   5   6   9.2580   7.1904  11.0414  -6.9598   6.5779  -7.9103   0.00    0.0
2019/01/15 09:29:56.000   4280222.0385  -4034417.0175  -2458269.9040   5   6   9.2575   7.1894  11.0382  -6.9590   6.5758  -7.9079   0.00    0.0
2019/01/15 09:29:57.000   4280222.2086  -4034417.2668  -2458270.0730   5   6   9.2570   7.1884  11.0351  -6.9582   6.5737  -7.9055   0.00    0.0
2019/01/15 09:29:58.000   4280222.3551  -4034417.5028  -2458270.4006   5   6   9.2565   7.1875  11.0319  -6.9575   6.5715  -7.9030   0.00    0.0
2019/01/15 09:29:59.000   4280223.0321  -4034418.0644  -2458271.0260   5   6   9.2560   7.1865  11.0287  -6.9567   6.5694  -7.9006   0.00    0.0
2019/01/15 09:30:00.000   4280223.8747  -4034418.6407  -2458271.9633   5   6   9.2555   7.1856  11.0256  -6.9559   6.5673  -7.8982   0.00    0.0
2019/01/15 09:30:01.000   4280224.5668  -4034418.8945  -2458272.5875   5   6   9.2550   7.1846  11.0224  -6.9551   6.5651  -7.8957   0.00    0.0
2019/01/15 09:30:02.000   4280224.6005  -4034418.6809  -2458272.7908   5   6   9.2545   7.1836  11.0193  -6.9543   6.5630  -7.8933   0.00    0.0
2019/01/15 09:30:03.000   4280224.7368  -4034418.4459  -2458272.8843   5   6   9.2540   7.1827  11.0161  -6.9536   6.5609  -7.8909   0.00    0.0
2019/01/15 09:30:04.000   4280224.8545  -4034418.2818  -2458272.6101   5   6   9.2535   7.1817  11.0129  -6.9528   6.5587  -7.8885   0.00    0.0
2019/01/15 09:30:05.000   4280225.2296  -4034418.5979  -2458272.7053   5   6   9.2531   7.1808  11.0098  -6.9520   6.5566  -7.8861   0.00    0.0
2019/01/15 09:30:06.000   4280225.6476  -4034418.8954  -2458272.8201   5   6   9.2526   7.1798  11.0066  -6.9512   6.5545  -7.8836   0.00    0.0
2019/01/15 09:30:07.000   4280225.7768  -4034419.0395  -2458272.6367   5   6   9.2521   7.1789  11.0035  -6.9504   6.5524  -7.8812   0.00    0.0
2019/01/15 09:30:08.000   4280225.8743  -4034418.9685  -2458272.6493   5   6   9.2516   7.1779  11.0003  -6.9497   6.5502  -7.8788   0.00    0.0
2019/01/15 09:30:09.000   4280225.8875  -4034418.7783  -2458272.7970   5   6   9.2511   7.1770  10.9972  -6.9489   6.5481  -7.8764   0.00    0.0
2019/01/15 09:30:10.000   4280225.7192  -4034418.6715  -2458272.8109   5   6   9.2506   7.1760  10.9940  -6.9481   6.5460  -7.8740   0.00    0.0
2019/01/15 09:30:11.000   4280225.8841  -4034418.7850  -2458272.9816   5   6   9.2502   7.1751  10.9909  -6.9474   6.5439  -7.8716   0.00    0.0
2019/01/15 09:30:12.000   4280226.2703  -4034419.0651  -2458272.8892   5   6   9.2497   7.1741  10.9877  -6.9466   6.5418  -7.8692   0.00    0.0
2019/01/15 09:30:13.000   4280226.6088  -4034419.2916  -2458272.8392   5   6   9.2492   7.1732  10.9846  -6.9458   6.5396  -7.8667   0.00    0.0
2019/01/15 09:30:14.000   4280226.6433  -4034419.4401  -2458272.5159   5   6   9.2487   7.1722  10.9814  -6.9451   6.5375  -7.8643   0.00    0.0
2019/01/15 09:30:15.000   4280226.7822  -4034419.8752  -2458272.5849   5   6   9.2482   7.1713  10.9783  -6.9443   6.5354  -7.8619   0.00    0.0
2019/01/15 09:30:16.000   4280226.9892  -4034420.3498  -2458272.7544   5   6   9.2478   7.1703  10.9751  -6.9435   6.5333  -7.8595   0.00    0.0
2019/01/15 09:30:17.000   4280227.1510  -4034420.6673  -2458272.6891   5   6   9.2473   7.1694  10.9720  -6.9428   6.5312  -7.8571   0.00    0.0
2019/01/15 09:30:18.000   4280227.1313  -4034420.5564  -2458272.3432   5   6   9.2468   7.1684  10.9688  -6.9420   6.5291  -7.8547   0.00    0.0
2019/01/15 09:30:19.000   4280226.7956  -4034420.2139  -2458271.7391   5   6   9.2464   7.1675  10.9657  -6.9412   6.5270  -7.8523   0.00    0.0
2019/01/15 09:30:20.000   4280226.7795  -4034419.9322  -2458271.3075   5   6   9.2459   7.1666  10.9625  -6.9405   6.5249  -7.8499   0.00    0.0
2019/01/15 09:30:21.000   4280226.7508  -4034419.6803  -2458271.1869   5   6   9.2454   7.1656  10.9594  -6.9397   6.5228  -7.8475   0.00    0.0
2019/01/15 09:30:22.000   4280226.1922  -4034419.2482  -2458270.6687   5   6   9.2449   7.1647  10.9563  -6.9390   6.5206  -7.8451   0.00    0.0
2019/01/15 09:30:23.000   4280225.6540  -4034419.1076  -2458270.3326   5   6   9.2445   7.1637  10.9531  -6.9382   6.5185  -7.8427   0.00    0.0
2019/01/15 09:30:24.000   4280225.4981  -4034419.1353  -2458270.3287   5   6   9.2440   7.1628  10.9500  -6.9374   6.5164  -7.8403   0.00    0.0
2019/01/15 09:30:25.000   4280225.5517  -4034419.2161  -2458270.3347   5   6   9.2436   7.1619  10.9468  -6.9367   6.5143  -7.8379   0.00    0.0
2019/01/15 09:30:26.000   4280225.5175  -4034419.3076  -2458269.9848   5   6   9.2431   7.1609  10.9437  -6.9359   6.5122  -7.8355   0.00    0.0
2019/01/15 09:30:27.000   4280225.1212  -4034419.0699  -2458269.4582   5   6   9.2426   7.1600  10.9406  -6.9352   6.5101  -7.8331   0.00    0.0
2019/01/15 09:30:28.000   4280224.8781  -4034418.9189  -2458269.1001   5   6   9.2422   7.1591  10.9374  -6.9344   6.5080  -7.8307   0.00    0.0
2019/01/15 09:30:29.000   4280224.5803  -4034418.5454  -2458268.7774   5   6   9.2417   7.1581  10.9343  -6.9337   6.5059  -7.8283   0.00    0.0
2019/01/15 09:30:30.000   4280224.2079  -4034418.2202  -2458268.5265   5   6   9.2413   7.1572  10.9312  -6.9329   6.5038  -7.8259   0.00    0.0
2019/01/15 09:30:31.000   4280224.0955  -4034417.9751  -2458268.4497   5   6   9.2408   7.1563  10.9280  -6.9322   6.5017  -7.8235   0.00    0.0
2019/01/15 09:30:32.000   4280224.1256  -4034417.6560  -2458268.4251   5   6   9.2403   7.1553  10.9249  -6.9314   6.4996  -7.8211   0.00    0.0
2019/01/15 09:30:33.000   4280223.7620  -4034417.4357  -2458268.0627   5   6   9.2399   7.1544  10.9218  -6.9307   6.4976  -7.8187   0.00    0.0
2019/01/15 09:30:34.000   4280223.7398  -4034417.5000  -2458268.1728   5   6   9.2394   7.1535  10.9186  -6.9299   6.4955  -7.8163   0.00    0.0
2019/01/15 09:30:35.000   4280223.6443  -4034417.3145  -2458268.2976   5   6   9.2390   7.1525  10.9155  -6.9292   6.4934  -7.8139   0.00    0.0
2019/01/15 09:30:36.000   4280223.7418  -4034417.2677  -2458268.5874   5   6   9.2385   7.1516  10.9124  -6.9285   6.4913  -7.8115   0.00    0.0
2019/01/15 09:30:37.000   4280224.2445  -4034417.6080  -2458268.8864   5   6   9.2381   7.1507  10.9092  -6.9277   6.4892  -7.8092   0.00    0.0
2019/01/15 09:30:38.000   4280224.5699  -4034417.8603  -2458268.9729   5   6   9.2376   7.1498  10.9061  -6.9270   6.4871  -7.8068   0.00    0.0
2019/01/15 09:30:39.000   4280224.7234  -4034418.0394  -2458268.8762   5   6   9.2372   7.1488  10.9030  -6.9262   6.4850  -7.8044   0.00    0.0
2019/01/15 09:30:40.000   4280224.6999  -4034417.9496  -2458268.6213   5   6   9.2367   7.1479  10.8998  -6.9255   6.4829  -7.8020   0.00    0.0
2019/01/15 09:30:41.000   4280223.8965  -4034417.6319  -2458268.0778   5   6   9.2363   7.1470  10.8967  -6.9248   6.4808  -7.7996   0.00    0.0
2019/01/15 09:30:42.000   4280222.9717  -4034417.1830  -2458267.3412   5   6   9.2359   7.1461  10.8936  -6.9240   6.4788  -7.7972   0.00    0.0
2019/01/15 09:30:43.000   4280222.7382  -4034416.9088  -2458266.9882   5   6   9.2354   7.1451  10.8905  -6.9233   6.4767  -7.7949   0.00    0.0
2019/01/15 09:30:44.000   4280222.9762  -4034416.7798  -2458267.0389   5   6   9.2350   7.1442  10.8874  -6.9226   6.4746  -7.7925   0.00    0.0
2019/01/15 09:30:45.000   4280222.8497  -4034416.6908  -2458267.0058   5   6   9.2345   7.1433  10.8842  -6.9218   6.4725  -7.7901   0.00    0.0
2019/01/15 09:30:46.000   4280222.6897  -4034416.6328  -2458267.4131   5   6   9.2341   7.1424  10.8811  -6.9211   6.4704  -7.7877   0.00    0.0
2019/01/15 09:30:47.000   4280222.4983  -4034416.5282  -2458268.1169   5   6   9.2336   7.1415  10.8780  -6.9204   6.4684  -7.7853   0.00    0.0
2019/01/15 09:30:48.000   4280222.4987  -4034416.5364  -2458268.8541   5   6   9.2332   7.1405  10.8749  -6.9196   6.4663  -7.7830   0.00    0.0
2019/01/15 09:30:49.000   4280222.6844  -4034416.6806  -2458269.2565   5   6   9.2328   7.1396  10.8717  -6.9189   6.4642  -7.7806   0.00    0.0
2019/01/15 09:30:50.000   4280223.0888  -4034416.9563  -2458269.6061   5   6   9.2323   7.1387  10.8686  -6.9182   6.4621  -7.7782   0.00    0.0
2019/01/15 09:30:51.000   4280223.0046  -4034417.2201  -2458269.3222   5   6   9.2319   7.1378  10.8655  -6.9175   6.4601  -7.7758   0.00    0.0
2019/01/15 09:30:52.000   4280223.0632  -4034417.2749  -2458269.3086   5   6   9.2315   7.1369  10.8624  -6.9167   6.4580  -7.7735   0.00    0.0
2019/01/15 09:30:53.000   4280222.9894  -4034417.2555  -2458269.3437   5   6   9.2310   7.1360  10.8593  -6.9160   6.4559  -7.7711   0.00    0.0
2019/01/15 09:30:54.000   4280222.6910  -4034417.1398  -2458269.3788   5   6   9.2306   7.1351  10.8562  -6.9153   6.4539  -7.7687   0.00    0.0
2019/01/15 09:30:55.000   4280222.1463  -4034416.9653  -2458269.3837   5   6   9.2302   7.1342  10.8531  -6.9146   6.4518  -7.7664   0.00    0.0
2019/01/15 09:30:56.000   4280222.0495  -4034417.0537  -2458269.5082   5   6   9.2298   7.1332  10.8499  -6.9139   6.4497  -7.7640   0.00    0.0
2019/01/15 09:30:57.000   4280221.8828  -4034417.0280  -2458269.4512   5   6   9.2293   7.1323  10.8468  -6.9131   6.4477  -7.7616   0.00    0.0
2019/01/15 09:30:58.000   4280221.7507  -4034417.1267  -2458269.0859   5   6   9.2289   7.1314  10.8437  -6.9124   6.4456  -7.7593   0.00    0.0
2019/01/15 09:30:59.000   4280221.8984  -4034417.3743  -2458268.7241   5   6   9.2285   7.1305  10.8406  -6.9117   6.4435  -7.7569   0.00    0.0
2019/01/15 09:31:00.000   4280222.3217  -4034417.8032  -2458268.8905   5   6   9.2281   7.1296  10.8375  -6.9110   6.4415  -7.7545   0.00    0.0
2019/01/15 09:31:01.000   4280222.2024  -4034417.8649  -2458268.8702   5   6   9.2276   7.1287  10.8344  -6.9103   6.4394  -7.7522   0.00    0.0
2019/01/15 09:31:02.000   4280221.9225  -4034417.6872  -2458268.7066   5   6   9.2272   7.1278  10.8313  -6.9096   6.4373  -7.7498   0.00    0.0
2019/01/15 09:31:03.000   4280221.5932  -4034417.3153  -2458268.3527   5   6   9.2268   7.1269  10.8282  -6.9088   6.4353  -7.7474   0.00    0.0
2019/01/15 09:31:04.000   4280221.5538  -4034417.3509  -2458268.1252   5   6   9.2264   7.1260  10.8251  -6.9081   6.4332  -7.7451   0.00    0.0
2019/01/15 09:31:05.000   4280221.8846  -4034417.6308  -2458267.7677   5   6   9.2260   7.1251  10.8220  -6.9074   6.4312  -7.7427   0.00    0.0
2019/01/15 09:31:06.000   4280222.4624  -4034418.0711  -2458268.0544   5   6   9.2256   7.1242  10.8189  -6.9067   6.4291  -7.7404   0.00    0.0
2019/01/15 09:31:07.000   4280223.0269  -4034418.4532  -2458268.5739   5   6   9.2251   7.1233  10.8158  -6.9060   6.4271  -7.7380   0.00    0.0
2019/01/15 09:31:08.000   4280223.1301  -4034418.3354  -2458268.7643   5   6   9.2247   7.1224  10.8127  -6.9053   6.4250  -7.7357   0.00    0.0
2019/01/15 09:31:09.000   4280222.9732  -4034418.1541  -2458268.2790   5   6   9.2243   7.1215  10.8096  -6.9046   6.4229  -7.7333   0.00    0.0
2019/01/15 09:31:10.000   4280222.8635  -4034418.0545  -2458267.9059   5   6   9.2239   7.1206  10.8065  -6.9039   6.4209  -7.7309   0.00    0.0
2019/01/15 09:31:11.000   4280222.7604  -4034418.1931  -2458267.5614   5   6   9.2235   7.1197  10.8034  -6.9032   6.4188  -7.7286   0.00    0.0
2019/01/15 09:31:12.000   4280222.6993  -4034418.1159  -2458267.2698   5   6   9.2231   7.1188  10.8003  -6.9025   6.4168  -7.7262   0.00    0.0
2019/01/15 09:31:13.000   4280223.0065  -4034418.2050  -2458267.3886   5   6   9.2227   7.1179  10.7972  -6.9018   6.4147  -7.7239   0.00    0.0
2019/01/15 09:31:14.000   4280223.0430  -4034418.1743  -2458267.4102   5   6   9.2223   7.1170  10.7941  -6.9011   6.4127  -7.7215   0.00    0.0
2019/01/15 09:31:15.000   4280223.2191  -4034418.2826  -2458267.5226   5   6   9.2219   7.1161  10.7910  -6.9004   6.4107  -7.7192   0.00    0.0
2019/01/15 09:31:16.000   4280223.2756  -4034418.3320  -2458267.5784   5   6   9.2215   7.1152  10.7879  -6.8997   6.4086  -7.7168   0.00    0.0
2019/01/15 09:31:17.000   4280223.3593  -4034418.5048  -2458267.2039   5   6   9.2211   7.1143  10.7848  -6.8990   6.4066  -7.7145   0.00    0.0
2019/01/15 09:31:18.000   4280223.4840  -4034418.8818  -2458266.9754   5   6   9.2207   7.1134  10.7817  -6.8983   6.4045  -7.7122   0.00    0.0
2019/01/15 09:31:19.000   4280224.0938  -4034419.4782  -2458267.2007   5   6   9.2203   7.1126  10.7786  -6.8976   6.4025  -7.7098   0.00    0.0
2019/01/15 09:31:20.000   4280224.2587  -4034419.6216  -2458267.0926   5   6   9.2199   7.1117  10.7755  -6.8969   6.4004  -7.7075   0.00    0.0
2019/01/15 09:31:21.000   4280224.3213  -4034419.5955  -2458267.1721   5   6   9.2195   7.1108  10.7724  -6.8962   6.3984  -7.7051   0.00    0.0
2019/01/15 09:31:22.000   4280224.6128  -4034419.5884  -2458266.9523   5   6   9.2191   7.1099  10.7693  -6.8955   6.3964  -7.7028   0.00    0.0
2019/01/15 09:31:23.000   4280224.7347  -4034419.7057  -2458266.5361   5   6   9.2187   7.1090  10.7662  -6.8948   6.3943  -7.7004   0.00    0.0
2019/01/15 09:31:24.000   4280224.9242  -4034419.8169  -2458266.4331   5   6   9.2183   7.1081  10.7632  -6.8941   6.3923  -7.6981   0.00    0.0
2019/01/15 09:31:25.000   4280224.9942  -4034419.8195  -2458266.5387   5   6   9.2179   7.1072  10.7601  -6.8934   6.3903  -7.6958   0.00    0.0
2019/01/15 09:31:26.000   4280225.2668  -4034419.8395  -2458267.1488   5   6   9.2175   7.1064  10.7570  -6.8928   6.3882  -7.6934   0.00    0.0
2019/01/15 09:31:27.000   4280225.3049  -4034419.6529  -2458267.5376   5   6   9.2171   7.1055  10.7539  -6.8921   6.3862  -7.6911   0.00    0.0
2019/01/15 09:31:28.000   4280225.2790  -4034419.6496  -2458267.8032   5   6   9.2167   7.1046  10.7508  -6.8914   6.3842  -7.6888   0.00    0.0
2019/01/15 09:31:29.000   4280225.0267  -4034419.7400  -2458267.9300   5   6   9.2163   7.1037  10.7477  -6.8907   6.3821  -7.6864   0.00    0.0
2019/01/15 09:31:30.000   4280224.5987  -4034419.6510  -2458268.0294   5   6   9.2159   7.1028  10.7447  -6.8900   6.3801  -7.6841   0.00    0.0
2019/01/15 09:31:31.000   4280224.3341  -4034419.4919  -2458268.0550   5   6   9.2155   7.1020  10.7416  -6.8893   6.3781  -7.6818   0.00    0.0
2019/01/15 09:31:32.000   4280224.1344  -4034419.6605  -2458268.0296   5   6   9.2152   7.1011  10.7385  -6.8887   6.3761  -7.6794   0.00    0.0
2019/01/15 09:31:33.000   4280224.2989  -4034420.1368  -2458268.3051   5   6   9.2148   7.1002  10.7354  -6.8880   6.3740  -7.6771   0.00    0.0
2019/01/15 09:31:34.000   4280224.6084  -4034420.4904  -2458268.5550   5   6   9.2144   7.0993  10.7323  -6.8873   6.3720  -7.6748   0.00    0.0
2019/01/15 09:31:35.000   4280224.7552  -4034420.6438  -2458268.6625   5   6   9.2140   7.0984  10.7293  -6.8866   6.3700  -7.6724   0.00    0.0
2019/01/15 09:31:36.000   4280225.0059  -4034420.8948  -2458269.1081   5   6   9.2136   7.0976  10.7262  -6.8860   6.3680  -7.6701   0.00    0.0
2019/01/15 09:31:37.000   4280224.8708  -4034420.7074  -2458269.2845   5   6   9.2133   7.0967  10.7231  -6.8853   6.3659  -7.6678   0.00    0.0
2019/01/15 09:31:38.000   4280224.6593  -4034420.6149  -2458269.3357   5   6   9.2129   7.0958  10.7200  -6.8846   6.3639  -7.6655   0.00    0.0
2019/01/15 09:31:39.000   4280224.3291  -4034420.4078  -2458269.2559   5   6   9.2125   7.0949  10.7170  -6.8839   6.3619  -7.6631   0.00    0.0
2019/01/15 09:31:40.000   4280223.7852  -4034419.9185  -2458268.8610   5   6   9.2121   7.0941  10.7139  -6.8833   6.3599  -7.6608   0.00    0.0
2019/01/15 09:31:41.000   4280223.4487  -4034419.7149  -2458268.3006   5   6   9.2117   7.0932  10.7108  -6.8826   6.3579  -7.6585   0.00    0.0
2019/01/15 09:31:42.000   4280223.8333  -4034420.1103  -2458268.4459   5   6   9.2114   7.0923  10.7077  -6.8819   6.3559  -7.6562   0.00    0.0
2019/01/15 09:31:43.000   4280223.6728  -4034420.1722  -2458268.4656   5   6   9.2110   7.0915  10.7047  -6.8813   6.3539  -7.6539   0.00    0.0
2019/01/15 09:31:44.000   4280223.4129  -4034420.0313  -2458268.5921   5   6   9.2106   7.0906  10.7016  -6.8806   6.3518  -7.6515   0.00    0.0
2019/01/15 09:31:45.000   4280223.4509  -4034419.9543  -2458268.7126   5   6   9.2103   7.0897  10.6985  -6.8799   6.3498  -7.6492   0.00    0.0
2019/01/15 09:31:46.000   4280223.3014  -4034419.6613  -2458268.8901   5   6   9.2099   7.0889  10.6955  -6.8793   6.3478  -7.6469   0.00    0.0
2019/01/15 09:31:47.000   4280223.4615  -4034419.4593  -2458269.1680   5   6   9.2095   7.0880  10.6924  -6.8786   6.3458  -7.6446   0.00    0.0
2019/01/15 09:31:48.000   4280223.4264  -4034419.4773  -2458269.1419   5   6   9.2092   7.0871  10.6893  -6.8779   6.3438  -7.6423   0.00    0.0
2019/01/15 09:31:49.000   4280223.4567  -4034419.5189  -2458269.1511   5   6   9.2088   7.0863  10.6863  -6.8773   6.3418  -7.6400   0.00    0.0
2019/01/15 09:31:50.000   4280223.4921  -4034419.6018  -2458269.0814   5   6   9.2084   7.0854  10.6832  -6.8766   6.3398  -7.6377   0.00    0.0
2019/01/15 09:31:51.000   4280222.9502  -4034419.3276  -2458268.5492   5   6   9.2081   7.0846  10.6802  -6.8759   6.3378  -7.6353   0.00    0.0
2019/01/15 09:31:52.000   4280222.6626  -4034419.0098  -2458268.3806   5   6   9.2077   7.0837  10.6771  -6.8753   6.3358  -7.6330   0.00    0.0
2019/01/15 09:31:53.000   4280222.5581  -4034418.7935  -2458268.2937   5   6   9.2073   7.0828  10.6740  -6.8746   6.3338  -7.6307   0.00    0.0
2019/01/15 09:31:54.000   4280222.6299  -4034418.6533  -2458268.6001   5   6   9.2070   7.0820  10.6710  -6.8740   6.3318  -7.6284   0.00    0.0
2019/01/15 09:31:55.000   4280222.5440  -4034418.6626  -2458268.7941   5   6   9.2066   7.0811  10.6679  -6.8733   6.3298  -7.6261   0.00    0.0
2019/01/15 09:31:56.000   4280222.1511  -4034418.7119  -2458268.3754   5   6   9.2063   7.0803  10.6649  -6.8727   6.3278  -7.6238   0.00    0.0
2019/01/15 09:31:57.000   4280222.2540  -4034418.9624  -2458268.2175   5   6   9.2059   7.0794  10.6618  -6.8720   6.3258  -7.6215   0.00    0.0
2019/01/15 09:31:58.000   4280222.3656  -4034419.1856  -2458268.0320   5   6   9.2056   7.0785  10.6587  -6.8714   6.3238  -7.6192   0.00    0.0
2019/01/15 09:31:59.000   4280222.6395  -4034419.5150  -2458268.1721   5   6   9.2052   7.0777  10.6557  -6.8707   6.3218  -7.6169   0.00    0.0
2019/01/15 09:32:00.000   4280222.3785  -4034419.1777  -2458268.0098   5   6   9.2049   7.0768  10.6526  -6.8701   6.3198  -7.6146   0.00    0.0
2019/01/15 09:32:01.000   4280222.1117  -4034418.7707  -2458268.0255   5   6   9.2045   7.0760  10.6496  -6.8694   6.3178  -7.6123   0.00    0.0
2019/01/15 09:32:02.000   4280221.9670  -4034418.6045  -2458268.0169   5   6   9.2042   7.0751  10.6465  -6.8688   6.3158  -7.6100   0.00    0.0
2019/01/15 09:32:03.000   4280222.0189  -4034418.6735  -2458267.9594   5   6   9.2038   7.0743  10.6435  -6.8681   6.3138  -7.6077   0.00    0.0
2019/01/15 09:32:04.000   4280221.8760  -4034418.5878  -2458267.8659   5   6   9.2035   7.0734  10.6404  -6.8675   6.3118  -7.6054   0.00    0.0
2019/01/15 09:32:05.000   4280221.6511  -4034418.4337  -2458267.6045   5   6   9.2031   7.0726  10.6374  -6.8668   6.3099  -7.6031   0.00    0.0
2019/01/15 09:32:06.000   4280221.1766  -4034418.0826  -2458267.8885   5   6   9.2028   7.0717  10.6343  -6.8662   6.3079  -7.6008   0.00    0.0
2019/01/15 09:32:07.000   4280221.2639  -4034418.1647  -2458268.2920   5   6   9.2024   7.0709  10.6313  -6.8655   6.3059  -7.5985   0.00    0.0
2019/01/15 09:32:08.000   4280221.5956  -4034418.2827  -2458268.3856   5   6   9.2021   7.0700  10.6282  -6.8649   6.3039  -7.5962   0.00    0.0
2019/01/15 09:32:09.000   4280221.8501  -4034418.5062  -2458268.5372   5   6   9.2017   7.0692  10.6252  -6.8643   6.3019  -7.5939   0.00    0.0
2019/01/15 09:32:10.000   4280221.7493  -4034418.5087  -2458268.6772   5   6   9.2014   7.0683  10.6222  -6.8636   6.2999  -7.5916   0.00    0.0
2019/01/15 09:32:11.000   4280221.9821  -4034418.7882  -2458269.0671   5   6   9.2011   7.0675  10.6191  -6.8630   6.2980  -7.5894   0.00    0.0
2019/01/15 09:32:12.000   4280222.0633  -4034418.9171  -2458269.0249   5   6   9.2007   7.0666  10.6161  -6.8623   6.2960  -7.5871   0.00    0.0
2019/01/15 09:32:13.000   4280222.3466  -4034419.0987  -2458269.0697   5   6   9.2004   7.0658  10.6130  -6.8617   6.2940  -7.5848   0.00    0.0
2019/01/15 09:32:14.000   4280222.7224  -4034419.3567  -2458269.2221   5   6   9.2000   7.0650  10.6100  -6.8611   6.2920  -7.5825   0.00    0.0
2019/01/15 09:32:15.000   4280222.8969  -4034419.5051  -2458268.8258   5   6   9.1997   7.0641  10.6070  -6.8604   6.2900  -7.5802   0.00    0.0
2019/01/15 09:32:16.000   4280222.6198  -4034419.3690  -2458268.1441   5   6   9.1994   7.0633  10.6039  -6.8598   6.2881  -7.5779   0.00    0.0
2019/01/15 09:32:17.000   4280222.2096  -4034419.1444  -2458267.6169   5   6   9.1990   7.0624  10.6009  -6.8592   6.2861  -7.5756   0.00    0.0
2019/01/15 09:32:18.000   4280221.9683  -4034418.9743  -2458267.1498   5   6   9.1987   7.0616  10.5978  -6.8586   6.2841  -7.5734   0.00    0.0
2019/01/15 09:32:19.000   4280221.6085  -4034418.8398  -2458266.9583   5   6   9.1984   7.0608  10.5948  -6.8579   6.2822  -7.5711   0.00    0.0
2019/01/15 09:32:20.000   4280221.8040  -4034419.2088  -2458267.1918   5   6   9.1981   7.0599  10.5918  -6.8573   6.2802  -7.5688   0.00    0.0
2019/01/15 09:32:21.000   4280222.4394  -4034419.9982  -2458267.4119   5   6   9.1977   7.0591  10.5887  -6.8567   6.2782  -7.5665   0.00    0.0
2019/01/15 09:32:22.000   4280223.0860  -4034420.4464  -2458267.6631   5   6   9.1974   7.0583  10.5857  -6.8560   6.2762  -7.5642   0.00    0.0
2019/01/15 09:32:23.000   4280223.2945  -4034420.3545  -2458267.4727   5   6   9.1971   7.0574  10.5827  -6.8554   6.2743  -7.5620   0.00    0.0
2019/01/15 09:32:24.000   4280223.5019  -4034420.1267  -2458267.3551   5   6   9.1967   7.0566  10.5796  -6.8548   6.2723  -7.5597   0.00    0.0
2019/01/15 09:32:25.000   4280223.8314  -4034420.1522  -2458267.6302   5   6   9.1964   7.0558  10.5766  -6.8542   6.2704  -7.5574   0.00    0.0
2019/01/15 09:32:26.000   4280223.5778  -4034420.1641  -2458267.5002   5   6   9.1961   7.0549  10.5736  -6.8535   6.2684  -7.5551   0.00    0.0
2019/01/15 09:32:27.000   4280223.0406  -4034419.9610  -2458267.1319   5   6   9.1958   7.0541  10.5706  -6.8529   6.2664  -7.5529   0.00    0.0
2019/01/15 09:32:28.000   4280222.7874  -4034420.0349  -2458266.7236   5   6   9.1955   7.0533  10.5675  -6.8523   6.2645  -7.5506   0.00    0.0
2019/01/15 09:32:29.000   4280222.9695  -4034420.1513  -2458266.4678   5   6   9.1951   7.0524  10.5645  -6.8517   6.2625  -7.5483   0.00    0.0
2019/01/15 09:32:30.000   4280223.1161  -4034420.3304  -2458266.6812   5   6   9.1948   7.0516  10.5615  -6.8511   6.2605  -7.5461   0.00    0.0
2019/01/15 09:32:31.000   4280223.1955  -4034420.4641  -2458266.7637   5   6   9.1945   7.0508  10.5585  -6.8505   6.2586  -7.5438   0.00    0.0
2019/01/15 09:32:32.000   4280223.2048  -4034420.5498  -2458267.2007   5   6   9.1942   7.0499  10.5554  -6.8498   6.2566  -7.5415   0.00    0.0
2019/01/15 09:32:33.000   4280223.0138  -4034420.4717  -2458267.3593   5   6   9.1939   7.0491  10.5524  -6.8492   6.2547  -7.5393   0.00    0.0
2019/01/15 09:32:34.000   4280222.5560  -4034420.2516  -2458267.2029   5   6   9.1936   7.0483  10.5494  -6.8486   6.2527  -7.5370   0.00    0.0
2019/01/15 09:32:35.000   4280222.4972  -4034420.1602  -2458267.3908   5   6   9.1933   7.0475  10.5464  -6.8480   6.2508  -7.5347   0.00    0.0
2019/01/15 09:32:36.000   4280222.7103  -4034419.9628  -2458267.8776   5   6   9.1929   7.0466  10.5434  -6.8474   6.2488  -7.5325   0.00    0.0
2019/01/15 09:32:37.000   4280222.5677  -4034419.7093  -2458267.9078   5   6   9.1926   7.0458  10.5403  -6.8468   6.2469  -7.5302   0.00    0.0
2019/01/15 09:32:38.000   4280222.2351  -4034419.4982  -2458268.0292   5   6   9.1923   7.0450  10.5373  -6.8462   6.2449  -7.5280   0.00    0.0
2019/01/15 09:32:39.000   4280221.8551  -4034419.2436  -2458267.8216   5   6   9.1920   7.0442  10.5343  -6.8456   6.2430  -7.5257   0.00    0.0
2019/01/15 09:32:40.000   4280221.6199  -4034418.8532  -2458267.7692   5   6   9.1917   7.0434  10.5313  -6.8450   6.2410  -7.5234   0.00    0.0
2019/01/15 09:32:41.000   4280221.3095  -4034418.5634  -2458267.5061   5   6   9.1914   7.0425  10.5283  -6.8444   6.2391  -7.5212   0.00    0.0
2019/01/15 09:32:42.000   4280221.3455  -4034418.4317  -2458267.6602   5   6   9.1911   7.0417  10.5253  -6.8438   6.2371  -7.5189   0.00    0.0
2019/01/15 09:32:43.000   4280221.4261  -4034418.3993  -2458268.1148   5   6   9.1908   7.0409  10.5222  -6.8432   6.2352  -7.5167   0.00    0.0
2019/01/15 09:32:44.000   4280222.0217  -4034418.8078  -2458268.7376   5   6   9.1905   7.0401  10.5192  -6.8425   6.2333  -7.5144   0.00    0.0
2019/01/15 09:32:45.000   4280222.8012  -4034419.4639  -2458269.6169   5   6   9.1902   7.0393  10.5162  -6.8419   6.2313  -7.5122   0.00    0.0
2019/01/15 09:32:46.000   4280223.0968  -4034419.8408  -2458270.1117   5   6   9.1899   7.0385  10.5132  -6.8413   6.2294  -7.5099   0.00    0.0
2019/01/15 09:32:47.000   4280223.2071  -4034419.8894  -2458270.6274   5   6   9.1896   7.0376  10.5102  -6.8407   6.2274  -7.5077   0.00    0.0
2019/01/15 09:32:48.000   4280223.1387  -4034419.6198  -2458271.2015   5   6   9.1893   7.0368  10.5072  -6.8401   6.2255  -7.5054   0.00    0.0
2019/01/15 09:32:49.000   4280223.0272  -4034419.4996  -2458271.6761   5   6   9.1890   7.0360  10.5042  -6.8396   6.2236  -7.5032   0.00    0.0
2019/01/15 09:32:50.000   4280222.8324  -4034419.3725  -2458271.7531   5   6   9.1887   7.0352  10.5012  -6.8390   6.2216  -7.5009   0.00    0.0
2019/01/15 09:32:51.000   4280223.0390  -4034419.3355  -2458272.0063   5   6   9.1884   7.0344  10.4982  -6.8384   6.2197  -7.4987   0.00    0.0
2019/01/15 09:32:52.000   4280223.3251  -4034419.3510  -2458272.2916   5   6   9.1881   7.0336  10.4952  -6.8378   6.2178  -7.4964   0.00    0.0
2019/01/15 09:32:53.000   4280223.7041  -4034419.4697  -2458272.7108   5   6   9.1878   7.0328  10.4922  -6.8372   6.2158  -7.4942   0.00    0.0
2019/01/15 09:32:54.000   4280223.0658  -4034419.0191  -2458272.6460   5   6   9.1876   7.0320  10.4892  -6.8366   6.2139  -7.4919   0.00    0.0
2019/01/15 09:32:55.000   4280222.7538  -4034418.7978  -2458272.9544   5   6   9.1873   7.0312  10.4862  -6.8360   6.2120  -7.4897   0.00    0.0
2019/01/15 09:32:56.000   4280222.6103  -4034418.6318  -2458273.7072   5   6   9.1870   7.0303  10.4832  -6.8354   6.2100  -7.4875   0.00    0.0
2019/01/15 09:32:57.000   4280222.8267  -4034418.6037  -2458274.4553   5   6   9.1867   7.0295  10.4802  -6.8348   6.2081  -7.4852   0.00    0.0
2019/01/15 09:32:58.000   4280222.3580  -4034418.4490  -2458274.5589   5   6   9.1864   7.0287  10.4772  -6.8342   6.2062  -7.4830   0.00    0.0
2019/01/15 09:32:59.000   4280221.8452  -4034418.2302  -2458274.4979   5   6   9.1861   7.0279  10.4742  -6.8336   6.2043  -7.4807   0.00    0.0
2019/01/15 09:33:00.000   4280221.4529  -4034418.0348  -2458274.2080   5   6   9.1858   7.0271  10.4712  -6.8331   6.2023  -7.4785   0.00    0.0
2019/01/15 09:33:01.000   4280221.3457  -4034418.0130  -2458274.4343   5   6   9.1856   7.0263  10.4682  -6.8325   6.2004  -7.4763   0.00    0.0
2019/01/15 09:33:02.000   4280221.5978  -4034418.1668  -2458274.7570   5   6   9.1853   7.0255  10.4652  -6.8319   6.1985  -7.4740   0.00    0.0
2019/01/15 09:33:03.000   4280222.3694  -4034418.2801  -2458275.2725   5   6   9.1850   7.0247  10.4622  -6.8313   6.1966  -7.4718   0.00    0.0
2019/01/15 09:33:04.000   4280223.0845  -4034418.4227  -2458275.7711   5   6   9.1847   7.0239  10.4592  -6.8307   6.1946  -7.4696   0.00    0.0
2019/01/15 09:33:05.000   4280223.0662  -4034418.1872  -2458275.6845   5   6   9.1844   7.0231  10.4562  -6.8301   6.1927  -7.4673   0.00    0.0
2019/01/15 09:33:06.000   4280222.5265  -4034417.7372  -2458275.2378   5   6   9.1842   7.0223  10.4532  -6.8296   6.1908  -7.4651   0.00    0.0
2019/01/15 09:33:07.000   4280221.9720  -4034417.3735  -2458275.1031   5   6   9.1839   7.0215  10.4503  -6.8290   6.1889  -7.4629   0.00    0.0
2019/01/15 09:33:08.000   4280221.3313  -4034417.0690  -2458274.7510   5   6   9.1836   7.0207  10.4473  -6.8284   6.1870  -7.4607   0.00    0.0
2019/01/15 09:33:09.000   4280220.9218  -4034417.0249  -2458274.3108   5   6   9.1833   7.0199  10.4443  -6.8278   6.1851  -7.4584   0.00    0.0
2019/01/15 09:33:10.000   4280220.9603  -4034417.1297  -2458274.1984   5   6   9.1831   7.0191  10.4413  -6.8273   6.1832  -7.4562   0.00    0.0
2019/01/15 09:33:11.000   4280221.0228  -4034417.1477  -2458274.2483   5   6   9.1828   7.0183  10.4383  -6.8267   6.1812  -7.4540   0.00    0.0
2019/01/15 09:33:12.000   4280220.9247  -4034416.9255  -2458274.0703   5   6   9.1825   7.0175  10.4353  -6.8261   6.1793  -7.4518   0.00    0.0
2019/01/15 09:33:13.000   4280220.5450  -4034416.5642  -2458273.6682   5   6   9.1823   7.0168  10.4323  -6.8256   6.1774  -7.4495   0.00    0.0
2019/01/15 09:33:14.000   4280220.3668  -4034416.2329  -2458273.6259   5   6   9.1820   7.0160  10.4294  -6.8250   6.1755  -7.4473   0.00    0.0
2019/01/15 09:33:15.000   4280220.6668  -4034416.3571  -2458273.9901   5   6   9.1817   7.0152  10.4264  -6.8244   6.1736  -7.4451   0.00    0.0
2019/01/15 09:33:16.000   4280220.7946  -4034416.2988  -2458274.5301   5   6   9.1815   7.0144  10.4234  -6.8238   6.1717  -7.4429   0.00    0.0
2019/01/15 09:33:17.000   4280220.8314  -4034416.3718  -2458275.4547   5   6   9.1812   7.0136  10.4204  -6.8233   6.1698  -7.4407   0.00    0.0
2019/01/15 09:33:18.000   4280221.0094  -4034416.6605  -2458276.3592   5   6   9.1809   7.0128  10.4175  -6.8227   6.1679  -7.4384   0.00    0.0
2019/01/15 09:33:19.000   4280221.5155  -4034417.2089  -2458277.0671   5   6   9.1807   7.0120  10.4145  -6.8221   6.1660  -7.4362   0.00    0.0
2019/01/15 09:33:20.000   4280221.8887  -4034417.6037  -2458277.2405   5   6   9.1804   7.0112  10.4115  -6.8216   6.1641  -7.4340   0.00    0.0
2019/01/15 09:33:21.000   4280221.7963  -4034417.6617  -2458276.7378   5   6   9.1802   7.0104  10.4085  -6.8210   6.1622  -7.4318   0.00    0.0
2019/01/15 09:33:22.000   4280222.0507  -4034417.8922  -2458276.5418   5   6   9.1799   7.0097  10.4056  -6.8205   6.1603  -7.4296   0.00    0.0
2019/01/15 09:33:23.000   4280222.4218  -4034418.2365  -2458276.6115   5   6   9.1797   7.0089  10.4026  -6.8199   6.1584  -7.4274   0.00    0.0
2019/01/15 09:33:24.000   4280222.5014  -4034418.3036  -2458276.5265   5   6   9.1794   7.0081  10.3996  -6.8193   6.1565  -7.4252   0.00    0.0
2019/01/15 09:33:25.000   4280222.6512  -4034418.4803  -2458276.4721   5   6   9.1791   7.0073  10.3966  -6.8188   6.1546  -7.4229   0.00    0.0
2019/01/15 09:33:26.000   4280222.3909  -4034418.2632  -2458276.2946   5   6   9.1789   7.0065  10.3937  -6.8182   6.1527  -7.4207   0.00    0.0
2019/01/15 09:33:27.000   4280222.0839  -4034418.0784  -2458275.6620   5   6   9.1786   7.0057  10.3907  -6.8177   6.1508  -7.4185   0.00    0.0
2019/01/15 09:33:28.000   4280222.5345  -4034418.3191  -2458275.6237   5   6   9.1784   7.0050  10.3877  -6.8171   6.1489  -7.4163   0.00    0.0
2019/01/15 09:33:29.000   4280223.0293  -4034418.6142  -2458275.7213   5   6   9.1781   7.0042  10.3848  -6.8166   6.1470  -7.4141   0.00    0.0
2019/01/15 09:33:30.000   4280223.6531  -4034419.0717  -2458275.7207   5   6   9.1779   7.0034  10.3818  -6.8160   6.1452  -7.4119   0.00    0.0
2019/01/15 09:33:31.000   4280223.8556  -4034419.1963  -2458275.4117   5   6   9.1776   7.0026  10.3788  -6.8154   6.1433  -7.4097   0.00    0.0
2019/01/15 09:33:32.000   4280223.7658  -4034419.1783  -2458275.1629   5   6   9.1774   7.0018  10.3759  -6.8149   6.1414  -7.4075   0.00    0.0
2019/01/15 09:33:33.000   4280223.3663  -4034419.0279  -2458274.7377   5   6   9.1772   7.0011  10.3729  -6.8143   6.1395  -7.4053   0.00    0.0
2019/01/15 09:33:34.000   4280223.6471  -4034419.2798  -2458274.7444   5   6   9.1769   7.0003  10.3700  -6.8138   6.1376  -7.4031   0.00    0.0
2019/01/15 09:33:35.000   4280224.0674  -4034419.6003  -2458274.5597   5   6   9.1767   6.9995  10.3670  -6.8132   6.1357  -7.4009   0.00    0.0
2019/01/15 09:33:36.000   4280223.6753  -4034419.6025  -2458273.9090   5   6   9.1764   6.9987  10.3640  -6.8127   6.1338  -7.3987   0.00    0.0
2019/01/15 09:33:37.000   4280223.3908  -4034419.7370  -2458273.2169   5   6   9.1762   6.9980  10.3611  -6.8122   6.1320  -7.3965   0.00    0.0
2019/01/15 09:33:38.000   4280222.8932  -4034419.8171  -2458272.8758   5   6   9.1759   6.9972  10.3581  -6.8116   6.1301  -7.3943   0.00    0.0
2019/01/15 09:33:39.000   4280222.6343  -4034419.7890  -2458272.7448   5   6   9.1757   6.9964  10.3552  -6.8111   6.1282  -7.3921   0.00    0.0
2019/01/15 09:33:40.000   4280222.1136  -4034419.6508  -2458272.3281   5   6   9.1755   6.9956  10.3522  -6.8105   6.1263  -7.3900   0.00    0.0
2019/01/15 09:33:41.000   4280221.8115  -4034419.6088  -2458271.5100   5   6   9.1752   6.9949  10.3493  -6.8100   6.1245  -7.3878   0.00    0.0
2019/01/15 09:33:42.000   4280221.7286  -4034419.8995  -2458270.5641   5   6   9.1750   6.9941  10.3463  -6.8094   6.1226  -7.3856   0.00    0.0
2019/01/15 09:33:43.000   4280221.6026  -4034420.4106  -2458269.7112   5   6   9.1748   6.9933  10.3434  -6.8089   6.1207  -7.3834   0.00    0.0
2019/01/15 09:33:44.000   4280221.8515  -4034420.8864  -2458269.5607   5   6   9.1745   6.9926  10.3404  -6.8084   6.1188  -7.3812   0.00    0.0
2019/01/15 09:33:45.000   4280222.0291  -4034421.1647  -2458269.7718   5   6   9.1743   6.9918  10.3375  -6.8078   6.1170  -7.3790   0.00    0.0
2019/01/15 09:33:46.000   4280221.4059  -4034420.7566  -2458269.8855   5   6   9.1741   6.9910  10.3345  -6.8073   6.1151  -7.3768   0.00    0.0
2019/01/15 09:33:47.000   4280220.8986  -4034420.2858  -2458270.1836   5   6   9.1738   6.9903  10.3316  -6.8068   6.1132  -7.3746   0.00    0.0
2019/01/15 09:33:48.000   4280220.8519  -4034420.1285  -2458270.5145   5   6   9.1736   6.9895  10.3286  -6.8062   6.1114  -7.3725   0.00    0.0
2019/01/15 09:33:49.000   4280221.0014  -4034420.1740  -2458270.7389   5   6   9.1734   6.9887  10.3257  -6.8057   6.1095  -7.3703   0.00    0.0
2019/01/15 09:33:50.000   4280221.2827  -4034420.2306  -2458270.7306   5   6   9.1732   6.9880  10.3227  -6.8052   6.1076  -7.3681   0.00    0.0
