% program   : RTKPOST ver.2.4.2
% inp file  : D:\Google Drive\UERJ\_Projeto Final\Python\tcc-guilherme\20190115_Levantamento_8min_Smooth.19o
% inp file  : D:\Google Drive\UERJ\_Projeto Final\20190115_Marco 91500 IBGE\brdm0150.19p
% obs start : 2019/01/15 09:34:43.0 GPST (week2036 207283.0s)
% obs end   : 2019/01/15 09:52:37.0 GPST (week2036 208357.0s)
% pos mode  : single
% elev mask : 15.0 deg
% ionos opt : off
% tropo opt : off
% ephemeris : broadcast
%
% (x/y/z-ecef=WGS84,Q=1:fix,2:float,3:sbas,4:dgps,5:single,6:ppp,ns=# of satellites)
%  GPST                      x-ecef(m)      y-ecef(m)      z-ecef(m)   Q  ns   sdx(m)   sdy(m)   sdz(m)  sdxy(m)  sdyz(m)  sdzx(m) age(s)  ratio
2019/01/15 09:34:43.000   4280204.4764  -4034394.6100  -2458263.3500   5   5  11.1780  11.1614  12.9394  -9.6023  -1.4322  -6.3931   0.00    0.0
2019/01/15 09:34:44.000   4280219.9963  -4034416.9579  -2458241.6803   5   6  10.3401   7.8522  11.4444  -7.6498   6.7646  -8.1512   0.00    0.0
2019/01/15 09:34:45.000   4280231.0739  -4034413.5461  -2458258.2782   5   6  10.3399   7.8514  11.4412  -7.6493   6.7625  -8.1488   0.00    0.0
2019/01/15 09:34:46.000   4280220.8443  -4034409.3006  -2458273.8964   5   6  10.3397   7.8506  11.4379  -7.6487   6.7605  -8.1465   0.00    0.0
2019/01/15 09:34:47.000   4280234.5994  -4034424.2922  -2458278.1866   5   6  10.3396   7.8497  11.4347  -7.6482   6.7585  -8.1441   0.00    0.0
2019/01/15 09:34:48.000   4280238.1313  -4034428.5199  -2458276.6143   5   6  10.3394   7.8489  11.4314  -7.6477   6.7565  -8.1417   0.00    0.0
2019/01/15 09:34:49.000   4280220.4752  -4034410.1626  -2458274.3041   5   6  10.3393   7.8481  11.4282  -7.6472   6.7545  -8.1394   0.00    0.0
2019/01/15 09:34:50.000   4280223.5093  -4034410.3673  -2458278.1554   5   6  10.3391   7.8473  11.4249  -7.6467   6.7525  -8.1370   0.00    0.0
2019/01/15 09:34:51.000   4280226.8937  -4034409.3533  -2458277.0193   5   6  10.3390   7.8465  11.4217  -7.6462   6.7505  -8.1346   0.00    0.0
2019/01/15 09:34:52.000   4280228.1990  -4034418.4201  -2458272.2788   5   6  10.3388   7.8457  11.4185  -7.6457   6.7485  -8.1323   0.00    0.0
2019/01/15 09:34:53.000   4280229.2457  -4034419.8386  -2458272.4619   5   6  10.3387   7.8449  11.4152  -7.6452   6.7465  -8.1299   0.00    0.0
2019/01/15 09:34:54.000   4280226.8963  -4034421.2484  -2458271.3498   5   6  10.3385   7.8441  11.4120  -7.6446   6.7445  -8.1276   0.00    0.0
2019/01/15 09:34:55.000   4280222.9182  -4034418.4337  -2458269.7119   5   6  10.3384   7.8433  11.4088  -7.6441   6.7425  -8.1252   0.00    0.0
2019/01/15 09:34:56.000   4280224.2984  -4034418.7472  -2458274.5078   5   6  10.3383   7.8426  11.4055  -7.6436   6.7405  -8.1229   0.00    0.0
2019/01/15 09:34:57.000   4280225.5681  -4034418.8582  -2458281.5465   5   6  10.3381   7.8418  11.4023  -7.6431   6.7385  -8.1205   0.00    0.0
2019/01/15 09:34:58.000   4280227.2831  -4034423.0605  -2458282.9974   5   6  10.3380   7.8410  11.3991  -7.6426   6.7365  -8.1181   0.00    0.0
2019/01/15 09:34:59.000   4280226.3335  -4034423.5811  -2458282.8105   5   6  10.3378   7.8402  11.3958  -7.6421   6.7345  -8.1158   0.00    0.0
2019/01/15 09:35:00.000   4280228.4742  -4034424.8177  -2458285.3872   5   6  10.3377   7.8394  11.3926  -7.6416   6.7325  -8.1134   0.00    0.0
2019/01/15 09:35:01.000   4280228.0001  -4034424.0745  -2458285.8175   5   6  10.3376   7.8386  11.3894  -7.6411   6.7305  -8.1111   0.00    0.0
2019/01/15 09:35:02.000   4280228.0073  -4034424.1418  -2458285.8385   5   6  10.3374   7.8378  11.3862  -7.6406   6.7285  -8.1087   0.00    0.0
2019/01/15 09:35:03.000   4280229.0391  -4034424.7415  -2458286.9257   5   6  10.3373   7.8370  11.3829  -7.6401   6.7265  -8.1064   0.00    0.0
2019/01/15 09:35:04.000   4280229.4464  -4034424.9757  -2458287.2330   5   6  10.3372   7.8362  11.3797  -7.6396   6.7245  -8.1041   0.00    0.0
2019/01/15 09:35:05.000   4280229.4127  -4034424.8225  -2458287.0304   5   6  10.3370   7.8354  11.3765  -7.6391   6.7225  -8.1017   0.00    0.0
2019/01/15 09:35:06.000   4280229.1229  -4034424.4693  -2458286.5451   5   6  10.3369   7.8346  11.3733  -7.6386   6.7205  -8.0994   0.00    0.0
2019/01/15 09:35:07.000   4280228.9719  -4034424.3030  -2458286.2163   5   6  10.3368   7.8338  11.3701  -7.6382   6.7185  -8.0970   0.00    0.0
2019/01/15 09:35:08.000   4280229.1148  -4034424.3839  -2458286.0240   5   6  10.3366   7.8331  11.3668  -7.6377   6.7165  -8.0947   0.00    0.0
2019/01/15 09:35:09.000   4280228.8039  -4034424.2186  -2458285.5554   5   6  10.3365   7.8323  11.3636  -7.6372   6.7145  -8.0924   0.00    0.0
2019/01/15 09:35:10.000   4280228.5742  -4034424.2789  -2458285.0528   5   6  10.3364   7.8315  11.3604  -7.6367   6.7126  -8.0900   0.00    0.0
2019/01/15 09:35:11.000   4280228.3591  -4034424.4239  -2458284.5026   5   6  10.3363   7.8307  11.3572  -7.6362   6.7106  -8.0877   0.00    0.0
2019/01/15 09:35:12.000   4280227.8246  -4034424.2584  -2458283.4583   5   6  10.3361   7.8299  11.3540  -7.6357   6.7086  -8.0854   0.00    0.0
2019/01/15 09:35:13.000   4280227.9615  -4034424.1643  -2458282.5065   5   6  10.3360   7.8291  11.3508  -7.6352   6.7066  -8.0830   0.00    0.0
2019/01/15 09:35:14.000   4280228.0345  -4034424.0040  -2458281.7523   5   6  10.3359   7.8284  11.3476  -7.6347   6.7046  -8.0807   0.00    0.0
2019/01/15 09:35:15.000   4280228.1767  -4034424.1940  -2458281.7052   5   6  10.3358   7.8276  11.3444  -7.6343   6.7027  -8.0784   0.00    0.0
2019/01/15 09:35:16.000   4280228.3135  -4034424.5441  -2458281.9553   5   6  10.3357   7.8268  11.3411  -7.6338   6.7007  -8.0760   0.00    0.0
2019/01/15 09:35:17.000   4280228.4868  -4034424.7617  -2458281.7604   5   6  10.3355   7.8260  11.3379  -7.6333   6.6987  -8.0737   0.00    0.0
2019/01/15 09:35:18.000   4280228.5729  -4034424.8267  -2458281.6164   5   6  10.3354   7.8253  11.3347  -7.6328   6.6967  -8.0714   0.00    0.0
2019/01/15 09:35:19.000   4280228.5606  -4034424.6825  -2458281.3625   5   6  10.3353   7.8245  11.3315  -7.6323   6.6948  -8.0691   0.00    0.0
2019/01/15 09:35:20.000   4280228.2004  -4034424.4870  -2458280.8733   5   6  10.3352   7.8237  11.3283  -7.6319   6.6928  -8.0667   0.00    0.0
2019/01/15 09:35:21.000   4280227.6975  -4034424.2327  -2458280.2934   5   6  10.3351   7.8229  11.3251  -7.6314   6.6908  -8.0644   0.00    0.0
2019/01/15 09:35:22.000   4280227.3687  -4034424.1446  -2458279.8223   5   6  10.3350   7.8222  11.3219  -7.6309   6.6889  -8.0621   0.00    0.0
2019/01/15 09:35:23.000   4280227.2048  -4034424.1356  -2458279.9858   5   6  10.3349   7.8214  11.3187  -7.6304   6.6869  -8.0598   0.00    0.0
2019/01/15 09:35:24.000   4280227.4451  -4034424.1789  -2458280.4462   5   6  10.3348   7.8206  11.3155  -7.6300   6.6849  -8.0574   0.00    0.0
2019/01/15 09:35:25.000   4280228.0025  -4034424.3476  -2458281.1807   5   6  10.3347   7.8198  11.3123  -7.6295   6.6830  -8.0551   0.00    0.0
2019/01/15 09:35:26.000   4280228.2746  -4034424.5385  -2458281.4556   5   6  10.3345   7.8191  11.3091  -7.6290   6.6810  -8.0528   0.00    0.0
2019/01/15 09:35:27.000   4280228.2671  -4034424.8397  -2458281.7708   5   6  10.3344   7.8183  11.3059  -7.6285   6.6790  -8.0505   0.00    0.0
2019/01/15 09:35:28.000   4280228.1855  -4034425.0061  -2458281.9179   5   6  10.3343   7.8175  11.3027  -7.6281   6.6771  -8.0482   0.00    0.0
2019/01/15 09:35:29.000   4280228.1145  -4034424.9386  -2458282.1200   5   6  10.3342   7.8168  11.2995  -7.6276   6.6751  -8.0459   0.00    0.0
2019/01/15 09:35:30.000   4280228.2217  -4034424.7269  -2458282.1212   5   6  10.3341   7.8160  11.2964  -7.6271   6.6732  -8.0436   0.00    0.0
2019/01/15 09:35:31.000   4280228.5276  -4034424.6822  -2458282.0412   5   6  10.3340   7.8152  11.2932  -7.6267   6.6712  -8.0413   0.00    0.0
2019/01/15 09:35:32.000   4280228.7578  -4034424.6609  -2458282.0186   5   6  10.3339   7.8145  11.2900  -7.6262   6.6692  -8.0389   0.00    0.0
2019/01/15 09:35:33.000   4280228.8223  -4034424.6782  -2458281.9100   5   6  10.3338   7.8137  11.2868  -7.6257   6.6673  -8.0366   0.00    0.0
2019/01/15 09:35:34.000   4280228.2870  -4034424.4025  -2458281.8016   5   6  10.3337   7.8129  11.2836  -7.6253   6.6653  -8.0343   0.00    0.0
2019/01/15 09:35:35.000   4280228.2867  -4034424.3705  -2458281.7704   5   6  10.3336   7.8122  11.2804  -7.6248   6.6634  -8.0320   0.00    0.0
2019/01/15 09:35:36.000   4280228.4495  -4034424.6205  -2458281.8176   5   6  10.3336   7.8114  11.2772  -7.6244   6.6614  -8.0297   0.00    0.0
2019/01/15 09:35:37.000   4280228.9099  -4034424.6342  -2458281.7367   5   6  10.3335   7.8106  11.2741  -7.6239   6.6595  -8.0274   0.00    0.0
2019/01/15 09:35:38.000   4280228.7711  -4034424.2106  -2458281.4138   5   6  10.3334   7.8099  11.2709  -7.6234   6.6575  -8.0251   0.00    0.0
2019/01/15 09:35:39.000   4280228.5590  -4034423.7999  -2458281.0851   5   6  10.3333   7.8091  11.2677  -7.6230   6.6556  -8.0228   0.00    0.0
2019/01/15 09:35:40.000   4280228.4021  -4034423.4541  -2458281.0841   5   6  10.3332   7.8084  11.2645  -7.6225   6.6537  -8.0205   0.00    0.0
2019/01/15 09:35:41.000   4280228.4022  -4034423.3913  -2458280.8619   5   6  10.3331   7.8076  11.2613  -7.6221   6.6517  -8.0182   0.00    0.0
2019/01/15 09:35:42.000   4280228.4971  -4034423.3621  -2458280.4719   5   6  10.3330   7.8069  11.2582  -7.6216   6.6498  -8.0159   0.00    0.0
2019/01/15 09:35:43.000   4280228.1105  -4034423.0958  -2458279.6508   5   6  10.3329   7.8061  11.2550  -7.6212   6.6478  -8.0136   0.00    0.0
2019/01/15 09:35:44.000   4280228.1484  -4034423.0877  -2458279.0235   5   6  10.3329   7.8053  11.2518  -7.6207   6.6459  -8.0113   0.00    0.0
2019/01/15 09:35:45.000   4280227.4329  -4034422.4069  -2458278.2409   5   6  10.3328   7.8046  11.2486  -7.6203   6.6439  -8.0091   0.00    0.0
2019/01/15 09:35:46.000   4280226.7851  -4034421.6580  -2458277.8731   5   6  10.3327   7.8038  11.2455  -7.6198   6.6420  -8.0068   0.00    0.0
2019/01/15 09:35:47.000   4280225.9356  -4034420.8598  -2458277.6263   5   6  10.3326   7.8031  11.2423  -7.6194   6.6401  -8.0045   0.00    0.0
2019/01/15 09:35:48.000   4280225.4174  -4034420.4925  -2458277.6131   5   6  10.3325   7.8023  11.2391  -7.6189   6.6381  -8.0022   0.00    0.0
2019/01/15 09:35:49.000   4280225.0814  -4034420.1196  -2458277.4720   5   6  10.3325   7.8016  11.2360  -7.6185   6.6362  -7.9999   0.00    0.0
2019/01/15 09:35:50.000   4280225.0532  -4034420.1031  -2458277.5213   5   6  10.3324   7.8008  11.2328  -7.6180   6.6343  -7.9976   0.00    0.0
2019/01/15 09:35:51.000   4280225.1110  -4034420.2784  -2458277.9311   5   6  10.3323   7.8001  11.2296  -7.6176   6.6323  -7.9953   0.00    0.0
2019/01/15 09:35:52.000   4280225.5560  -4034420.7249  -2458278.0046   5   6  10.3322   7.7993  11.2265  -7.6171   6.6304  -7.9931   0.00    0.0
2019/01/15 09:35:53.000   4280225.2930  -4034420.8255  -2458277.7547   5   6  10.3322   7.7986  11.2233  -7.6167   6.6285  -7.9908   0.00    0.0
2019/01/15 09:35:54.000   4280225.2996  -4034421.2614  -2458277.4713   5   6  10.3321   7.7978  11.2201  -7.6163   6.6266  -7.9885   0.00    0.0
2019/01/15 09:35:55.000   4280225.6871  -4034421.7780  -2458277.5200   5   6  10.3320   7.7971  11.2170  -7.6158   6.6246  -7.9862   0.00    0.0
2019/01/15 09:35:56.000   4280225.9337  -4034422.1838  -2458277.5111   5   6  10.3319   7.7963  11.2138  -7.6154   6.6227  -7.9839   0.00    0.0
2019/01/15 09:35:57.000   4280226.0845  -4034422.4764  -2458277.6602   5   6  10.3319   7.7956  11.2107  -7.6149   6.6208  -7.9817   0.00    0.0
2019/01/15 09:35:58.000   4280226.1639  -4034422.5718  -2458277.9128   5   6  10.3318   7.7949  11.2075  -7.6145   6.6189  -7.9794   0.00    0.0
2019/01/15 09:35:59.000   4280226.5481  -4034422.9332  -2458278.2024   5   6  10.3317   7.7941  11.2043  -7.6141   6.6169  -7.9771   0.00    0.0
2019/01/15 09:36:00.000   4280227.1689  -4034423.4465  -2458278.4253   5   6  10.3317   7.7934  11.2012  -7.6136   6.6150  -7.9748   0.00    0.0
2019/01/15 09:36:01.000   4280227.8562  -4034423.8458  -2458278.7262   5   6  10.3316   7.7926  11.1980  -7.6132   6.6131  -7.9726   0.00    0.0
2019/01/15 09:36:02.000   4280228.5151  -4034424.3187  -2458278.7920   5   6  10.3316   7.7919  11.1949  -7.6128   6.6112  -7.9703   0.00    0.0
2019/01/15 09:36:03.000   4280228.2849  -4034424.3344  -2458277.9772   5   6  10.3315   7.7912  11.1917  -7.6123   6.6093  -7.9680   0.00    0.0
2019/01/15 09:36:04.000   4280227.7759  -4034424.0100  -2458277.4380   5   6  10.3314   7.7904  11.1886  -7.6119   6.6074  -7.9658   0.00    0.0
2019/01/15 09:36:05.000   4280227.0787  -4034423.5858  -2458277.2425   5   6  10.3314   7.7897  11.1854  -7.6115   6.6054  -7.9635   0.00    0.0
2019/01/15 09:36:06.000   4280226.5809  -4034423.2083  -2458276.8839   5   6  10.3313   7.7889  11.1823  -7.6111   6.6035  -7.9612   0.00    0.0
2019/01/15 09:36:07.000   4280226.2645  -4034422.9210  -2458277.0590   5   6  10.3313   7.7882  11.1791  -7.6106   6.6016  -7.9590   0.00    0.0
2019/01/15 09:36:08.000   4280226.0281  -4034422.8002  -2458277.6427   5   6  10.3312   7.7875  11.1760  -7.6102   6.5997  -7.9567   0.00    0.0
2019/01/15 09:36:09.000   4280225.8527  -4034422.6543  -2458277.9646   5   6  10.3312   7.7867  11.1728  -7.6098   6.5978  -7.9544   0.00    0.0
2019/01/15 09:36:10.000   4280225.5389  -4034422.5396  -2458277.9919   5   6  10.3311   7.7860  11.1697  -7.6094   6.5959  -7.9522   0.00    0.0
2019/01/15 09:36:11.000   4280225.0498  -4034422.2047  -2458277.8899   5   6  10.3311   7.7853  11.1666  -7.6089   6.5940  -7.9499   0.00    0.0
2019/01/15 09:36:12.000   4280224.2288  -4034421.5603  -2458277.8416   5   6  10.3310   7.7845  11.1634  -7.6085   6.5921  -7.9477   0.00    0.0
2019/01/15 09:36:13.000   4280223.6703  -4034421.1175  -2458277.6687   5   6  10.3310   7.7838  11.1603  -7.6081   6.5902  -7.9454   0.00    0.0
2019/01/15 09:36:14.000   4280223.3475  -4034420.9055  -2458277.6868   5   6  10.3309   7.7831  11.1571  -7.6077   6.5883  -7.9432   0.00    0.0
2019/01/15 09:36:15.000   4280223.4652  -4034420.9895  -2458277.8804   5   6  10.3309   7.7823  11.1540  -7.6073   6.5864  -7.9409   0.00    0.0
2019/01/15 09:36:16.000   4280223.5455  -4034421.0033  -2458278.0452   5   6  10.3308   7.7816  11.1509  -7.6069   6.5845  -7.9387   0.00    0.0
2019/01/15 09:36:17.000   4280223.4382  -4034420.5468  -2458277.5978   5   6  10.3308   7.7809  11.1477  -7.6064   6.5826  -7.9364   0.00    0.0
2019/01/15 09:36:18.000   4280222.9443  -4034419.5407  -2458276.8838   5   6  10.3307   7.7802  11.1446  -7.6060   6.5807  -7.9342   0.00    0.0
2019/01/15 09:36:19.000   4280222.5354  -4034418.6579  -2458276.2825   5   6  10.3307   7.7794  11.1415  -7.6056   6.5788  -7.9319   0.00    0.0
2019/01/15 09:36:20.000   4280221.6416  -4034417.4381  -2458275.9314   5   6  10.3307   7.7787  11.1383  -7.6052   6.5769  -7.9297   0.00    0.0
2019/01/15 09:36:21.000   4280220.8353  -4034416.5353  -2458275.7225   5   6  10.3306   7.7780  11.1352  -7.6048   6.5750  -7.9274   0.00    0.0
2019/01/15 09:36:22.000   4280220.3173  -4034415.8334  -2458275.6083   5   6  10.3306   7.7773  11.1321  -7.6044   6.5731  -7.9252   0.00    0.0
2019/01/15 09:36:23.000   4280219.8909  -4034415.6582  -2458275.2241   5   6  10.3306   7.7765  11.1290  -7.6040   6.5712  -7.9229   0.00    0.0
2019/01/15 09:36:24.000   4280220.1402  -4034416.0895  -2458275.3760   5   6  10.3305   7.7758  11.1258  -7.6036   6.5693  -7.9207   0.00    0.0
2019/01/15 09:36:25.000   4280220.6783  -4034416.7498  -2458275.7177   5   6  10.3305   7.7751  11.1227  -7.6032   6.5674  -7.9184   0.00    0.0
2019/01/15 09:36:26.000   4280220.9864  -4034416.9927  -2458275.6298   5   6  10.3305   7.7744  11.1196  -7.6028   6.5656  -7.9162   0.00    0.0
2019/01/15 09:36:27.000   4280221.6918  -4034417.3664  -2458275.6681   5   6  10.3304   7.7737  11.1165  -7.6023   6.5637  -7.9140   0.00    0.0
2019/01/15 09:36:28.000   4280222.2282  -4034417.5153  -2458275.6768   5   6  10.3304   7.7729  11.1133  -7.6019   6.5618  -7.9117   0.00    0.0
2019/01/15 09:36:29.000   4280222.2688  -4034417.3711  -2458275.5556   5   6  10.3304   7.7722  11.1102  -7.6015   6.5599  -7.9095   0.00    0.0
2019/01/15 09:36:30.000   4280222.1512  -4034417.3162  -2458275.4832   5   6  10.3303   7.7715  11.1071  -7.6011   6.5580  -7.9073   0.00    0.0
2019/01/15 09:36:31.000   4280221.7649  -4034417.1384  -2458275.5820   5   6  10.3303   7.7708  11.1040  -7.6007   6.5561  -7.9050   0.00    0.0
2019/01/15 09:36:32.000   4280221.2512  -4034416.7127  -2458275.6506   5   6  10.3303   7.7701  11.1009  -7.6003   6.5543  -7.9028   0.00    0.0
2019/01/15 09:36:33.000   4280221.3036  -4034416.6912  -2458275.8615   5   6  10.3303   7.7694  11.0978  -7.5999   6.5524  -7.9006   0.00    0.0
2019/01/15 09:36:34.000   4280221.3174  -4034416.5265  -2458276.3983   5   6  10.3302   7.7686  11.0947  -7.5995   6.5505  -7.8983   0.00    0.0
2019/01/15 09:36:35.000   4280221.8616  -4034416.6521  -2458276.8711   5   6  10.3302   7.7679  11.0915  -7.5992   6.5486  -7.8961   0.00    0.0
2019/01/15 09:36:36.000   4280222.3917  -4034416.8743  -2458277.0952   5   6  10.3302   7.7672  11.0884  -7.5988   6.5468  -7.8939   0.00    0.0
2019/01/15 09:36:37.000   4280223.0454  -4034417.1788  -2458277.1603   5   6  10.3302   7.7665  11.0853  -7.5984   6.5449  -7.8917   0.00    0.0
2019/01/15 09:36:38.000   4280223.2704  -4034417.2874  -2458276.7857   5   6  10.3302   7.7658  11.0822  -7.5980   6.5430  -7.8894   0.00    0.0
2019/01/15 09:36:39.000   4280222.8732  -4034417.1076  -2458276.2476   5   6  10.3301   7.7651  11.0791  -7.5976   6.5411  -7.8872   0.00    0.0
2019/01/15 09:36:40.000   4280222.7227  -4034417.1350  -2458275.7358   5   6  10.3301   7.7644  11.0760  -7.5972   6.5393  -7.8850   0.00    0.0
2019/01/15 09:36:41.000   4280222.4990  -4034417.1393  -2458275.1340   5   6  10.3301   7.7637  11.0729  -7.5968   6.5374  -7.8828   0.00    0.0
2019/01/15 09:36:42.000   4280223.0600  -4034417.7194  -2458275.0909   5   6  10.3301   7.7630  11.0698  -7.5964   6.5355  -7.8806   0.00    0.0
2019/01/15 09:36:43.000   4280223.8400  -4034418.4840  -2458274.8745   5   6  10.3301   7.7623  11.0667  -7.5960   6.5337  -7.8783   0.00    0.0
2019/01/15 09:36:44.000   4280224.2537  -4034418.9846  -2458274.8008   5   6  10.3301   7.7615  11.0636  -7.5956   6.5318  -7.8761   0.00    0.0
2019/01/15 09:36:45.000   4280225.1382  -4034419.5271  -2458275.0537   5   6  10.3301   7.7608  11.0605  -7.5953   6.5300  -7.8739   0.00    0.0
2019/01/15 09:36:46.000   4280225.7464  -4034419.6362  -2458274.9684   5   6  10.3300   7.7601  11.0574  -7.5949   6.5281  -7.8717   0.00    0.0
2019/01/15 09:36:47.000   4280226.2675  -4034419.8113  -2458274.6047   5   6  10.3300   7.7594  11.0543  -7.5945   6.5262  -7.8695   0.00    0.0
2019/01/15 09:36:48.000   4280227.0287  -4034420.3125  -2458274.6093   5   6  10.3300   7.7587  11.0512  -7.5941   6.5244  -7.8673   0.00    0.0
2019/01/15 09:36:49.000   4280227.7917  -4034420.7937  -2458274.9070   5   6  10.3300   7.7580  11.0481  -7.5937   6.5225  -7.8651   0.00    0.0
2019/01/15 09:36:50.000   4280228.0510  -4034421.2317  -2458274.9099   5   6  10.3300   7.7573  11.0450  -7.5933   6.5207  -7.8628   0.00    0.0
2019/01/15 09:36:51.000   4280227.8415  -4034421.2841  -2458274.5349   5   6  10.3300   7.7566  11.0419  -7.5930   6.5188  -7.8606   0.00    0.0
2019/01/15 09:36:52.000   4280227.9057  -4034421.5150  -2458274.2745   5   6  10.3300   7.7559  11.0388  -7.5926   6.5169  -7.8584   0.00    0.0
2019/01/15 09:36:53.000   4280227.5340  -4034421.3985  -2458273.9821   5   6  10.3300   7.7552  11.0357  -7.5922   6.5151  -7.8562   0.00    0.0
2019/01/15 09:36:54.000   4280227.3397  -4034421.4524  -2458273.9231   5   6  10.3300   7.7545  11.0326  -7.5918   6.5132  -7.8540   0.00    0.0
2019/01/15 09:36:55.000   4280227.0765  -4034421.2964  -2458273.9352   5   6  10.3300   7.7538  11.0296  -7.5915   6.5114  -7.8518   0.00    0.0
2019/01/15 09:36:56.000   4280227.1883  -4034421.4638  -2458274.2297   5   6  10.3300   7.7531  11.0265  -7.5911   6.5095  -7.8496   0.00    0.0
2019/01/15 09:36:57.000   4280227.2758  -4034421.8077  -2458273.9863   5   6  10.3300   7.7524  11.0234  -7.5907   6.5077  -7.8474   0.00    0.0
2019/01/15 09:36:58.000   4280227.0188  -4034421.8957  -2458273.6000   5   6  10.3300   7.7517  11.0203  -7.5903   6.5059  -7.8452   0.00    0.0
2019/01/15 09:36:59.000   4280226.6830  -4034421.8683  -2458273.0198   5   6  10.3300   7.7511  11.0172  -7.5900   6.5040  -7.8430   0.00    0.0
2019/01/15 09:37:00.000   4280226.6406  -4034421.9649  -2458272.5613   5   6  10.3301   7.7504  11.0141  -7.5896   6.5022  -7.8408   0.00    0.0
2019/01/15 09:37:01.000   4280227.0731  -4034422.3214  -2458272.7509   5   6  10.3301   7.7497  11.0111  -7.5892   6.5003  -7.8386   0.00    0.0
2019/01/15 09:37:02.000   4280227.8043  -4034422.8345  -2458273.2972   5   6  10.3301   7.7490  11.0080  -7.5889   6.4985  -7.8364   0.00    0.0
2019/01/15 09:37:03.000   4280227.9140  -4034422.7272  -2458273.3922   5   6  10.3301   7.7483  11.0049  -7.5885   6.4966  -7.8343   0.00    0.0
2019/01/15 09:37:04.000   4280228.1185  -4034422.6916  -2458273.7575   5   6  10.3301   7.7476  11.0018  -7.5881   6.4948  -7.8321   0.00    0.0
2019/01/15 09:37:05.000   4280228.1143  -4034422.5350  -2458273.7118   5   6  10.3301   7.7469  10.9987  -7.5878   6.4930  -7.8299   0.00    0.0
2019/01/15 09:37:06.000   4280227.7588  -4034422.2977  -2458273.4165   5   6  10.3301   7.7462  10.9957  -7.5874   6.4911  -7.8277   0.00    0.0
2019/01/15 09:37:07.000   4280227.2526  -4034421.8663  -2458273.3525   5   6  10.3301   7.7455  10.9926  -7.5870   6.4893  -7.8255   0.00    0.0
2019/01/15 09:37:08.000   4280227.2433  -4034421.7356  -2458273.7696   5   6  10.3302   7.7448  10.9895  -7.5867   6.4875  -7.8233   0.00    0.0
2019/01/15 09:37:09.000   4280227.4293  -4034421.7618  -2458274.0657   5   6  10.3302   7.7442  10.9865  -7.5863   6.4856  -7.8211   0.00    0.0
2019/01/15 09:37:10.000   4280227.3609  -4034422.0226  -2458273.7415   5   6  10.3302   7.7435  10.9834  -7.5860   6.4838  -7.8190   0.00    0.0
2019/01/15 09:37:11.000   4280227.4322  -4034422.1669  -2458273.6675   5   6  10.3302   7.7428  10.9803  -7.5856   6.4820  -7.8168   0.00    0.0
2019/01/15 09:37:12.000   4280227.6162  -4034422.4609  -2458273.5117   5   6  10.3302   7.7421  10.9773  -7.5853   6.4801  -7.8146   0.00    0.0
2019/01/15 09:37:13.000   4280228.3532  -4034423.0086  -2458273.4963   5   6  10.3303   7.7414  10.9742  -7.5849   6.4783  -7.8124   0.00    0.0
2019/01/15 09:37:14.000   4280228.6908  -4034423.0711  -2458273.4460   5   6  10.3303   7.7407  10.9711  -7.5845   6.4765  -7.8102   0.00    0.0
2019/01/15 09:37:15.000   4280228.5110  -4034422.9124  -2458273.4174   5   6  10.3303   7.7401  10.9681  -7.5842   6.4747  -7.8081   0.00    0.0
2019/01/15 09:37:16.000   4280228.2446  -4034422.7173  -2458273.3035   5   6  10.3303   7.7394  10.9650  -7.5838   6.4728  -7.8059   0.00    0.0
2019/01/15 09:37:17.000   4280227.9936  -4034422.3092  -2458273.3669   5   6  10.3304   7.7387  10.9619  -7.5835   6.4710  -7.8037   0.00    0.0
2019/01/15 09:37:18.000   4280227.6777  -4034422.0741  -2458273.6472   5   6  10.3304   7.7380  10.9589  -7.5831   6.4692  -7.8015   0.00    0.0
2019/01/15 09:37:19.000   4280227.2529  -4034421.9422  -2458273.6851   5   6  10.3304   7.7373  10.9558  -7.5828   6.4674  -7.7994   0.00    0.0
2019/01/15 09:37:20.000   4280226.9808  -4034422.0163  -2458273.6420   5   6  10.3305   7.7367  10.9528  -7.5824   6.4656  -7.7972   0.00    0.0
2019/01/15 09:37:21.000   4280227.2801  -4034422.4326  -2458273.7291   5   6  10.3305   7.7360  10.9497  -7.5821   6.4637  -7.7950   0.00    0.0
2019/01/15 09:37:22.000   4280227.9359  -4034422.8553  -2458274.1982   5   6  10.3305   7.7353  10.9467  -7.5817   6.4619  -7.7929   0.00    0.0
2019/01/15 09:37:23.000   4280228.5336  -4034423.2127  -2458274.3831   5   6  10.3306   7.7346  10.9436  -7.5814   6.4601  -7.7907   0.00    0.0
2019/01/15 09:37:24.000   4280228.4642  -4034423.2942  -2458273.6420   5   6  10.3306   7.7340  10.9406  -7.5811   6.4583  -7.7885   0.00    0.0
2019/01/15 09:37:25.000   4280228.2617  -4034423.3356  -2458273.0241   5   6  10.3306   7.7333  10.9375  -7.5807   6.4565  -7.7864   0.00    0.0
2019/01/15 09:37:26.000   4280228.3850  -4034423.6144  -2458272.8808   5   6  10.3307   7.7326  10.9345  -7.5804   6.4547  -7.7842   0.00    0.0
2019/01/15 09:37:27.000   4280228.6709  -4034423.8020  -2458273.3237   5   6  10.3307   7.7319  10.9314  -7.5800   6.4529  -7.7820   0.00    0.0
2019/01/15 09:37:28.000   4280229.2062  -4034424.0916  -2458273.9008   5   6  10.3308   7.7313  10.9284  -7.5797   6.4510  -7.7799   0.00    0.0
2019/01/15 09:37:29.000   4280229.6577  -4034424.3734  -2458274.3805   5   6  10.3308   7.7306  10.9253  -7.5794   6.4492  -7.7777   0.00    0.0
2019/01/15 09:37:30.000   4280229.6653  -4034424.5236  -2458274.1210   5   6  10.3308   7.7299  10.9223  -7.5790   6.4474  -7.7756   0.00    0.0
2019/01/15 09:37:31.000   4280229.2857  -4034424.5481  -2458273.4096   5   6  10.3309   7.7293  10.9192  -7.5787   6.4456  -7.7734   0.00    0.0
2019/01/15 09:37:32.000   4280229.0987  -4034424.3914  -2458272.8153   5   6  10.3309   7.7286  10.9162  -7.5783   6.4438  -7.7713   0.00    0.0
2019/01/15 09:37:33.000   4280228.7740  -4034424.2059  -2458272.4269   5   6  10.3310   7.7279  10.9131  -7.5780   6.4420  -7.7691   0.00    0.0
2019/01/15 09:37:34.000   4280228.4064  -4034423.9329  -2458272.0407   5   6  10.3310   7.7273  10.9101  -7.5777   6.4402  -7.7669   0.00    0.0
2019/01/15 09:37:35.000   4280228.4695  -4034423.9813  -2458272.1554   5   6  10.3311   7.7266  10.9071  -7.5773   6.4384  -7.7648   0.00    0.0
2019/01/15 09:37:36.000   4280228.7497  -4034424.1814  -2458272.2923   5   6  10.3311   7.7259  10.9040  -7.5770   6.4366  -7.7626   0.00    0.0
2019/01/15 09:37:37.000   4280229.3865  -4034424.5801  -2458272.5451   5   6  10.3312   7.7253  10.9010  -7.5767   6.4348  -7.7605   0.00    0.0
2019/01/15 09:37:38.000   4280229.8220  -4034424.9160  -2458272.7428   5   6  10.3312   7.7246  10.8980  -7.5764   6.4330  -7.7583   0.00    0.0
2019/01/15 09:37:39.000   4280229.6920  -4034424.9449  -2458272.5425   5   6  10.3313   7.7240  10.8949  -7.5760   6.4312  -7.7562   0.00    0.0
2019/01/15 09:37:40.000   4280229.5230  -4034424.8643  -2458272.4680   5   6  10.3313   7.7233  10.8919  -7.5757   6.4294  -7.7541   0.00    0.0
2019/01/15 09:37:41.000   4280229.1238  -4034424.7069  -2458272.4490   5   6  10.3314   7.7226  10.8889  -7.5754   6.4276  -7.7519   0.00    0.0
2019/01/15 09:37:42.000   4280228.6254  -4034424.5421  -2458272.1757   5   6  10.3315   7.7220  10.8858  -7.5750   6.4259  -7.7498   0.00    0.0
2019/01/15 09:37:43.000   4280228.4931  -4034424.4976  -2458272.0164   5   6  10.3315   7.7213  10.8828  -7.5747   6.4241  -7.7476   0.00    0.0
2019/01/15 09:37:44.000   4280228.5702  -4034424.5085  -2458271.9470   5   6  10.3316   7.7207  10.8798  -7.5744   6.4223  -7.7455   0.00    0.0
2019/01/15 09:37:45.000   4280228.6630  -4034424.4428  -2458272.0380   5   6  10.3316   7.7200  10.8768  -7.5741   6.4205  -7.7434   0.00    0.0
2019/01/15 09:37:46.000   4280228.5512  -4034424.2537  -2458271.9743   5   6  10.3317   7.7193  10.8737  -7.5738   6.4187  -7.7412   0.00    0.0
2019/01/15 09:37:47.000   4280228.3213  -4034423.9573  -2458271.7842   5   6  10.3318   7.7187  10.8707  -7.5734   6.4169  -7.7391   0.00    0.0
2019/01/15 09:37:48.000   4280228.2480  -4034423.6579  -2458271.7295   5   6  10.3318   7.7180  10.8677  -7.5731   6.4151  -7.7370   0.00    0.0
2019/01/15 09:37:49.000   4280228.0283  -4034423.4842  -2458271.3171   5   6  10.3319   7.7174  10.8647  -7.5728   6.4134  -7.7348   0.00    0.0
2019/01/15 09:37:50.000   4280228.1750  -4034423.5307  -2458270.8660   5   6  10.3320   7.7167  10.8617  -7.5725   6.4116  -7.7327   0.00    0.0
2019/01/15 09:37:51.000   4280228.1667  -4034423.4558  -2458270.3274   5   6  10.3320   7.7161  10.8586  -7.5722   6.4098  -7.7306   0.00    0.0
2019/01/15 09:37:52.000   4280228.1015  -4034423.4034  -2458269.7481   5   6  10.3321   7.7154  10.8556  -7.5719   6.4080  -7.7284   0.00    0.0
2019/01/15 09:37:53.000   4280227.8977  -4034423.2155  -2458269.2735   5   6  10.3322   7.7148  10.8526  -7.5715   6.4062  -7.7263   0.00    0.0
2019/01/15 09:37:54.000   4280228.1978  -4034423.4976  -2458269.5065   5   6  10.3322   7.7141  10.8496  -7.5712   6.4045  -7.7242   0.00    0.0
2019/01/15 09:37:55.000   4280228.2534  -4034423.6579  -2458269.6725   5   6  10.3323   7.7135  10.8466  -7.5709   6.4027  -7.7220   0.00    0.0
2019/01/15 09:37:56.000   4280228.1495  -4034423.7200  -2458269.6438   5   6  10.3324   7.7128  10.8436  -7.5706   6.4009  -7.7199   0.00    0.0
2019/01/15 09:37:57.000   4280227.5269  -4034423.5231  -2458269.4549   5   6  10.3325   7.7122  10.8405  -7.5703   6.3991  -7.7178   0.00    0.0
2019/01/15 09:37:58.000   4280227.1127  -4034423.2877  -2458269.4601   5   6  10.3325   7.7115  10.8375  -7.5700   6.3974  -7.7157   0.00    0.0
2019/01/15 09:37:59.000   4280226.8707  -4034422.9612  -2458269.4282   5   6  10.3326   7.7109  10.8345  -7.5697   6.3956  -7.7136   0.00    0.0
2019/01/15 09:38:00.000   4280226.6848  -4034422.6745  -2458269.1422   5   6  10.3327   7.7102  10.8315  -7.5694   6.3938  -7.7114   0.00    0.0
2019/01/15 09:38:01.000   4280226.3600  -4034422.3223  -2458268.8495   5   6  10.3328   7.7096  10.8285  -7.5691   6.3921  -7.7093   0.00    0.0
2019/01/15 09:38:02.000   4280226.1565  -4034422.2918  -2458268.6641   5   6  10.3329   7.7089  10.8255  -7.5688   6.3903  -7.7072   0.00    0.0
2019/01/15 09:38:03.000   4280225.9614  -4034422.3614  -2458268.4977   5   6  10.3329   7.7083  10.8225  -7.5685   6.3885  -7.7051   0.00    0.0
2019/01/15 09:38:04.000   4280225.7935  -4034422.5810  -2458268.5626   5   6  10.3330   7.7076  10.8195  -7.5682   6.3868  -7.7030   0.00    0.0
2019/01/15 09:38:05.000   4280225.7539  -4034422.8373  -2458268.7466   5   6  10.3331   7.7070  10.8165  -7.5679   6.3850  -7.7009   0.00    0.0
2019/01/15 09:38:06.000   4280225.7365  -4034423.0180  -2458268.5662   5   6  10.3332   7.7064  10.8135  -7.5676   6.3832  -7.6988   0.00    0.0
2019/01/15 09:38:07.000   4280225.7554  -4034423.1464  -2458268.6635   5   6  10.3333   7.7057  10.8105  -7.5673   6.3815  -7.6966   0.00    0.0
2019/01/15 09:38:08.000   4280225.6644  -4034423.0412  -2458268.6032   5   6  10.3334   7.7051  10.8075  -7.5670   6.3797  -7.6945   0.00    0.0
2019/01/15 09:38:09.000   4280225.5948  -4034422.9633  -2458268.8983   5   6  10.3334   7.7044  10.8045  -7.5667   6.3780  -7.6924   0.00    0.0
2019/01/15 09:38:10.000   4280225.6669  -4034422.7120  -2458268.9120   5   6  10.3335   7.7038  10.8015  -7.5664   6.3762  -7.6903   0.00    0.0
2019/01/15 09:38:11.000   4280225.4807  -4034422.4408  -2458269.0622   5   6  10.3336   7.7032  10.7985  -7.5661   6.3745  -7.6882   0.00    0.0
2019/01/15 09:38:12.000   4280225.1171  -4034422.2201  -2458269.1715   5   6  10.3337   7.7025  10.7955  -7.5658   6.3727  -7.6861   0.00    0.0
2019/01/15 09:38:13.000   4280224.7832  -4034422.2225  -2458269.1359   5   6  10.3338   7.7019  10.7925  -7.5655   6.3709  -7.6840   0.00    0.0
2019/01/15 09:38:14.000   4280224.9170  -4034422.3511  -2458269.1789   5   6  10.3339   7.7013  10.7896  -7.5652   6.3692  -7.6819   0.00    0.0
2019/01/15 09:38:15.000   4280225.1114  -4034422.5450  -2458268.8706   5   6  10.3340   7.7006  10.7866  -7.5649   6.3674  -7.6798   0.00    0.0
2019/01/15 09:38:16.000   4280225.6470  -4034422.8744  -2458268.5064   5   6  10.3341   7.7000  10.7836  -7.5646   6.3657  -7.6777   0.00    0.0
2019/01/15 09:38:17.000   4280226.2434  -4034423.3063  -2458268.2396   5   6  10.3342   7.6994  10.7806  -7.5643   6.3639  -7.6756   0.00    0.0
2019/01/15 09:38:18.000   4280226.3402  -4034423.2216  -2458267.7536   5   6  10.3343   7.6987  10.7776  -7.5640   6.3622  -7.6735   0.00    0.0
2019/01/15 09:38:19.000   4280226.3925  -4034423.1508  -2458267.4089   5   6  10.3344   7.6981  10.7746  -7.5637   6.3605  -7.6714   0.00    0.0
2019/01/15 09:38:20.000   4280226.5759  -4034423.0113  -2458267.5592   5   6  10.3345   7.6975  10.7716  -7.5635   6.3587  -7.6693   0.00    0.0
2019/01/15 09:38:21.000   4280226.4790  -4034422.8381  -2458267.9394   5   6  10.3346   7.6968  10.7687  -7.5632   6.3570  -7.6672   0.00    0.0
2019/01/15 09:38:22.000   4280226.9439  -4034423.0088  -2458268.7411   5   6  10.3347   7.6962  10.7657  -7.5629   6.3552  -7.6652   0.00    0.0
2019/01/15 09:38:23.000   4280227.1126  -4034423.2218  -2458269.2004   5   6  10.3348   7.6956  10.7627  -7.5626   6.3535  -7.6631   0.00    0.0
2019/01/15 09:38:24.000   4280227.6248  -4034423.6699  -2458269.6475   5   6  10.3349   7.6950  10.7597  -7.5623   6.3517  -7.6610   0.00    0.0
2019/01/15 09:38:25.000   4280228.2861  -4034424.0353  -2458270.0064   5   6  10.3350   7.6943  10.7568  -7.5620   6.3500  -7.6589   0.00    0.0
2019/01/15 09:38:26.000   4280229.1665  -4034424.7144  -2458270.1837   5   6  10.3351   7.6937  10.7538  -7.5618   6.3483  -7.6568   0.00    0.0
2019/01/15 09:38:27.000   4280229.6421  -4034425.0987  -2458269.9795   5   6  10.3352   7.6931  10.7508  -7.5615   6.3465  -7.6547   0.00    0.0
2019/01/15 09:38:28.000   4280229.4645  -4034424.9971  -2458269.5590   5   6  10.3354   7.6924  10.7478  -7.5612   6.3448  -7.6526   0.00    0.0
2019/01/15 09:38:29.000   4280228.9958  -4034424.7250  -2458269.0403   5   6  10.3355   7.6918  10.7449  -7.5609   6.3431  -7.6505   0.00    0.0
2019/01/15 09:38:30.000   4280228.7551  -4034424.5228  -2458268.7877   5   6  10.3356   7.6912  10.7419  -7.5606   6.3413  -7.6485   0.00    0.0
2019/01/15 09:38:31.000   4280228.2397  -4034424.2438  -2458268.4697   5   6  10.3357   7.6906  10.7389  -7.5604   6.3396  -7.6464   0.00    0.0
2019/01/15 09:38:32.000   4280228.0457  -4034424.0213  -2458268.6397   5   6  10.3358   7.6900  10.7360  -7.5601   6.3379  -7.6443   0.00    0.0
2019/01/15 09:38:33.000   4280227.9451  -4034424.1401  -2458268.7422   5   6  10.3359   7.6893  10.7330  -7.5598   6.3361  -7.6422   0.00    0.0
2019/01/15 09:38:34.000   4280228.0142  -4034424.3056  -2458268.6931   5   6  10.3360   7.6887  10.7300  -7.5596   6.3344  -7.6402   0.00    0.0
2019/01/15 09:38:35.000   4280228.3244  -4034424.6916  -2458268.7007   5   6  10.3362   7.6881  10.7271  -7.5593   6.3327  -7.6381   0.00    0.0
2019/01/15 09:38:36.000   4280228.0489  -4034424.6615  -2458268.7727   5   6  10.3363   7.6875  10.7241  -7.5590   6.3310  -7.6360   0.00    0.0
2019/01/15 09:38:37.000   4280227.9903  -4034424.7323  -2458268.7842   5   6  10.3364   7.6869  10.7211  -7.5587   6.3292  -7.6339   0.00    0.0
2019/01/15 09:38:38.000   4280227.5584  -4034424.3618  -2458268.4076   5   6  10.3365   7.6862  10.7182  -7.5585   6.3275  -7.6319   0.00    0.0
2019/01/15 09:38:39.000   4280227.2403  -4034424.1881  -2458268.4354   5   6  10.3366   7.6856  10.7152  -7.5582   6.3258  -7.6298   0.00    0.0
2019/01/15 09:38:40.000   4280226.9831  -4034423.9153  -2458268.2847   5   6  10.3368   7.6850  10.7123  -7.5579   6.3241  -7.6277   0.00    0.0
2019/01/15 09:38:41.000   4280226.8418  -4034423.6845  -2458268.3282   5   6  10.3369   7.6844  10.7093  -7.5577   6.3224  -7.6257   0.00    0.0
2019/01/15 09:38:42.000   4280226.8132  -4034423.4787  -2458268.1963   5   6  10.3370   7.6838  10.7064  -7.5574   6.3206  -7.6236   0.00    0.0
2019/01/15 09:38:43.000   4280226.7777  -4034423.3591  -2458267.9818   5   6  10.3371   7.6832  10.7034  -7.5572   6.3189  -7.6215   0.00    0.0
2019/01/15 09:38:44.000   4280226.6782  -4034423.0440  -2458268.0270   5   6  10.3373   7.6826  10.7004  -7.5569   6.3172  -7.6195   0.00    0.0
2019/01/15 09:38:45.000   4280226.9972  -4034423.0820  -2458268.3288   5   6  10.3374   7.6819  10.6975  -7.5566   6.3155  -7.6174   0.00    0.0
2019/01/15 09:38:46.000   4280227.4031  -4034423.2972  -2458268.4575   5   6  10.3375   7.6813  10.6945  -7.5564   6.3138  -7.6154   0.00    0.0
2019/01/15 09:38:47.000   4280227.5307  -4034423.5509  -2458268.6479   5   6  10.3377   7.6807  10.6916  -7.5561   6.3121  -7.6133   0.00    0.0
2019/01/15 09:38:48.000   4280227.4851  -4034423.6577  -2458268.8098   5   6  10.3378   7.6801  10.6886  -7.5559   6.3104  -7.6112   0.00    0.0
2019/01/15 09:38:49.000   4280227.5539  -4034423.7983  -2458269.0939   5   6  10.3379   7.6795  10.6857  -7.5556   6.3086  -7.6092   0.00    0.0
2019/01/15 09:38:50.000   4280227.6089  -4034423.7374  -2458269.4159   5   6  10.3381   7.6789  10.6828  -7.5553   6.3069  -7.6071   0.00    0.0
2019/01/15 09:38:51.000   4280227.3132  -4034423.4527  -2458269.4096   5   6  10.3382   7.6783  10.6798  -7.5551   6.3052  -7.6051   0.00    0.0
2019/01/15 09:38:52.000   4280227.1643  -4034423.2977  -2458269.3607   5   6  10.3383   7.6777  10.6769  -7.5548   6.3035  -7.6030   0.00    0.0
2019/01/15 09:38:53.000   4280226.9792  -4034423.0330  -2458269.2790   5   6  10.3385   7.6771  10.6739  -7.5546   6.3018  -7.6010   0.00    0.0
2019/01/15 09:38:54.000   4280226.8111  -4034422.9891  -2458268.9406   5   6  10.3386   7.6765  10.6710  -7.5543   6.3001  -7.5989   0.00    0.0
2019/01/15 09:38:55.000   4280226.9864  -4034423.1206  -2458268.3386   5   6  10.3388   7.6759  10.6680  -7.5541   6.2984  -7.5969   0.00    0.0
2019/01/15 09:38:56.000   4280227.3455  -4034423.5254  -2458268.3602   5   6  10.3389   7.6753  10.6651  -7.5538   6.2967  -7.5948   0.00    0.0
2019/01/15 09:38:57.000   4280227.5406  -4034423.6980  -2458268.6377   5   6  10.3391   7.6747  10.6622  -7.5536   6.2950  -7.5928   0.00    0.0
2019/01/15 09:38:58.000   4280227.4730  -4034423.9581  -2458268.8922   5   6  10.3392   7.6741  10.6592  -7.5533   6.2933  -7.5907   0.00    0.0
2019/01/15 09:38:59.000   4280227.4351  -4034424.2997  -2458269.0583   5   6  10.3393   7.6735  10.6563  -7.5531   6.2916  -7.5887   0.00    0.0
2019/01/15 09:39:00.000   4280227.4960  -4034424.6474  -2458269.1529   5   6  10.3395   7.6729  10.6534  -7.5528   6.2899  -7.5866   0.00    0.0
2019/01/15 09:39:01.000   4280227.3849  -4034424.7115  -2458269.1105   5   6  10.3396   7.6723  10.6504  -7.5526   6.2882  -7.5846   0.00    0.0
2019/01/15 09:39:02.000   4280227.6035  -4034424.8296  -2458269.3041   5   6  10.3398   7.6717  10.6475  -7.5523   6.2865  -7.5826   0.00    0.0
2019/01/15 09:39:03.000   4280227.9934  -4034424.8980  -2458269.4783   5   6  10.3399   7.6711  10.6446  -7.5521   6.2848  -7.5805   0.00    0.0
2019/01/15 09:39:04.000   4280227.9703  -4034424.7782  -2458269.1719   5   6  10.3401   7.6705  10.6417  -7.5519   6.2832  -7.5785   0.00    0.0
2019/01/15 09:39:05.000   4280227.9540  -4034424.7186  -2458268.4551   5   6  10.3402   7.6699  10.6387  -7.5516   6.2815  -7.5765   0.00    0.0
2019/01/15 09:39:06.000   4280228.4670  -4034424.8442  -2458267.9911   5   6  10.3404   7.6693  10.6358  -7.5514   6.2798  -7.5744   0.00    0.0
2019/01/15 09:39:07.000   4280228.6351  -4034424.7047  -2458267.4417   5   6  10.3406   7.6687  10.6329  -7.5511   6.2781  -7.5724   0.00    0.0
2019/01/15 09:39:08.000   4280228.5821  -4034424.5513  -2458266.9890   5   6  10.3407   7.6681  10.6300  -7.5509   6.2764  -7.5704   0.00    0.0
2019/01/15 09:39:09.000   4280228.3082  -4034424.4295  -2458266.5419   5   6  10.3409   7.6675  10.6270  -7.5507   6.2747  -7.5683   0.00    0.0
2019/01/15 09:39:10.000   4280228.3420  -4034424.5597  -2458266.5173   5   6  10.3410   7.6669  10.6241  -7.5504   6.2730  -7.5663   0.00    0.0
2019/01/15 09:39:11.000   4280228.4138  -4034424.5393  -2458266.4844   5   6  10.3412   7.6663  10.6212  -7.5502   6.2714  -7.5643   0.00    0.0
2019/01/15 09:39:12.000   4280228.6432  -4034424.6772  -2458266.7768   5   6  10.3413   7.6657  10.6183  -7.5500   6.2697  -7.5622   0.00    0.0
2019/01/15 09:39:13.000   4280228.6301  -4034424.6159  -2458266.9323   5   6  10.3415   7.6651  10.6154  -7.5497   6.2680  -7.5602   0.00    0.0
2019/01/15 09:39:14.000   4280228.8468  -4034424.7587  -2458267.3302   5   6  10.3417   7.6645  10.6124  -7.5495   6.2663  -7.5582   0.00    0.0
2019/01/15 09:39:15.000   4280228.2260  -4034424.3168  -2458267.1962   5   6  10.3418   7.6639  10.6095  -7.5493   6.2646  -7.5562   0.00    0.0
2019/01/15 09:39:16.000   4280227.7834  -4034423.8081  -2458267.2673   5   6  10.3420   7.6633  10.6066  -7.5490   6.2630  -7.5541   0.00    0.0
2019/01/15 09:39:17.000   4280227.2073  -4034423.0949  -2458266.9946   5   6  10.3422   7.6628  10.6037  -7.5488   6.2613  -7.5521   0.00    0.0
2019/01/15 09:39:18.000   4280227.2318  -4034422.8222  -2458267.2076   5   6  10.3423   7.6622  10.6008  -7.5486   6.2596  -7.5501   0.00    0.0
2019/01/15 09:39:19.000   4280227.3379  -4034422.7219  -2458267.2274   5   6  10.3425   7.6616  10.5979  -7.5483   6.2579  -7.5481   0.00    0.0
2019/01/15 09:39:20.000   4280226.8891  -4034422.3006  -2458266.7564   5   6  10.3427   7.6610  10.5950  -7.5481   6.2563  -7.5461   0.00    0.0
2019/01/15 09:39:21.000   4280226.7311  -4034422.3745  -2458266.3717   5   6  10.3428   7.6604  10.5921  -7.5479   6.2546  -7.5441   0.00    0.0
2019/01/15 09:39:22.000   4280226.5950  -4034422.5467  -2458266.0785   5   6  10.3430   7.6598  10.5892  -7.5477   6.2529  -7.5420   0.00    0.0
2019/01/15 09:39:23.000   4280226.2187  -4034422.4165  -2458265.9629   5   6  10.3432   7.6592  10.5863  -7.5474   6.2513  -7.5400   0.00    0.0
2019/01/15 09:39:24.000   4280226.1615  -4034422.3702  -2458266.1396   5   6  10.3434   7.6587  10.5834  -7.5472   6.2496  -7.5380   0.00    0.0
2019/01/15 09:39:25.000   4280225.8971  -4034422.1410  -2458266.4926   5   6  10.3435   7.6581  10.5805  -7.5470   6.2479  -7.5360   0.00    0.0
2019/01/15 09:39:26.000   4280225.5985  -4034421.8131  -2458266.8311   5   6  10.3437   7.6575  10.5776  -7.5468   6.2463  -7.5340   0.00    0.0
2019/01/15 09:39:27.000   4280225.9918  -4034421.9703  -2458267.3270   5   6  10.3439   7.6569  10.5747  -7.5466   6.2446  -7.5320   0.00    0.0
2019/01/15 09:39:28.000   4280226.1663  -4034422.0861  -2458267.5493   5   6  10.3441   7.6563  10.5718  -7.5463   6.2429  -7.5300   0.00    0.0
2019/01/15 09:39:29.000   4280225.9906  -4034421.9946  -2458267.2079   5   6  10.3442   7.6558  10.5689  -7.5461   6.2413  -7.5280   0.00    0.0
2019/01/15 09:39:30.000   4280225.7497  -4034421.8543  -2458266.8871   5   6  10.3444   7.6552  10.5660  -7.5459   6.2396  -7.5260   0.00    0.0
2019/01/15 09:39:31.000   4280225.4665  -4034421.8645  -2458266.5193   5   6  10.3446   7.6546  10.5631  -7.5457   6.2380  -7.5240   0.00    0.0
2019/01/15 09:39:32.000   4280225.2135  -4034421.8389  -2458266.4666   5   6  10.3448   7.6540  10.5602  -7.5455   6.2363  -7.5220   0.00    0.0
2019/01/15 09:39:33.000   4280225.1275  -4034421.6731  -2458266.9066   5   6  10.3450   7.6534  10.5573  -7.5453   6.2346  -7.5200   0.00    0.0
2019/01/15 09:39:34.000   4280225.3370  -4034421.6614  -2458267.4362   5   6  10.3452   7.6529  10.5544  -7.5450   6.2330  -7.5180   0.00    0.0
2019/01/15 09:39:35.000   4280225.6233  -4034421.6626  -2458267.9828   5   6  10.3453   7.6523  10.5515  -7.5448   6.2313  -7.5160   0.00    0.0
2019/01/15 09:39:36.000   4280225.2844  -4034421.2748  -2458268.2933   5   6  10.3455   7.6517  10.5486  -7.5446   6.2297  -7.5140   0.00    0.0
2019/01/15 09:39:37.000   4280224.9210  -4034420.9362  -2458268.5903   5   6  10.3457   7.6512  10.5457  -7.5444   6.2280  -7.5120   0.00    0.0
2019/01/15 09:39:38.000   4280224.5597  -4034420.4990  -2458268.6361   5   6  10.3459   7.6506  10.5429  -7.5442   6.2264  -7.5100   0.00    0.0
2019/01/15 09:39:39.000   4280224.8605  -4034420.5161  -2458268.8481   5   6  10.3461   7.6500  10.5400  -7.5440   6.2247  -7.5080   0.00    0.0
2019/01/15 09:39:40.000   4280225.3428  -4034420.5769  -2458268.9210   5   6  10.3463   7.6494  10.5371  -7.5438   6.2231  -7.5060   0.00    0.0
2019/01/15 09:39:41.000   4280225.6522  -4034420.6240  -2458269.0544   5   6  10.3465   7.6489  10.5342  -7.5436   6.2214  -7.5040   0.00    0.0
2019/01/15 09:39:42.000   4280225.7365  -4034420.7566  -2458269.2358   5   6  10.3467   7.6483  10.5313  -7.5434   6.2198  -7.5020   0.00    0.0
2019/01/15 09:39:43.000   4280225.3574  -4034420.6658  -2458269.4592   5   6  10.3469   7.6477  10.5284  -7.5432   6.2181  -7.5000   0.00    0.0
2019/01/15 09:39:44.000   4280225.7495  -4034420.7841  -2458270.0924   5   6  10.3471   7.6472  10.5256  -7.5430   6.2165  -7.4980   0.00    0.0
2019/01/15 09:39:45.000   4280226.1670  -4034420.8689  -2458270.8816   5   6  10.3473   7.6466  10.5227  -7.5428   6.2149  -7.4961   0.00    0.0
2019/01/15 09:39:46.000   4280226.4378  -4034421.1052  -2458271.2140   5   6  10.3475   7.6460  10.5198  -7.5426   6.2132  -7.4941   0.00    0.0
2019/01/15 09:39:47.000   4280226.6492  -4034421.2292  -2458271.3059   5   6  10.3477   7.6455  10.5169  -7.5424   6.2116  -7.4921   0.00    0.0
2019/01/15 09:39:48.000   4280226.4024  -4034421.2955  -2458270.7148   5   6  10.3479   7.6449  10.5141  -7.5422   6.2099  -7.4901   0.00    0.0
2019/01/15 09:39:49.000   4280226.0834  -4034421.1771  -2458270.1050   5   6  10.3481   7.6443  10.5112  -7.5420   6.2083  -7.4881   0.00    0.0
2019/01/15 09:39:50.000   4280225.7723  -4034421.0676  -2458269.5184   5   6  10.3483   7.6438  10.5083  -7.5418   6.2067  -7.4861   0.00    0.0
2019/01/15 09:39:51.000   4280224.9732  -4034420.4540  -2458268.9770   5   6  10.3485   7.6432  10.5055  -7.5416   6.2050  -7.4842   0.00    0.0
2019/01/15 09:39:52.000   4280223.9620  -4034419.6033  -2458268.5710   5   6  10.3487   7.6426  10.5026  -7.5414   6.2034  -7.4822   0.00    0.0
2019/01/15 09:39:53.000   4280223.3812  -4034419.0948  -2458268.6206   5   6  10.3489   7.6421  10.4997  -7.5412   6.2018  -7.4802   0.00    0.0
2019/01/15 09:39:54.000   4280222.6654  -4034418.3970  -2458268.5578   5   6  10.3491   7.6415  10.4969  -7.5410   6.2001  -7.4782   0.00    0.0
2019/01/15 09:39:55.000   4280222.0482  -4034417.6867  -2458268.5660   5   6  10.3493   7.6410  10.4940  -7.5408   6.1985  -7.4763   0.00    0.0
2019/01/15 09:39:56.000   4280222.1142  -4034417.4693  -2458268.7783   5   6  10.3495   7.6404  10.4911  -7.5406   6.1969  -7.4743   0.00    0.0
2019/01/15 09:39:57.000   4280222.4797  -4034417.7593  -2458268.9760   5   6  10.3497   7.6398  10.4883  -7.5404   6.1953  -7.4723   0.00    0.0
2019/01/15 09:39:58.000   4280223.0560  -4034418.0742  -2458269.3106   5   6  10.3499   7.6393  10.4854  -7.5402   6.1936  -7.4704   0.00    0.0
2019/01/15 09:39:59.000   4280223.5319  -4034418.1747  -2458269.2080   5   6  10.3501   7.6387  10.4826  -7.5400   6.1920  -7.4684   0.00    0.0
2019/01/15 09:40:00.000   4280223.3366  -4034418.0564  -2458268.7388   5   6  10.3504   7.6382  10.4797  -7.5399   6.1904  -7.4664   0.00    0.0
2019/01/15 09:40:01.000   4280222.8141  -4034417.8992  -2458268.1338   5   6  10.3506   7.6376  10.4768  -7.5397   6.1888  -7.4645   0.00    0.0
2019/01/15 09:40:02.000   4280222.4217  -4034417.8462  -2458267.9486   5   6  10.3508   7.6370  10.4740  -7.5395   6.1871  -7.4625   0.00    0.0
2019/01/15 09:40:03.000   4280222.1195  -4034417.7018  -2458268.2308   5   6  10.3510   7.6365  10.4711  -7.5393   6.1855  -7.4605   0.00    0.0
2019/01/15 09:40:04.000   4280222.3949  -4034417.7726  -2458268.6559   5   6  10.3512   7.6359  10.4683  -7.5391   6.1839  -7.4586   0.00    0.0
2019/01/15 09:40:05.000   4280222.2459  -4034417.6946  -2458268.7122   5   6  10.3514   7.6354  10.4654  -7.5389   6.1823  -7.4566   0.00    0.0
2019/01/15 09:40:06.000   4280222.1218  -4034417.6627  -2458268.4894   5   6  10.3517   7.6348  10.4626  -7.5388   6.1807  -7.4547   0.00    0.0
2019/01/15 09:40:07.000   4280222.1615  -4034417.6844  -2458268.0571   5   6  10.3519   7.6343  10.4597  -7.5386   6.1790  -7.4527   0.00    0.0
2019/01/15 09:40:08.000   4280222.2634  -4034417.8981  -2458267.8536   5   6  10.3521   7.6337  10.4569  -7.5384   6.1774  -7.4507   0.00    0.0
2019/01/15 09:40:09.000   4280222.1960  -4034418.1137  -2458267.6073   5   6  10.3523   7.6332  10.4540  -7.5382   6.1758  -7.4488   0.00    0.0
2019/01/15 09:40:10.000   4280221.8369  -4034418.1735  -2458267.4843   5   6  10.3526   7.6326  10.4512  -7.5380   6.1742  -7.4468   0.00    0.0
2019/01/15 09:40:11.000   4280221.5259  -4034418.1000  -2458267.4769   5   6  10.3528   7.6321  10.4483  -7.5379   6.1726  -7.4449   0.00    0.0
2019/01/15 09:40:12.000   4280221.3403  -4034418.0395  -2458267.2808   5   6  10.3530   7.6315  10.4455  -7.5377   6.1710  -7.4429   0.00    0.0
2019/01/15 09:40:13.000   4280221.2424  -4034418.1504  -2458267.1570   5   6  10.3532   7.6310  10.4427  -7.5375   6.1694  -7.4410   0.00    0.0
2019/01/15 09:40:14.000   4280221.1255  -4034418.4845  -2458267.2770   5   6  10.3535   7.6304  10.4398  -7.5373   6.1678  -7.4390   0.00    0.0
2019/01/15 09:40:15.000   4280220.9640  -4034418.8113  -2458267.6891   5   6  10.3537   7.6299  10.4370  -7.5372   6.1662  -7.4371   0.00    0.0
2019/01/15 09:40:16.000   4280220.9398  -4034418.9672  -2458268.0342   5   6  10.3539   7.6293  10.4341  -7.5370   6.1646  -7.4351   0.00    0.0
2019/01/15 09:40:17.000   4280220.7957  -4034418.9292  -2458267.8988   5   6  10.3542   7.6288  10.4313  -7.5368   6.1629  -7.4332   0.00    0.0
2019/01/15 09:40:18.000   4280220.7336  -4034418.7223  -2458267.6745   5   6  10.3544   7.6283  10.4285  -7.5366   6.1613  -7.4312   0.00    0.0
2019/01/15 09:40:19.000   4280220.9420  -4034418.5684  -2458267.5354   5   6  10.3546   7.6277  10.4256  -7.5365   6.1597  -7.4293   0.00    0.0
2019/01/15 09:40:20.000   4280221.0785  -4034418.5046  -2458267.3368   5   6  10.3549   7.6272  10.4228  -7.5363   6.1581  -7.4274   0.00    0.0
2019/01/15 09:40:21.000   4280220.9527  -4034418.3073  -2458267.0955   5   6  10.3551   7.6266  10.4200  -7.5361   6.1565  -7.4254   0.00    0.0
2019/01/15 09:40:22.000   4280220.9742  -4034418.2146  -2458267.0251   5   6  10.3553   7.6261  10.4171  -7.5360   6.1549  -7.4235   0.00    0.0
2019/01/15 09:40:23.000   4280220.7362  -4034418.0306  -2458266.6940   5   6  10.3556   7.6255  10.4143  -7.5358   6.1534  -7.4215   0.00    0.0
2019/01/15 09:40:24.000   4280220.5324  -4034417.8157  -2458266.5773   5   6  10.3558   7.6250  10.4115  -7.5356   6.1518  -7.4196   0.00    0.0
2019/01/15 09:40:25.000   4280220.8415  -4034417.9047  -2458266.9111   5   6  10.3561   7.6245  10.4086  -7.5355   6.1502  -7.4177   0.00    0.0
2019/01/15 09:40:26.000   4280220.8189  -4034417.8154  -2458267.3270   5   6  10.3563   7.6239  10.4058  -7.5353   6.1486  -7.4157   0.00    0.0
2019/01/15 09:40:27.000   4280220.6730  -4034417.5451  -2458267.8462   5   6  10.3565   7.6234  10.4030  -7.5351   6.1470  -7.4138   0.00    0.0
2019/01/15 09:40:28.000   4280220.7208  -4034417.5376  -2458268.1240   5   6  10.3568   7.6229  10.4002  -7.5350   6.1454  -7.4119   0.00    0.0
2019/01/15 09:40:29.000   4280221.1328  -4034417.8220  -2458268.5057   5   6  10.3570   7.6223  10.3973  -7.5348   6.1438  -7.4099   0.00    0.0
2019/01/15 09:40:30.000   4280221.4781  -4034418.2782  -2458268.7812   5   6  10.3573   7.6218  10.3945  -7.5347   6.1422  -7.4080   0.00    0.0
2019/01/15 09:40:31.000   4280221.5083  -4034418.6495  -2458268.8102   5   6  10.3575   7.6212  10.3917  -7.5345   6.1406  -7.4061   0.00    0.0
2019/01/15 09:40:32.000   4280221.3963  -4034418.9152  -2458268.9122   5   6  10.3578   7.6207  10.3889  -7.5344   6.1390  -7.4042   0.00    0.0
2019/01/15 09:40:33.000   4280221.0312  -4034418.9309  -2458268.8316   5   6  10.3580   7.6202  10.3861  -7.5342   6.1374  -7.4022   0.00    0.0
2019/01/15 09:40:34.000   4280220.8950  -4034419.1118  -2458268.9888   5   6  10.3583   7.6196  10.3833  -7.5340   6.1359  -7.4003   0.00    0.0
2019/01/15 09:40:35.000   4280221.0600  -4034419.0836  -2458269.5583   5   6  10.3585   7.6191  10.3804  -7.5339   6.1343  -7.3984   0.00    0.0
2019/01/15 09:40:36.000   4280220.9601  -4034418.7532  -2458269.9802   5   6  10.3588   7.6186  10.3776  -7.5337   6.1327  -7.3965   0.00    0.0
2019/01/15 09:40:37.000   4280220.6020  -4034418.1785  -2458270.3409   5   6  10.3590   7.6180  10.3748  -7.5336   6.1311  -7.3946   0.00    0.0
2019/01/15 09:40:38.000   4280220.3682  -4034418.0716  -2458270.4894   5   6  10.3593   7.6175  10.3720  -7.5334   6.1295  -7.3926   0.00    0.0
2019/01/15 09:40:39.000   4280220.2196  -4034418.1759  -2458270.4975   5   6  10.3595   7.6170  10.3692  -7.5333   6.1280  -7.3907   0.00    0.0
2019/01/15 09:40:40.000   4280220.3445  -4034418.4595  -2458270.6296   5   6  10.3598   7.6165  10.3664  -7.5331   6.1264  -7.3888   0.00    0.0
2019/01/15 09:40:41.000   4280220.4556  -4034418.8999  -2458270.8045   5   6  10.3600   7.6159  10.3636  -7.5330   6.1248  -7.3869   0.00    0.0
2019/01/15 09:40:42.000   4280220.7657  -4034419.5025  -2458270.9513   5   6  10.3603   7.6154  10.3608  -7.5328   6.1232  -7.3850   0.00    0.0
2019/01/15 09:40:43.000   4280220.7879  -4034419.6664  -2458271.0296   5   6  10.3606   7.6149  10.3580  -7.5327   6.1217  -7.3831   0.00    0.0
2019/01/15 09:40:44.000   4280220.8423  -4034419.6833  -2458271.3260   5   6  10.3608   7.6143  10.3552  -7.5325   6.1201  -7.3811   0.00    0.0
2019/01/15 09:40:45.000   4280220.8606  -4034419.6594  -2458271.4680   5   6  10.3611   7.6138  10.3524  -7.5324   6.1185  -7.3792   0.00    0.0
2019/01/15 09:40:46.000   4280220.7307  -4034419.6894  -2458271.4542   5   6  10.3614   7.6133  10.3496  -7.5322   6.1169  -7.3773   0.00    0.0
2019/01/15 09:40:47.000   4280220.5439  -4034419.8463  -2458271.1698   5   6  10.3616   7.6128  10.3468  -7.5321   6.1154  -7.3754   0.00    0.0
2019/01/15 09:40:48.000   4280220.3526  -4034419.9862  -2458270.9447   5   6  10.3619   7.6123  10.3440  -7.5320   6.1138  -7.3735   0.00    0.0
2019/01/15 09:40:49.000   4280220.1605  -4034419.8291  -2458270.6436   5   6  10.3622   7.6117  10.3412  -7.5318   6.1122  -7.3716   0.00    0.0
2019/01/15 09:40:50.000   4280220.0449  -4034419.8628  -2458270.6987   5   6  10.3624   7.6112  10.3384  -7.5317   6.1107  -7.3697   0.00    0.0
2019/01/15 09:40:51.000   4280220.2133  -4034420.2344  -2458270.6117   5   6  10.3627   7.6107  10.3356  -7.5315   6.1091  -7.3678   0.00    0.0
2019/01/15 09:40:52.000   4280220.4515  -4034420.5189  -2458270.6012   5   6  10.3630   7.6102  10.3328  -7.5314   6.1075  -7.3659   0.00    0.0
2019/01/15 09:40:53.000   4280220.6508  -4034420.7937  -2458270.8176   5   6  10.3632   7.6096  10.3300  -7.5313   6.1060  -7.3640   0.00    0.0
2019/01/15 09:40:54.000   4280221.2590  -4034421.1209  -2458271.4399   5   6  10.3635   7.6091  10.3272  -7.5311   6.1044  -7.3621   0.00    0.0
2019/01/15 09:40:55.000   4280221.6598  -4034421.2440  -2458272.0397   5   6  10.3638   7.6086  10.3244  -7.5310   6.1029  -7.3602   0.00    0.0
2019/01/15 09:40:56.000   4280221.9057  -4034421.2198  -2458272.3428   5   6  10.3640   7.6081  10.3216  -7.5308   6.1013  -7.3583   0.00    0.0
2019/01/15 09:40:57.000   4280221.8520  -4034421.0105  -2458272.3786   5   6  10.3643   7.6076  10.3188  -7.5307   6.0997  -7.3564   0.00    0.0
2019/01/15 09:40:58.000   4280221.8311  -4034420.8282  -2458272.1912   5   6  10.3646   7.6071  10.3160  -7.5306   6.0982  -7.3545   0.00    0.0
2019/01/15 09:40:59.000   4280221.9657  -4034420.7839  -2458272.0426   5   6  10.3649   7.6065  10.3132  -7.5304   6.0966  -7.3526   0.00    0.0
2019/01/15 09:41:00.000   4280222.2713  -4034420.8826  -2458272.0701   5   6  10.3652   7.6060  10.3105  -7.5303   6.0951  -7.3507   0.00    0.0
2019/01/15 09:41:01.000   4280222.3416  -4034420.9728  -2458271.8297   5   6  10.3654   7.6055  10.3077  -7.5302   6.0935  -7.3488   0.00    0.0
2019/01/15 09:41:02.000   4280222.1855  -4034420.9009  -2458271.8328   5   6  10.3657   7.6050  10.3049  -7.5301   6.0920  -7.3470   0.00    0.0
2019/01/15 09:41:03.000   4280221.9622  -4034420.7363  -2458271.7949   5   6  10.3660   7.6045  10.3021  -7.5299   6.0904  -7.3451   0.00    0.0
2019/01/15 09:41:04.000   4280221.9864  -4034420.6663  -2458271.8417   5   6  10.3663   7.6040  10.2993  -7.5298   6.0889  -7.3432   0.00    0.0
2019/01/15 09:41:05.000   4280222.6022  -4034421.2190  -2458272.4381   5   6  10.3666   7.6035  10.2966  -7.5297   6.0873  -7.3413   0.00    0.0
2019/01/15 09:41:06.000   4280223.0132  -4034421.6259  -2458272.9027   5   6  10.3668   7.6029  10.2938  -7.5295   6.0858  -7.3394   0.00    0.0
2019/01/15 09:41:07.000   4280223.0573  -4034421.8245  -2458273.2385   5   6  10.3671   7.6024  10.2910  -7.5294   6.0842  -7.3375   0.00    0.0
2019/01/15 09:41:08.000   4280223.2019  -4034421.9163  -2458273.1989   5   6  10.3674   7.6019  10.2882  -7.5293   6.0827  -7.3357   0.00    0.0
2019/01/15 09:41:09.000   4280222.9854  -4034421.8523  -2458272.9309   5   6  10.3677   7.6014  10.2855  -7.5292   6.0811  -7.3338   0.00    0.0
2019/01/15 09:41:10.000   4280222.9138  -4034421.8867  -2458272.8453   5   6  10.3680   7.6009  10.2827  -7.5291   6.0796  -7.3319   0.00    0.0
2019/01/15 09:41:11.000   4280222.8331  -4034421.8295  -2458272.4813   5   6  10.3683   7.6004  10.2799  -7.5289   6.0781  -7.3300   0.00    0.0
2019/01/15 09:41:12.000   4280223.0532  -4034421.7110  -2458272.1746   5   6  10.3686   7.5999  10.2772  -7.5288   6.0765  -7.3281   0.00    0.0
2019/01/15 09:41:13.000   4280223.5827  -4034422.0504  -2458271.8513   5   6  10.3689   7.5994  10.2744  -7.5287   6.0750  -7.3263   0.00    0.0
2019/01/15 09:41:14.000   4280224.0977  -4034422.3591  -2458271.4027   5   6  10.3692   7.5989  10.2716  -7.5286   6.0734  -7.3244   0.00    0.0
2019/01/15 09:41:15.000   4280224.0762  -4034422.4104  -2458270.8435   5   6  10.3695   7.5984  10.2689  -7.5285   6.0719  -7.3225   0.00    0.0
2019/01/15 09:41:16.000   4280223.6685  -4034422.1838  -2458270.3874   5   6  10.3698   7.5979  10.2661  -7.5283   6.0704  -7.3206   0.00    0.0
2019/01/15 09:41:17.000   4280223.8190  -4034422.1572  -2458270.4088   5   6  10.3700   7.5974  10.2633  -7.5282   6.0688  -7.3188   0.00    0.0
2019/01/15 09:41:18.000   4280224.2591  -4034422.4297  -2458270.7405   5   6  10.3703   7.5969  10.2606  -7.5281   6.0673  -7.3169   0.00    0.0
2019/01/15 09:41:19.000   4280225.0070  -4034423.0222  -2458271.2835   5   6  10.3706   7.5964  10.2578  -7.5280   6.0658  -7.3150   0.00    0.0
2019/01/15 09:41:20.000   4280225.8655  -4034423.6609  -2458272.0194   5   6  10.3709   7.5959  10.2550  -7.5279   6.0642  -7.3132   0.00    0.0
2019/01/15 09:41:21.000   4280226.4710  -4034424.0751  -2458272.4576   5   6  10.3712   7.5954  10.2523  -7.5278   6.0627  -7.3113   0.00    0.0
2019/01/15 09:41:22.000   4280226.8598  -4034424.3429  -2458272.4763   5   6  10.3715   7.5949  10.2495  -7.5277   6.0612  -7.3094   0.00    0.0
2019/01/15 09:41:23.000   4280227.1302  -4034424.4753  -2458272.5128   5   6  10.3718   7.5944  10.2468  -7.5275   6.0596  -7.3076   0.00    0.0
2019/01/15 09:41:24.000   4280227.1510  -4034424.5730  -2458272.5336   5   6  10.3722   7.5939  10.2440  -7.5274   6.0581  -7.3057   0.00    0.0
2019/01/15 09:41:25.000   4280227.3216  -4034424.7855  -2458272.9820   5   6  10.3725   7.5934  10.2413  -7.5273   6.0566  -7.3039   0.00    0.0
2019/01/15 09:41:26.000   4280227.8113  -4034425.0628  -2458273.6648   5   6  10.3728   7.5929  10.2385  -7.5272   6.0551  -7.3020   0.00    0.0
2019/01/15 09:41:27.000   4280228.5236  -4034425.4585  -2458274.2594   5   6  10.3731   7.5924  10.2358  -7.5271   6.0535  -7.3001   0.00    0.0
2019/01/15 09:41:28.000   4280228.9339  -4034425.5961  -2458274.7002   5   6  10.3734   7.5919  10.2330  -7.5270   6.0520  -7.2983   0.00    0.0
2019/01/15 09:41:29.000   4280229.2320  -4034425.6314  -2458274.6236   5   6  10.3737   7.5914  10.2303  -7.5269   6.0505  -7.2964   0.00    0.0
2019/01/15 09:41:30.000   4280229.3008  -4034425.6492  -2458274.2748   5   6  10.3740   7.5909  10.2275  -7.5268   6.0490  -7.2946   0.00    0.0
2019/01/15 09:41:31.000   4280228.9729  -4034425.5151  -2458274.0913   5   6  10.3743   7.5904  10.2248  -7.5267   6.0475  -7.2927   0.00    0.0
