% program   : RTKPOST ver.2.4.2
% inp file  : D:\Google Drive\UERJ\_Projeto Final\Python\tcc-guilherme\20190115_Levantamento_8min_Original.19o
% inp file  : D:\Google Drive\UERJ\_Projeto Final\20190115_Marco 91500 IBGE\brdm0150.19p
% obs start : 2019/01/15 09:34:43.0 GPST (week2036 207283.0s)
% obs end   : 2019/01/15 09:52:37.0 GPST (week2036 208357.0s)
% pos mode  : single
% elev mask : 15.0 deg
% ionos opt : broadcast
% tropo opt : saastamoinen
% ephemeris : broadcast
%
% (x/y/z-ecef=WGS84,Q=1:fix,2:float,3:sbas,4:dgps,5:single,6:ppp,ns=# of satellites)
%  GPST                      x-ecef(m)      y-ecef(m)      z-ecef(m)   Q  ns   sdx(m)   sdy(m)   sdz(m)  sdxy(m)  sdyz(m)  sdzx(m) age(s)  ratio
2019/01/15 09:34:44.000   4280214.1702  -4034410.5384  -2458238.2471   5   6   5.1484   4.0214   6.1074  -3.8238   3.4566  -4.1345   0.00    0.0
2019/01/15 09:34:45.000   4280226.2307  -4034406.7775  -2458256.7208   5   6   5.1483   4.0211   6.1057  -3.8236   3.4555  -4.1330   0.00    0.0
2019/01/15 09:34:46.000   4280211.4623  -4034400.4272  -2458273.4993   5   6   5.1481   4.0209   6.1040  -3.8233   3.4545  -4.1316   0.00    0.0
2019/01/15 09:34:47.000   4280231.5498  -4034421.7306  -2458275.0172   5   6   5.1480   4.0207   6.1023  -3.8231   3.4534  -4.1302   0.00    0.0
2019/01/15 09:34:48.000   4280232.5500  -4034423.3993  -2458271.7119   5   6   5.1478   4.0204   6.1006  -3.8229   3.4523  -4.1287   0.00    0.0
2019/01/15 09:34:49.000   4280208.2214  -4034397.7228  -2458269.4154   5   6   5.1477   4.0202   6.0989  -3.8226   3.4512  -4.1273   0.00    0.0
2019/01/15 09:34:50.000   4280219.2939  -4034404.9829  -2458275.8018   5   6   5.1476   4.0199   6.0972  -3.8224   3.4501  -4.1258   0.00    0.0
2019/01/15 09:34:51.000   4280225.5395  -4034403.7677  -2458274.8277   5   6   5.1475   4.0197   6.0955  -3.8222   3.4491  -4.1244   0.00    0.0
2019/01/15 09:34:52.000   4280224.1611  -4034420.7124  -2458264.9065   5   6   5.1473   4.0194   6.0938  -3.8220   3.4480  -4.1230   0.00    0.0
2019/01/15 09:34:53.000   4280224.2239  -4034415.0830  -2458270.1418   5   6   5.1472   4.0192   6.0922  -3.8217   3.4469  -4.1215   0.00    0.0
2019/01/15 09:34:54.000   4280217.5456  -4034416.3109  -2458267.6436   5   6   5.1471   4.0190   6.0905  -3.8215   3.4458  -4.1201   0.00    0.0
2019/01/15 09:34:55.000   4280213.1955  -4034409.5890  -2458265.8525   5   6   5.1470   4.0187   6.0888  -3.8213   3.4447  -4.1187   0.00    0.0
2019/01/15 09:34:57.000   4280222.7250  -4034413.4136  -2458293.2989   5   6   5.1467   4.0182   6.0854  -3.8208   3.4426  -4.1158   0.00    0.0
2019/01/15 09:35:02.000   4280210.7442  -4034413.8753  -2458270.3969   5   6   5.1461   4.0171   6.0770  -3.8197   3.4372  -4.1086   0.00    0.0
2019/01/15 09:35:03.000   4280243.3142  -4034428.9863  -2458279.4275   5   6   5.1460   4.0168   6.0753  -3.8195   3.4361  -4.1072   0.00    0.0
2019/01/15 09:35:05.000   4280224.9878  -4034415.8593  -2458294.5010   5   6   5.1457   4.0163   6.0719  -3.8191   3.4340  -4.1044   0.00    0.0
2019/01/15 09:35:06.000   4280223.4089  -4034420.1149  -2458277.5012   5   6   5.1456   4.0161   6.0703  -3.8189   3.4329  -4.1029   0.00    0.0
2019/01/15 09:35:07.000   4280226.7145  -4034425.5651  -2458284.5065   5   6   5.1455   4.0159   6.0686  -3.8186   3.4319  -4.1015   0.00    0.0
2019/01/15 09:35:09.000   4280206.1999  -4034407.5550  -2458253.5913   5   6   5.1453   4.0154   6.0652  -3.8182   3.4297  -4.0987   0.00    0.0
2019/01/15 09:35:10.000   4280235.5460  -4034423.8473  -2458269.5278   5   6   5.1452   4.0152   6.0635  -3.8180   3.4287  -4.0972   0.00    0.0
2019/01/15 09:35:14.000   4280208.9822  -4034395.6442  -2458240.5970   5   6   5.1447   4.0143   6.0568  -3.8172   3.4244  -4.0916   0.00    0.0
2019/01/15 09:35:15.000   4280228.4799  -4034412.9068  -2458268.3561   5   6   5.1446   4.0140   6.0551  -3.8169   3.4233  -4.0901   0.00    0.0
2019/01/15 09:35:16.000   4280225.9690  -4034421.9420  -2458271.5574   5   6   5.1445   4.0138   6.0535  -3.8167   3.4223  -4.0887   0.00    0.0
2019/01/15 09:35:17.000   4280225.7768  -4034415.9231  -2458253.3783   5   6   5.1444   4.0136   6.0518  -3.8165   3.4212  -4.0873   0.00    0.0
2019/01/15 09:35:18.000   4280218.7247  -4034408.8514  -2458255.5009   5   6   5.1443   4.0133   6.0501  -3.8163   3.4201  -4.0859   0.00    0.0
2019/01/15 09:35:19.000   4280217.9275  -4034400.4837  -2458266.6561   5   6   5.1442   4.0131   6.0484  -3.8161   3.4191  -4.0845   0.00    0.0
2019/01/15 09:35:20.000   4280218.9367  -4034407.4102  -2458259.6758   5   6   5.1441   4.0129   6.0468  -3.8159   3.4180  -4.0830   0.00    0.0
2019/01/15 09:35:21.000   4280229.5078  -4034422.5490  -2458275.5248   5   6   5.1440   4.0127   6.0451  -3.8157   3.4170  -4.0816   0.00    0.0
2019/01/15 09:35:22.000   4280220.8485  -4034413.5962  -2458262.9861   5   6   5.1439   4.0124   6.0434  -3.8155   3.4159  -4.0802   0.00    0.0
2019/01/15 09:35:23.000   4280217.1314  -4034416.9696  -2458268.0817   5   6   5.1438   4.0122   6.0418  -3.8153   3.4149  -4.0788   0.00    0.0
2019/01/15 09:35:24.000   4280221.3748  -4034415.9098  -2458279.9650   5   6   5.1437   4.0120   6.0401  -3.8151   3.4138  -4.0774   0.00    0.0
2019/01/15 09:35:25.000   4280227.4384  -4034421.3729  -2458279.5963   5   6   5.1436   4.0118   6.0384  -3.8149   3.4127  -4.0760   0.00    0.0
2019/01/15 09:35:26.000   4280235.6607  -4034426.2857  -2458268.9986   5   6   5.1435   4.0115   6.0367  -3.8147   3.4117  -4.0745   0.00    0.0
2019/01/15 09:35:27.000   4280228.1079  -4034424.0208  -2458269.3400   5   6   5.1434   4.0113   6.0351  -3.8145   3.4106  -4.0731   0.00    0.0
2019/01/15 09:35:28.000   4280224.9025  -4034417.9139  -2458271.0700   5   6   5.1433   4.0111   6.0334  -3.8143   3.4096  -4.0717   0.00    0.0
2019/01/15 09:35:29.000   4280225.8110  -4034425.9761  -2458286.3524   5   6   5.1432   4.0109   6.0317  -3.8141   3.4085  -4.0703   0.00    0.0
2019/01/15 09:35:32.000   4280220.3838  -4034412.9418  -2458283.8044   5   6   5.1429   4.0102   6.0267  -3.8135   3.4054  -4.0661   0.00    0.0
2019/01/15 09:35:33.000   4280221.6847  -4034425.8737  -2458264.1138   5   6   5.1428   4.0100   6.0251  -3.8133   3.4043  -4.0647   0.00    0.0
2019/01/15 09:35:34.000   4280230.7077  -4034430.5298  -2458279.8889   5   6   5.1427   4.0098   6.0234  -3.8131   3.4033  -4.0633   0.00    0.0
2019/01/15 09:35:35.000   4280232.0621  -4034428.7148  -2458265.3446   5   6   5.1426   4.0095   6.0218  -3.8129   3.4022  -4.0618   0.00    0.0
2019/01/15 09:35:36.000   4280206.4281  -4034403.1169  -2458254.3074   5   6   5.1425   4.0093   6.0201  -3.8127   3.4012  -4.0605   0.00    0.0
2019/01/15 09:35:37.000   4280219.4640  -4034398.5651  -2458252.5307   5   6   5.1424   4.0091   6.0184  -3.8125   3.4001  -4.0590   0.00    0.0
2019/01/15 09:35:38.000   4280199.6559  -4034389.9856  -2458242.1440   5   6   5.1424   4.0089   6.0168  -3.8123   3.3991  -4.0576   0.00    0.0
2019/01/15 09:35:39.000   4280216.7586  -4034404.0183  -2458245.5862   5   6   5.1423   4.0087   6.0151  -3.8121   3.3980  -4.0562   0.00    0.0
2019/01/15 09:35:40.000   4280222.7854  -4034404.8476  -2458253.8737   5   6   5.1422   4.0085   6.0134  -3.8119   3.3970  -4.0548   0.00    0.0
2019/01/15 09:35:45.000   4280214.6016  -4034396.2969  -2458240.7843   5   6   5.1418   4.0074   6.0052  -3.8110   3.3918  -4.0478   0.00    0.0
2019/01/15 09:35:46.000   4280205.0916  -4034399.0245  -2458249.3157   5   6   5.1417   4.0072   6.0035  -3.8108   3.3907  -4.0464   0.00    0.0
2019/01/15 09:35:47.000   4280224.1830  -4034410.7128  -2458255.4023   5   6   5.1416   4.0069   6.0018  -3.8106   3.3897  -4.0450   0.00    0.0
2019/01/15 09:35:48.000   4280211.9696  -4034407.5021  -2458264.2317   5   6   5.1415   4.0067   6.0002  -3.8104   3.3887  -4.0436   0.00    0.0
2019/01/15 09:35:49.000   4280210.5265  -4034397.6829  -2458252.8927   5   6   5.1414   4.0065   5.9985  -3.8103   3.3876  -4.0422   0.00    0.0
2019/01/15 09:35:50.000   4280231.0409  -4034419.0141  -2458258.2515   5   6   5.1413   4.0063   5.9969  -3.8101   3.3866  -4.0408   0.00    0.0
2019/01/15 09:35:51.000   4280228.9161  -4034417.1082  -2458268.7610   5   6   5.1413   4.0061   5.9952  -3.8099   3.3855  -4.0394   0.00    0.0
2019/01/15 09:35:52.000   4280219.9508  -4034415.5085  -2458265.8952   5   6   5.1412   4.0059   5.9936  -3.8097   3.3845  -4.0380   0.00    0.0
2019/01/15 09:35:53.000   4280203.2365  -4034402.3294  -2458268.7471   5   6   5.1411   4.0057   5.9919  -3.8095   3.3835  -4.0367   0.00    0.0
2019/01/15 09:35:54.000   4280211.6763  -4034414.0157  -2458282.1756   5   6   5.1410   4.0055   5.9903  -3.8093   3.3825  -4.0353   0.00    0.0
2019/01/15 09:35:56.000   4280246.0799  -4034439.8197  -2458291.7863   5   6   5.1409   4.0050   5.9870  -3.8090   3.3804  -4.0325   0.00    0.0
2019/01/15 09:35:57.000   4280223.7247  -4034414.4126  -2458271.6282   5   6   5.1408   4.0048   5.9853  -3.8088   3.3793  -4.0311   0.00    0.0
2019/01/15 09:35:58.000   4280208.0515  -4034403.0565  -2458270.4670   5   6   5.1408   4.0046   5.9837  -3.8086   3.3783  -4.0297   0.00    0.0
2019/01/15 09:35:59.000   4280221.0246  -4034419.6594  -2458281.6562   5   6   5.1407   4.0044   5.9820  -3.8084   3.3773  -4.0283   0.00    0.0
2019/01/15 09:36:00.000   4280230.0284  -4034421.4777  -2458278.7175   5   6   5.1406   4.0042   5.9804  -3.8083   3.3763  -4.0269   0.00    0.0
2019/01/15 09:36:01.000   4280227.8393  -4034419.9851  -2458279.5666   5   6   5.1405   4.0040   5.9787  -3.8081   3.3752  -4.0255   0.00    0.0
2019/01/15 09:36:04.000   4280208.7476  -4034400.3324  -2458252.6042   5   6   5.1403   4.0034   5.9738  -3.8076   3.3721  -4.0214   0.00    0.0
2019/01/15 09:36:05.000   4280212.8524  -4034411.7643  -2458250.5566   5   6   5.1403   4.0032   5.9721  -3.8074   3.3711  -4.0200   0.00    0.0
2019/01/15 09:36:07.000   4280213.0620  -4034393.5114  -2458267.6074   5   6   5.1401   4.0028   5.9688  -3.8071   3.3691  -4.0172   0.00    0.0
2019/01/15 09:36:09.000   4280211.0992  -4034399.4595  -2458282.9647   5   6   5.1400   4.0024   5.9656  -3.8067   3.3670  -4.0144   0.00    0.0
2019/01/15 09:36:10.000   4280202.0026  -4034396.1916  -2458254.6976   5   6   5.1400   4.0022   5.9639  -3.8066   3.3660  -4.0131   0.00    0.0
2019/01/15 09:36:11.000   4280210.6531  -4034402.6634  -2458266.6749   5   6   5.1399   4.0020   5.9623  -3.8064   3.3650  -4.0117   0.00    0.0
2019/01/15 09:36:14.000   4280208.8224  -4034398.3789  -2458260.2252   5   6   5.1397   4.0014   5.9574  -3.8059   3.3619  -4.0075   0.00    0.0
2019/01/15 09:36:15.000   4280220.8067  -4034409.5141  -2458260.8680   5   6   5.1397   4.0012   5.9557  -3.8057   3.3609  -4.0061   0.00    0.0
2019/01/15 09:36:16.000   4280201.4996  -4034402.4928  -2458266.5189   5   6   5.1396   4.0010   5.9541  -3.8055   3.3599  -4.0048   0.00    0.0
2019/01/15 09:36:20.000   4280206.7661  -4034392.7888  -2458250.5563   5   6   5.1394   4.0002   5.9475  -3.8049   3.3558  -3.9993   0.00    0.0
2019/01/15 09:36:22.000   4280200.7366  -4034389.6756  -2458274.8642   5   6   5.1393   3.9998   5.9443  -3.8046   3.3538  -3.9965   0.00    0.0
2019/01/15 09:36:26.000   4280210.1703  -4034387.5202  -2458268.2440   5   6   5.1391   3.9990   5.9377  -3.8039   3.3497  -3.9910   0.00    0.0
2019/01/15 09:36:27.000   4280226.3676  -4034390.0889  -2458262.1731   5   6   5.1390   3.9988   5.9361  -3.8038   3.3487  -3.9897   0.00    0.0
2019/01/15 09:36:28.000   4280216.0023  -4034399.2307  -2458254.8253   5   6   5.1390   3.9986   5.9345  -3.8036   3.3477  -3.9883   0.00    0.0
2019/01/15 09:36:29.000   4280201.1481  -4034391.6551  -2458252.5944   5   6   5.1389   3.9985   5.9328  -3.8035   3.3467  -3.9869   0.00    0.0
2019/01/15 09:36:31.000   4280232.0146  -4034417.2081  -2458292.0575   5   6   5.1388   3.9981   5.9296  -3.8031   3.3447  -3.9842   0.00    0.0
2019/01/15 09:36:32.000   4280225.6055  -4034410.3973  -2458282.8374   5   6   5.1388   3.9979   5.9279  -3.8030   3.3437  -3.9828   0.00    0.0
2019/01/15 09:36:33.000   4280219.4439  -4034426.4668  -2458290.8829   5   6   5.1388   3.9977   5.9263  -3.8028   3.3427  -3.9814   0.00    0.0
2019/01/15 09:36:34.000   4280213.3445  -4034414.0802  -2458280.6975   5   6   5.1387   3.9975   5.9247  -3.8027   3.3417  -3.9801   0.00    0.0
2019/01/15 09:36:35.000   4280221.9560  -4034411.5599  -2458270.5812   5   6   5.1387   3.9973   5.9231  -3.8025   3.3407  -3.9787   0.00    0.0
2019/01/15 09:36:37.000   4280230.1694  -4034429.2770  -2458276.2780   5   6   5.1386   3.9969   5.9198  -3.8022   3.3387  -3.9760   0.00    0.0
2019/01/15 09:36:38.000   4280226.1682  -4034424.6729  -2458270.8725   5   6   5.1386   3.9967   5.9182  -3.8021   3.3377  -3.9746   0.00    0.0
2019/01/15 09:36:39.000   4280209.3316  -4034418.4534  -2458265.5481   5   6   5.1385   3.9966   5.9166  -3.8019   3.3367  -3.9733   0.00    0.0
2019/01/15 09:36:40.000   4280219.2944  -4034423.1197  -2458268.4289   5   6   5.1385   3.9964   5.9149  -3.8018   3.3356  -3.9719   0.00    0.0
2019/01/15 09:36:42.000   4280211.5677  -4034414.7910  -2458277.9861   5   6   5.1384   3.9960   5.9117  -3.8015   3.3337  -3.9692   0.00    0.0
2019/01/15 09:36:43.000   4280225.4091  -4034417.3639  -2458258.2909   5   6   5.1384   3.9958   5.9101  -3.8013   3.3326  -3.9678   0.00    0.0
2019/01/15 09:36:44.000   4280220.5403  -4034423.1827  -2458277.8212   5   6   5.1383   3.9956   5.9085  -3.8012   3.3317  -3.9664   0.00    0.0
2019/01/15 09:36:45.000   4280229.6036  -4034430.4351  -2458286.0712   5   6   5.1383   3.9954   5.9068  -3.8011   3.3307  -3.9651   0.00    0.0
2019/01/15 09:36:46.000   4280236.7780  -4034428.8268  -2458275.1242   5   6   5.1383   3.9953   5.9052  -3.8009   3.3297  -3.9637   0.00    0.0
2019/01/15 09:36:47.000   4280227.3630  -4034419.9914  -2458246.2458   5   6   5.1383   3.9951   5.9036  -3.8008   3.3287  -3.9624   0.00    0.0
2019/01/15 09:36:49.000   4280251.3205  -4034434.7619  -2458271.3707   5   6   5.1382   3.9947   5.9004  -3.8005   3.3267  -3.9597   0.00    0.0
2019/01/15 09:36:50.000   4280237.7025  -4034427.9061  -2458268.6297   5   6   5.1382   3.9945   5.8987  -3.8003   3.3257  -3.9583   0.00    0.0
2019/01/15 09:36:52.000   4280237.8394  -4034431.8425  -2458273.5382   5   6   5.1381   3.9942   5.8955  -3.8001   3.3237  -3.9556   0.00    0.0
2019/01/15 09:36:53.000   4280219.4425  -4034418.7846  -2458258.7918   5   6   5.1381   3.9940   5.8939  -3.7999   3.3227  -3.9543   0.00    0.0
2019/01/15 09:36:57.000   4280241.4169  -4034438.8829  -2458257.6312   5   6   5.1380   3.9933   5.8874  -3.7994   3.3187  -3.9488   0.00    0.0
2019/01/15 09:37:00.000   4280238.4958  -4034425.2239  -2458252.6510   5   6   5.1379   3.9927   5.8826  -3.7990   3.3158  -3.9448   0.00    0.0
2019/01/15 09:37:02.000   4280237.2226  -4034423.6367  -2458260.7132   5   6   5.1379   3.9924   5.8794  -3.7987   3.3138  -3.9421   0.00    0.0
2019/01/15 09:37:03.000   4280228.6145  -4034418.7001  -2458252.4220   5   6   5.1379   3.9922   5.8778  -3.7986   3.3128  -3.9408   0.00    0.0
2019/01/15 09:37:05.000   4280228.4326  -4034426.1511  -2458265.9380   5   6   5.1378   3.9919   5.8746  -3.7983   3.3109  -3.9381   0.00    0.0
2019/01/15 09:37:06.000   4280232.0779  -4034431.2174  -2458266.7234   5   6   5.1378   3.9917   5.8730  -3.7982   3.3099  -3.9367   0.00    0.0
2019/01/15 09:37:07.000   4280220.9469  -4034423.9254  -2458279.9372   5   6   5.1378   3.9915   5.8714  -3.7980   3.3089  -3.9354   0.00    0.0
2019/01/15 09:37:08.000   4280227.2278  -4034422.1106  -2458288.9602   5   6   5.1378   3.9913   5.8698  -3.7979   3.3079  -3.9340   0.00    0.0
2019/01/15 09:37:11.000   4280222.6295  -4034412.3106  -2458269.1739   5   6   5.1378   3.9908   5.8649  -3.7975   3.3050  -3.9300   0.00    0.0
2019/01/15 09:37:12.000   4280226.0312  -4034425.5544  -2458278.1181   5   6   5.1377   3.9906   5.8633  -3.7974   3.3040  -3.9287   0.00    0.0
2019/01/15 09:37:13.000   4280246.3337  -4034441.1421  -2458275.3868   5   6   5.1377   3.9905   5.8617  -3.7973   3.3030  -3.9273   0.00    0.0
2019/01/15 09:37:15.000   4280236.3448  -4034437.6049  -2458295.8152   5   6   5.1377   3.9901   5.8585  -3.7970   3.3011  -3.9247   0.00    0.0
2019/01/15 09:37:16.000   4280223.5712  -4034427.0921  -2458270.7215   5   6   5.1377   3.9900   5.8569  -3.7969   3.3001  -3.9233   0.00    0.0
2019/01/15 09:37:17.000   4280234.5221  -4034427.1925  -2458275.9139   5   6   5.1377   3.9898   5.8553  -3.7968   3.2991  -3.9220   0.00    0.0
2019/01/15 09:37:18.000   4280226.0519  -4034427.0142  -2458277.6258   5   6   5.1377   3.9896   5.8537  -3.7967   3.2982  -3.9207   0.00    0.0
2019/01/15 09:37:19.000   4280216.8105  -4034413.0152  -2458263.1591   5   6   5.1377   3.9895   5.8521  -3.7966   3.2972  -3.9193   0.00    0.0
2019/01/15 09:37:20.000   4280218.6565  -4034415.0625  -2458254.2180   5   6   5.1377   3.9893   5.8505  -3.7964   3.2962  -3.9180   0.00    0.0
2019/01/15 09:37:21.000   4280213.5160  -4034419.8266  -2458250.8358   5   6   5.1377   3.9891   5.8490  -3.7963   3.2952  -3.9167   0.00    0.0
2019/01/15 09:37:22.000   4280223.4804  -4034422.8165  -2458268.0578   5   6   5.1377   3.9890   5.8474  -3.7962   3.2943  -3.9153   0.00    0.0
2019/01/15 09:37:23.000   4280229.4593  -4034428.6928  -2458271.1315   5   6   5.1377   3.9888   5.8458  -3.7961   3.2933  -3.9140   0.00    0.0
2019/01/15 09:37:24.000   4280219.8550  -4034433.7360  -2458263.7325   5   6   5.1377   3.9886   5.8442  -3.7959   3.2923  -3.9127   0.00    0.0
2019/01/15 09:37:26.000   4280230.4423  -4034429.9775  -2458274.3309   5   6   5.1377   3.9883   5.8410  -3.7957   3.2904  -3.9100   0.00    0.0
2019/01/15 09:37:28.000   4280229.8334  -4034432.1207  -2458292.8151   5   6   5.1377   3.9880   5.8378  -3.7955   3.2885  -3.9073   0.00    0.0
2019/01/15 09:37:29.000   4280228.1738  -4034419.7151  -2458276.0476   5   6   5.1377   3.9878   5.8362  -3.7954   3.2875  -3.9060   0.00    0.0
2019/01/15 09:37:30.000   4280213.3161  -4034416.5808  -2458266.2290   5   6   5.1377   3.9876   5.8346  -3.7953   3.2865  -3.9047   0.00    0.0
2019/01/15 09:37:31.000   4280227.5342  -4034424.3971  -2458272.9014   5   6   5.1377   3.9875   5.8330  -3.7951   3.2856  -3.9034   0.00    0.0
2019/01/15 09:37:32.000   4280238.1414  -4034429.0370  -2458272.0593   5   6   5.1377   3.9873   5.8314  -3.7950   3.2846  -3.9020   0.00    0.0
2019/01/15 09:37:33.000   4280226.2591  -4034428.6729  -2458274.8033   5   6   5.1377   3.9872   5.8298  -3.7949   3.2836  -3.9007   0.00    0.0
2019/01/15 09:37:35.000   4280229.2336  -4034417.4218  -2458275.3522   5   6   5.1377   3.9868   5.8267  -3.7947   3.2817  -3.8981   0.00    0.0
2019/01/15 09:37:36.000   4280227.9493  -4034419.3415  -2458266.2762   5   6   5.1377   3.9867   5.8251  -3.7946   3.2808  -3.8967   0.00    0.0
2019/01/15 09:37:37.000   4280217.7440  -4034420.5985  -2458263.1254   5   6   5.1378   3.9865   5.8235  -3.7945   3.2798  -3.8954   0.00    0.0
2019/01/15 09:37:38.000   4280222.3357  -4034425.7482  -2458272.9864   5   6   5.1378   3.9864   5.8219  -3.7944   3.2788  -3.8941   0.00    0.0
2019/01/15 09:37:40.000   4280214.2827  -4034406.4424  -2458255.4720   5   6   5.1378   3.9860   5.8187  -3.7942   3.2769  -3.8915   0.00    0.0
2019/01/15 09:37:41.000   4280224.2524  -4034415.2365  -2458272.3656   5   6   5.1378   3.9859   5.8171  -3.7941   3.2760  -3.8901   0.00    0.0
2019/01/15 09:37:42.000   4280227.6398  -4034418.3054  -2458269.7166   5   6   5.1378   3.9857   5.8156  -3.7940   3.2750  -3.8888   0.00    0.0
2019/01/15 09:37:43.000   4280221.0436  -4034414.3076  -2458258.7234   5   6   5.1378   3.9856   5.8140  -3.7939   3.2741  -3.8875   0.00    0.0
2019/01/15 09:37:44.000   4280228.3417  -4034415.3740  -2458261.5607   5   6   5.1379   3.9854   5.8124  -3.7937   3.2731  -3.8862   0.00    0.0
2019/01/15 09:37:45.000   4280236.6183  -4034421.2232  -2458281.1212   5   6   5.1379   3.9853   5.8108  -3.7936   3.2722  -3.8849   0.00    0.0
2019/01/15 09:37:46.000   4280214.2335  -4034410.3872  -2458265.7521   5   6   5.1379   3.9851   5.8092  -3.7935   3.2712  -3.8836   0.00    0.0
2019/01/15 09:37:47.000   4280214.2696  -4034414.4457  -2458259.3634   5   6   5.1379   3.9850   5.8077  -3.7934   3.2702  -3.8823   0.00    0.0
2019/01/15 09:37:48.000   4280212.8111  -4034399.2015  -2458248.3677   5   6   5.1379   3.9848   5.8061  -3.7933   3.2693  -3.8809   0.00    0.0
2019/01/15 09:37:49.000   4280208.1998  -4034396.7174  -2458236.8516   5   6   5.1380   3.9846   5.8045  -3.7932   3.2683  -3.8796   0.00    0.0
2019/01/15 09:37:50.000   4280219.0054  -4034403.4985  -2458231.1397   5   6   5.1380   3.9845   5.8029  -3.7931   3.2674  -3.8783   0.00    0.0
2019/01/15 09:37:52.000   4280227.8160  -4034417.2982  -2458250.7254   5   6   5.1380   3.9842   5.7998  -3.7929   3.2655  -3.8757   0.00    0.0
2019/01/15 09:37:54.000   4280218.5016  -4034405.5590  -2458239.3715   5   6   5.1381   3.9839   5.7966  -3.7927   3.2636  -3.8731   0.00    0.0
2019/01/15 09:37:55.000   4280226.4597  -4034416.4093  -2458247.2087   5   6   5.1381   3.9837   5.7950  -3.7926   3.2627  -3.8718   0.00    0.0
2019/01/15 09:37:57.000   4280223.7995  -4034428.8841  -2458260.5189   5   6   5.1381   3.9834   5.7919  -3.7925   3.2608  -3.8691   0.00    0.0
2019/01/15 09:37:58.000   4280206.7329  -4034414.2246  -2458266.5095   5   6   5.1382   3.9833   5.7903  -3.7924   3.2598  -3.8678   0.00    0.0
2019/01/15 09:38:00.000   4280220.0516  -4034427.1290  -2458267.9243   5   6   5.1382   3.9830   5.7872  -3.7922   3.2579  -3.8652   0.00    0.0
2019/01/15 09:38:01.000   4280215.4198  -4034420.7917  -2458268.5106   5   6   5.1382   3.9828   5.7856  -3.7921   3.2570  -3.8639   0.00    0.0
2019/01/15 09:38:02.000   4280225.3793  -4034430.1161  -2458273.1735   5   6   5.1383   3.9827   5.7840  -3.7920   3.2560  -3.8626   0.00    0.0
2019/01/15 09:38:03.000   4280235.9716  -4034422.6360  -2458278.7085   5   6   5.1383   3.9825   5.7825  -3.7919   3.2551  -3.8613   0.00    0.0
2019/01/15 09:38:04.000   4280219.0973  -4034425.4597  -2458272.0057   5   6   5.1383   3.9824   5.7809  -3.7918   3.2542  -3.8600   0.00    0.0
2019/01/15 09:38:05.000   4280215.6836  -4034414.7493  -2458275.5852   5   6   5.1384   3.9823   5.7793  -3.7917   3.2532  -3.8587   0.00    0.0
2019/01/15 09:38:06.000   4280217.0617  -4034418.5288  -2458262.6711   5   6   5.1384   3.9821   5.7778  -3.7916   3.2523  -3.8574   0.00    0.0
2019/01/15 09:38:07.000   4280219.1006  -4034419.9734  -2458264.0744   5   6   5.1384   3.9820   5.7762  -3.7915   3.2514  -3.8561   0.00    0.0
2019/01/15 09:38:08.000   4280221.0670  -4034417.3193  -2458280.8875   5   6   5.1385   3.9818   5.7746  -3.7915   3.2504  -3.8548   0.00    0.0
2019/01/15 09:38:09.000   4280230.3961  -4034430.3151  -2458296.1170   5   6   5.1385   3.9817   5.7731  -3.7914   3.2495  -3.8535   0.00    0.0
2019/01/15 09:38:10.000   4280213.9787  -4034411.3318  -2458276.4709   5   6   5.1386   3.9815   5.7715  -3.7913   3.2486  -3.8522   0.00    0.0
2019/01/15 09:38:11.000   4280232.1689  -4034431.6608  -2458285.8873   5   6   5.1386   3.9814   5.7699  -3.7912   3.2476  -3.8509   0.00    0.0
2019/01/15 09:38:12.000   4280230.5185  -4034426.0068  -2458288.0618   5   6   5.1386   3.9812   5.7684  -3.7911   3.2467  -3.8496   0.00    0.0
2019/01/15 09:38:13.000   4280226.3152  -4034433.8457  -2458269.8330   5   6   5.1387   3.9811   5.7668  -3.7910   3.2457  -3.8483   0.00    0.0
2019/01/15 09:38:14.000   4280226.4046  -4034426.6725  -2458279.4515   5   6   5.1387   3.9810   5.7653  -3.7909   3.2448  -3.8470   0.00    0.0
2019/01/15 09:38:15.000   4280218.8319  -4034418.7054  -2458278.4968   5   6   5.1387   3.9808   5.7637  -3.7909   3.2439  -3.8457   0.00    0.0
2019/01/15 09:38:16.000   4280235.3642  -4034429.5967  -2458269.4929   5   6   5.1388   3.9807   5.7621  -3.7908   3.2429  -3.8444   0.00    0.0
2019/01/15 09:38:17.000   4280224.6859  -4034422.4281  -2458278.6123   5   6   5.1388   3.9805   5.7606  -3.7907   3.2420  -3.8431   0.00    0.0
2019/01/15 09:38:18.000   4280214.4870  -4034409.3335  -2458270.8548   5   6   5.1389   3.9804   5.7590  -3.7906   3.2411  -3.8418   0.00    0.0
2019/01/15 09:38:19.000   4280230.0315  -4034426.3216  -2458261.1281   5   6   5.1389   3.9802   5.7575  -3.7905   3.2402  -3.8405   0.00    0.0
2019/01/15 09:38:20.000   4280228.0502  -4034421.0027  -2458263.3180   5   6   5.1390   3.9801   5.7559  -3.7905   3.2392  -3.8393   0.00    0.0
2019/01/15 09:38:21.000   4280205.4354  -4034407.3737  -2458257.8821   5   6   5.1390   3.9800   5.7543  -3.7904   3.2383  -3.8380   0.00    0.0
2019/01/15 09:38:22.000   4280238.2832  -4034419.0113  -2458281.7610   5   6   5.1391   3.9798   5.7528  -3.7903   3.2374  -3.8367   0.00    0.0
2019/01/15 09:38:23.000   4280224.6208  -4034416.5583  -2458278.6559   5   6   5.1391   3.9797   5.7512  -3.7902   3.2364  -3.8354   0.00    0.0
2019/01/15 09:38:24.000   4280220.3278  -4034417.3873  -2458275.1464   5   6   5.1392   3.9796   5.7497  -3.7901   3.2355  -3.8341   0.00    0.0
2019/01/15 09:38:25.000   4280222.1118  -4034416.0519  -2458277.3979   5   6   5.1392   3.9794   5.7481  -3.7901   3.2346  -3.8328   0.00    0.0
2019/01/15 09:38:26.000   4280212.3411  -4034415.6644  -2458266.4129   5   6   5.1393   3.9793   5.7466  -3.7900   3.2337  -3.8315   0.00    0.0
2019/01/15 09:38:27.000   4280217.2456  -4034414.7646  -2458265.0453   5   6   5.1393   3.9791   5.7450  -3.7899   3.2328  -3.8302   0.00    0.0
2019/01/15 09:38:28.000   4280231.0998  -4034424.8307  -2458270.2066   5   6   5.1393   3.9790   5.7435  -3.7898   3.2318  -3.8290   0.00    0.0
2019/01/15 09:38:29.000   4280226.9273  -4034430.6979  -2458278.4361   5   6   5.1394   3.9789   5.7419  -3.7898   3.2309  -3.8277   0.00    0.0
2019/01/15 09:38:30.000   4280232.6002  -4034425.7686  -2458279.8764   5   6   5.1395   3.9787   5.7403  -3.7897   3.2300  -3.8264   0.00    0.0
2019/01/15 09:38:31.000   4280221.3227  -4034417.3679  -2458268.9998   5   6   5.1395   3.9786   5.7388  -3.7896   3.2291  -3.8251   0.00    0.0
2019/01/15 09:38:32.000   4280229.5761  -4034414.9229  -2458269.7969   5   6   5.1396   3.9785   5.7372  -3.7896   3.2281  -3.8238   0.00    0.0
2019/01/15 09:38:33.000   4280208.9219  -4034410.1723  -2458264.0189   5   6   5.1396   3.9783   5.7357  -3.7895   3.2272  -3.8225   0.00    0.0
2019/01/15 09:38:34.000   4280226.2270  -4034422.5562  -2458268.8110   5   6   5.1397   3.9782   5.7342  -3.7894   3.2263  -3.8213   0.00    0.0
2019/01/15 09:38:36.000   4280222.6983  -4034419.5493  -2458264.7379   5   6   5.1398   3.9779   5.7311  -3.7893   3.2245  -3.8187   0.00    0.0
2019/01/15 09:38:37.000   4280212.4607  -4034415.7231  -2458261.2818   5   6   5.1399   3.9778   5.7295  -3.7892   3.2236  -3.8174   0.00    0.0
2019/01/15 09:38:38.000   4280209.5828  -4034401.1241  -2458265.0838   5   6   5.1399   3.9777   5.7280  -3.7891   3.2226  -3.8161   0.00    0.0
2019/01/15 09:38:39.000   4280212.2044  -4034413.8517  -2458279.8371   5   6   5.1400   3.9776   5.7264  -3.7891   3.2217  -3.8149   0.00    0.0
2019/01/15 09:38:40.000   4280212.9518  -4034411.1846  -2458265.3919   5   6   5.1400   3.9774   5.7249  -3.7890   3.2208  -3.8136   0.00    0.0
2019/01/15 09:38:41.000   4280204.4625  -4034398.2720  -2458259.5379   5   6   5.1401   3.9773   5.7233  -3.7889   3.2199  -3.8123   0.00    0.0
2019/01/15 09:38:42.000   4280203.6803  -4034401.6101  -2458263.1387   5   6   5.1402   3.9772   5.7218  -3.7889   3.2190  -3.8110   0.00    0.0
2019/01/15 09:38:43.000   4280219.3920  -4034411.4354  -2458277.3730   5   6   5.1402   3.9770   5.7202  -3.7888   3.2181  -3.8098   0.00    0.0
2019/01/15 09:38:44.000   4280207.9195  -4034402.9966  -2458262.4383   5   6   5.1403   3.9769   5.7187  -3.7887   3.2172  -3.8085   0.00    0.0
2019/01/15 09:38:45.000   4280224.1673  -4034414.2641  -2458278.8744   5   6   5.1403   3.9768   5.7172  -3.7887   3.2163  -3.8072   0.00    0.0
2019/01/15 09:38:46.000   4280230.2223  -4034421.8541  -2458278.8204   5   6   5.1404   3.9766   5.7156  -3.7886   3.2153  -3.8059   0.00    0.0
2019/01/15 09:38:47.000   4280223.7088  -4034426.7983  -2458281.7660   5   6   5.1405   3.9765   5.7141  -3.7886   3.2144  -3.8047   0.00    0.0
2019/01/15 09:38:48.000   4280220.9902  -4034418.2065  -2458271.7321   5   6   5.1405   3.9764   5.7125  -3.7885   3.2135  -3.8034   0.00    0.0
2019/01/15 09:38:49.000   4280234.2877  -4034424.9465  -2458276.2954   5   6   5.1406   3.9763   5.7110  -3.7884   3.2126  -3.8021   0.00    0.0
2019/01/15 09:38:50.000   4280230.1639  -4034425.2078  -2458276.4026   5   6   5.1407   3.9761   5.7095  -3.7884   3.2117  -3.8008   0.00    0.0
2019/01/15 09:38:51.000   4280210.4694  -4034410.1224  -2458259.4995   5   6   5.1408   3.9760   5.7079  -3.7883   3.2108  -3.7996   0.00    0.0
2019/01/15 09:38:53.000   4280216.3751  -4034414.8849  -2458271.4132   5   6   5.1409   3.9758   5.7049  -3.7882   3.2090  -3.7970   0.00    0.0
2019/01/15 09:38:54.000   4280215.8164  -4034417.4780  -2458272.8961   5   6   5.1410   3.9756   5.7033  -3.7881   3.2081  -3.7958   0.00    0.0
2019/01/15 09:38:55.000   4280224.3714  -4034420.5289  -2458257.9473   5   6   5.1410   3.9755   5.7018  -3.7881   3.2072  -3.7945   0.00    0.0
2019/01/15 09:38:56.000   4280217.1346  -4034422.9628  -2458262.9448   5   6   5.1411   3.9754   5.7002  -3.7880   3.2063  -3.7932   0.00    0.0
2019/01/15 09:38:57.000   4280220.5700  -4034413.0490  -2458284.3689   5   6   5.1412   3.9753   5.6987  -3.7880   3.2054  -3.7920   0.00    0.0
2019/01/15 09:38:58.000   4280222.7200  -4034421.3359  -2458275.2399   5   6   5.1413   3.9752   5.6972  -3.7879   3.2045  -3.7907   0.00    0.0
2019/01/15 09:38:59.000   4280227.0894  -4034421.6640  -2458270.2878   5   6   5.1413   3.9750   5.6956  -3.7879   3.2036  -3.7894   0.00    0.0
2019/01/15 09:39:00.000   4280230.6907  -4034424.1164  -2458259.3190   5   6   5.1414   3.9749   5.6941  -3.7878   3.2027  -3.7882   0.00    0.0
2019/01/15 09:39:02.000   4280221.3629  -4034414.7347  -2458271.4191   5   6   5.1416   3.9747   5.6911  -3.7877   3.2009  -3.7857   0.00    0.0
2019/01/15 09:39:03.000   4280223.9620  -4034410.7476  -2458263.0517   5   6   5.1417   3.9746   5.6895  -3.7877   3.2000  -3.7844   0.00    0.0
2019/01/15 09:39:04.000   4280232.8056  -4034425.4528  -2458271.4304   5   6   5.1417   3.9744   5.6880  -3.7876   3.1991  -3.7831   0.00    0.0
2019/01/15 09:39:05.000   4280220.4674  -4034426.1756  -2458258.4284   5   6   5.1418   3.9743   5.6865  -3.7876   3.1982  -3.7819   0.00    0.0
2019/01/15 09:39:06.000   4280233.8764  -4034427.5187  -2458263.6253   5   6   5.1419   3.9742   5.6849  -3.7875   3.1973  -3.7806   0.00    0.0
2019/01/15 09:39:07.000   4280220.5978  -4034406.3197  -2458252.7204   5   6   5.1420   3.9741   5.6834  -3.7875   3.1964  -3.7794   0.00    0.0
2019/01/15 09:39:08.000   4280228.5066  -4034417.4204  -2458261.3264   5   6   5.1421   3.9740   5.6819  -3.7874   3.1955  -3.7781   0.00    0.0
2019/01/15 09:39:09.000   4280221.2162  -4034416.3286  -2458265.5551   5   6   5.1421   3.9738   5.6804  -3.7874   3.1946  -3.7768   0.00    0.0
2019/01/15 09:39:11.000   4280210.0316  -4034400.4409  -2458243.9248   5   6   5.1423   3.9736   5.6773  -3.7873   3.1928  -3.7743   0.00    0.0
2019/01/15 09:39:12.000   4280229.3652  -4034417.9898  -2458266.1214   5   6   5.1424   3.9735   5.6758  -3.7872   3.1919  -3.7731   0.00    0.0
2019/01/15 09:39:13.000   4280217.5312  -4034401.4662  -2458253.6296   5   6   5.1425   3.9734   5.6743  -3.7872   3.1910  -3.7718   0.00    0.0
2019/01/15 09:39:14.000   4280237.5981  -4034413.6677  -2458258.9900   5   6   5.1426   3.9733   5.6727  -3.7871   3.1901  -3.7706   0.00    0.0
2019/01/15 09:39:15.000   4280208.0257  -4034401.8419  -2458239.8030   5   6   5.1427   3.9731   5.6712  -3.7871   3.1893  -3.7693   0.00    0.0
2019/01/15 09:39:16.000   4280219.9906  -4034408.4226  -2458255.9687   5   6   5.1427   3.9730   5.6697  -3.7870   3.1884  -3.7681   0.00    0.0
2019/01/15 09:39:18.000   4280206.9323  -4034401.0773  -2458267.5812   5   6   5.1429   3.9728   5.6667  -3.7870   3.1866  -3.7656   0.00    0.0
2019/01/15 09:39:19.000   4280202.0513  -4034404.0197  -2458263.6838   5   6   5.1430   3.9727   5.6651  -3.7869   3.1857  -3.7643   0.00    0.0
2019/01/15 09:39:20.000   4280200.9850  -4034396.4728  -2458257.0227   5   6   5.1431   3.9726   5.6636  -3.7869   3.1848  -3.7631   0.00    0.0
2019/01/15 09:39:21.000   4280208.2657  -4034416.9436  -2458271.9174   5   6   5.1432   3.9725   5.6621  -3.7868   3.1839  -3.7618   0.00    0.0
2019/01/15 09:39:22.000   4280216.8110  -4034414.1217  -2458274.0960   5   6   5.1433   3.9724   5.6606  -3.7868   3.1831  -3.7606   0.00    0.0
2019/01/15 09:39:23.000   4280206.9558  -4034411.4233  -2458272.9342   5   6   5.1434   3.9722   5.6591  -3.7868   3.1822  -3.7593   0.00    0.0
2019/01/15 09:39:24.000   4280200.8942  -4034403.4475  -2458263.0349   5   6   5.1435   3.9721   5.6576  -3.7867   3.1813  -3.7581   0.00    0.0
2019/01/15 09:39:25.000   4280214.5714  -4034415.3763  -2458284.9660   5   6   5.1436   3.9720   5.6560  -3.7867   3.1804  -3.7568   0.00    0.0
2019/01/15 09:39:28.000   4280223.1191  -4034422.5112  -2458288.0572   5   6   5.1439   3.9717   5.6515  -3.7866   3.1778  -3.7531   0.00    0.0
2019/01/15 09:39:29.000   4280216.1694  -4034416.6857  -2458285.3644   5   6   5.1440   3.9716   5.6500  -3.7865   3.1769  -3.7519   0.00    0.0
2019/01/15 09:39:30.000   4280226.2351  -4034411.4772  -2458280.9399   5   6   5.1441   3.9715   5.6485  -3.7865   3.1760  -3.7506   0.00    0.0
2019/01/15 09:39:31.000   4280217.9046  -4034417.4874  -2458276.7969   5   6   5.1442   3.9714   5.6470  -3.7865   3.1751  -3.7494   0.00    0.0
2019/01/15 09:39:34.000   4280223.0412  -4034407.2679  -2458300.0441   5   6   5.1445   3.9711   5.6424  -3.7864   3.1725  -3.7457   0.00    0.0
2019/01/15 09:39:39.000   4280218.5700  -4034406.4723  -2458300.8843   5   6   5.1450   3.9705   5.6349  -3.7862   3.1681  -3.7395   0.00    0.0
2019/01/15 09:39:41.000   4280217.8781  -4034410.8738  -2458274.7100   5   6   5.1452   3.9703   5.6319  -3.7862   3.1664  -3.7370   0.00    0.0
2019/01/15 09:39:42.000   4280223.5164  -4034419.7685  -2458284.1611   5   6   5.1453   3.9702   5.6304  -3.7862   3.1655  -3.7358   0.00    0.0
2019/01/15 09:39:43.000   4280215.3851  -4034409.7892  -2458274.6469   5   6   5.1454   3.9701   5.6289  -3.7861   3.1646  -3.7345   0.00    0.0
2019/01/15 09:39:46.000   4280212.3522  -4034410.0311  -2458286.7445   5   6   5.1458   3.9698   5.6244  -3.7861   3.1620  -3.7308   0.00    0.0
2019/01/15 09:39:47.000   4280224.8769  -4034412.0729  -2458286.8119   5   6   5.1459   3.9697   5.6229  -3.7860   3.1612  -3.7296   0.00    0.0
2019/01/15 09:39:48.000   4280213.8871  -4034400.6243  -2458268.5492   5   6   5.1460   3.9696   5.6214  -3.7860   3.1603  -3.7284   0.00    0.0
2019/01/15 09:39:49.000   4280219.7060  -4034411.2682  -2458266.8874   5   6   5.1461   3.9695   5.6199  -3.7860   3.1594  -3.7272   0.00    0.0
2019/01/15 09:39:50.000   4280229.6545  -4034414.8953  -2458274.2167   5   6   5.1462   3.9694   5.6184  -3.7860   3.1586  -3.7259   0.00    0.0
2019/01/15 09:39:51.000   4280214.9975  -4034402.8214  -2458263.0772   5   6   5.1464   3.9693   5.6169  -3.7859   3.1577  -3.7247   0.00    0.0
2019/01/15 09:39:55.000   4280211.2282  -4034398.0832  -2458262.1134   5   6   5.1468   3.9689   5.6109  -3.7859   3.1543  -3.7198   0.00    0.0
2019/01/15 09:39:56.000   4280231.0583  -4034412.2858  -2458274.6560   5   6   5.1469   3.9688   5.6094  -3.7858   3.1534  -3.7186   0.00    0.0
2019/01/15 09:39:57.000   4280231.5665  -4034415.5612  -2458271.2124   5   6   5.1471   3.9687   5.6079  -3.7858   3.1525  -3.7174   0.00    0.0
2019/01/15 09:39:58.000   4280211.5989  -4034404.4614  -2458261.2808   5   6   5.1472   3.9686   5.6064  -3.7858   3.1517  -3.7161   0.00    0.0
2019/01/15 09:39:59.000   4280205.2055  -4034381.2564  -2458244.9926   5   6   5.1473   3.9685   5.6049  -3.7858   3.1508  -3.7149   0.00    0.0
2019/01/15 09:40:00.000   4280203.4138  -4034389.3533  -2458253.4825   5   6   5.1474   3.9684   5.6034  -3.7858   3.1500  -3.7137   0.00    0.0
2019/01/15 09:40:01.000   4280205.2104  -4034392.6331  -2458244.3558   5   6   5.1476   3.9684   5.6020  -3.7858   3.1491  -3.7125   0.00    0.0
2019/01/15 09:40:02.000   4280209.6558  -4034398.9725  -2458240.6821   5   6   5.1477   3.9683   5.6005  -3.7858   3.1483  -3.7113   0.00    0.0
2019/01/15 09:40:03.000   4280210.5228  -4034394.0738  -2458247.5848   5   6   5.1478   3.9682   5.5990  -3.7857   3.1474  -3.7100   0.00    0.0
2019/01/15 09:40:04.000   4280212.8450  -4034401.6245  -2458254.5443   5   6   5.1479   3.9681   5.5975  -3.7857   3.1465  -3.7088   0.00    0.0
2019/01/15 09:40:05.000   4280204.5810  -4034399.6065  -2458260.2571   5   6   5.1481   3.9680   5.5960  -3.7857   3.1457  -3.7076   0.00    0.0
2019/01/15 09:40:06.000   4280216.2404  -4034410.6004  -2458269.9693   5   6   5.1482   3.9679   5.5945  -3.7857   3.1448  -3.7064   0.00    0.0
2019/01/15 09:40:07.000   4280221.0226  -4034413.0350  -2458272.3917   5   6   5.1483   3.9678   5.5930  -3.7857   3.1440  -3.7052   0.00    0.0
2019/01/15 09:40:08.000   4280214.5145  -4034413.0268  -2458282.5112   5   6   5.1484   3.9677   5.5915  -3.7857   3.1431  -3.7040   0.00    0.0
2019/01/15 09:40:10.000   4280197.6073  -4034405.4648  -2458255.4558   5   6   5.1487   3.9675   5.5886  -3.7857   3.1414  -3.7015   0.00    0.0
2019/01/15 09:40:12.000   4280216.2821  -4034403.6825  -2458251.0868   5   6   5.1490   3.9673   5.5856  -3.7857   3.1397  -3.6991   0.00    0.0
2019/01/15 09:40:13.000   4280213.7073  -4034404.7194  -2458251.1020   5   6   5.1491   3.9672   5.5841  -3.7856   3.1389  -3.6979   0.00    0.0
2019/01/15 09:40:14.000   4280203.7569  -4034401.8267  -2458252.3159   5   6   5.1492   3.9672   5.5826  -3.7856   3.1380  -3.6967   0.00    0.0
2019/01/15 09:40:15.000   4280199.4577  -4034402.5184  -2458260.9195   5   6   5.1494   3.9671   5.5812  -3.7856   3.1372  -3.6955   0.00    0.0
2019/01/15 09:40:16.000   4280217.6037  -4034402.5892  -2458267.5210   5   6   5.1495   3.9670   5.5797  -3.7856   3.1363  -3.6943   0.00    0.0
2019/01/15 09:40:17.000   4280213.9432  -4034403.3507  -2458255.0064   5   6   5.1496   3.9669   5.5782  -3.7856   3.1355  -3.6931   0.00    0.0
2019/01/15 09:40:18.000   4280206.5501  -4034406.2763  -2458265.5929   5   6   5.1498   3.9668   5.5767  -3.7856   3.1347  -3.6918   0.00    0.0
2019/01/15 09:40:19.000   4280215.0171  -4034410.0397  -2458286.9339   5   6   5.1499   3.9667   5.5752  -3.7856   3.1338  -3.6906   0.00    0.0
2019/01/15 09:40:20.000   4280217.1560  -4034409.0411  -2458262.4259   5   6   5.1501   3.9666   5.5738  -3.7856   3.1330  -3.6894   0.00    0.0
2019/01/15 09:40:21.000   4280220.4994  -4034414.8529  -2458263.0133   5   6   5.1502   3.9665   5.5723  -3.7856   3.1321  -3.6882   0.00    0.0
2019/01/15 09:40:22.000   4280219.6347  -4034411.8251  -2458265.0575   5   6   5.1503   3.9665   5.5708  -3.7856   3.1313  -3.6870   0.00    0.0
2019/01/15 09:40:23.000   4280217.8527  -4034411.4572  -2458271.4525   5   6   5.1505   3.9664   5.5693  -3.7856   3.1304  -3.6858   0.00    0.0
2019/01/15 09:40:25.000   4280213.2458  -4034403.8577  -2458264.9100   5   6   5.1508   3.9662   5.5664  -3.7856   3.1288  -3.6834   0.00    0.0
2019/01/15 09:40:27.000   4280215.6847  -4034413.7246  -2458271.3380   5   6   5.1510   3.9660   5.5634  -3.7856   3.1271  -3.6810   0.00    0.0
2019/01/15 09:40:28.000   4280224.3884  -4034425.5763  -2458275.0108   5   6   5.1512   3.9660   5.5619  -3.7856   3.1262  -3.6798   0.00    0.0
2019/01/15 09:40:30.000   4280220.9313  -4034415.1900  -2458276.1721   5   6   5.1515   3.9658   5.5590  -3.7856   3.1246  -3.6774   0.00    0.0
2019/01/15 09:40:31.000   4280212.5858  -4034416.0870  -2458268.4918   5   6   5.1516   3.9657   5.5575  -3.7856   3.1237  -3.6762   0.00    0.0
2019/01/15 09:40:32.000   4280232.4311  -4034425.2833  -2458273.8469   5   6   5.1518   3.9656   5.5561  -3.7856   3.1229  -3.6750   0.00    0.0
2019/01/15 09:40:33.000   4280223.0728  -4034417.4639  -2458258.6718   5   6   5.1519   3.9655   5.5546  -3.7856   3.1221  -3.6738   0.00    0.0
2019/01/15 09:40:34.000   4280211.9060  -4034418.0454  -2458271.9416   5   6   5.1521   3.9655   5.5531  -3.7856   3.1212  -3.6726   0.00    0.0
2019/01/15 09:40:35.000   4280227.6834  -4034416.1581  -2458284.1888   5   6   5.1522   3.9654   5.5517  -3.7856   3.1204  -3.6714   0.00    0.0
2019/01/15 09:40:36.000   4280211.8883  -4034407.3393  -2458260.3469   5   6   5.1524   3.9653   5.5502  -3.7857   3.1196  -3.6702   0.00    0.0
2019/01/15 09:40:37.000   4280209.0985  -4034402.9701  -2458269.1844   5   6   5.1525   3.9652   5.5487  -3.7857   3.1187  -3.6690   0.00    0.0
2019/01/15 09:40:38.000   4280211.7152  -4034413.4153  -2458263.4466   5   6   5.1527   3.9651   5.5473  -3.7857   3.1179  -3.6678   0.00    0.0
2019/01/15 09:40:39.000   4280214.4206  -4034419.1197  -2458273.2182   5   6   5.1528   3.9651   5.5458  -3.7857   3.1171  -3.6666   0.00    0.0
2019/01/15 09:40:40.000   4280206.0548  -4034403.9590  -2458266.4673   5   6   5.1530   3.9650   5.5443  -3.7857   3.1162  -3.6655   0.00    0.0
2019/01/15 09:40:41.000   4280200.4006  -4034404.8999  -2458273.3513   5   6   5.1531   3.9649   5.5429  -3.7857   3.1154  -3.6643   0.00    0.0
2019/01/15 09:40:42.000   4280222.1092  -4034420.0582  -2458277.3263   5   6   5.1533   3.9648   5.5414  -3.7857   3.1146  -3.6631   0.00    0.0
2019/01/15 09:40:43.000   4280201.7239  -4034399.7787  -2458264.9899   5   6   5.1535   3.9648   5.5399  -3.7857   3.1138  -3.6619   0.00    0.0
2019/01/15 09:40:44.000   4280222.1922  -4034421.0449  -2458288.4764   5   6   5.1536   3.9647   5.5385  -3.7857   3.1129  -3.6607   0.00    0.0
2019/01/15 09:40:45.000   4280222.9694  -4034416.2701  -2458286.2432   5   6   5.1538   3.9646   5.5370  -3.7857   3.1121  -3.6595   0.00    0.0
2019/01/15 09:40:46.000   4280206.2719  -4034408.3780  -2458273.0669   5   6   5.1539   3.9645   5.5356  -3.7858   3.1113  -3.6583   0.00    0.0
2019/01/15 09:40:47.000   4280214.4666  -4034408.9219  -2458270.6113   5   6   5.1541   3.9645   5.5341  -3.7858   3.1104  -3.6571   0.00    0.0
2019/01/15 09:40:49.000   4280214.4294  -4034405.2169  -2458258.5080   5   6   5.1544   3.9643   5.5312  -3.7858   3.1088  -3.6548   0.00    0.0
2019/01/15 09:40:51.000   4280213.2954  -4034411.9132  -2458277.6869   5   6   5.1547   3.9642   5.5283  -3.7858   3.1072  -3.6524   0.00    0.0
2019/01/15 09:40:52.000   4280218.3603  -4034411.1190  -2458267.3254   5   6   5.1549   3.9641   5.5268  -3.7859   3.1063  -3.6512   0.00    0.0
2019/01/15 09:40:53.000   4280207.5034  -4034410.0934  -2458275.9969   5   6   5.1550   3.9640   5.5254  -3.7859   3.1055  -3.6500   0.00    0.0
2019/01/15 09:40:54.000   4280226.7369  -4034424.0629  -2458293.3716   5   6   5.1552   3.9639   5.5239  -3.7859   3.1047  -3.6488   0.00    0.0
2019/01/15 09:40:55.000   4280232.8004  -4034427.1975  -2458283.2149   5   6   5.1554   3.9639   5.5224  -3.7859   3.1039  -3.6476   0.00    0.0
2019/01/15 09:40:56.000   4280223.1322  -4034425.0656  -2458271.5803   5   6   5.1555   3.9638   5.5210  -3.7859   3.1030  -3.6465   0.00    0.0
2019/01/15 09:40:57.000   4280221.2020  -4034414.0791  -2458266.8308   5   6   5.1557   3.9637   5.5195  -3.7859   3.1022  -3.6453   0.00    0.0
2019/01/15 09:40:58.000   4280212.4163  -4034400.9524  -2458258.1918   5   6   5.1559   3.9637   5.5181  -3.7860   3.1014  -3.6441   0.00    0.0
2019/01/15 09:40:59.000   4280219.1500  -4034407.3319  -2458262.4227   5   6   5.1560   3.9636   5.5166  -3.7860   3.1006  -3.6429   0.00    0.0
2019/01/15 09:41:00.000   4280215.6112  -4034412.4986  -2458267.6525   5   6   5.1562   3.9635   5.5152  -3.7860   3.0998  -3.6418   0.00    0.0
2019/01/15 09:41:01.000   4280217.3294  -4034407.0728  -2458258.3600   5   6   5.1564   3.9634   5.5137  -3.7860   3.0990  -3.6406   0.00    0.0
2019/01/15 09:41:02.000   4280215.7325  -4034410.7775  -2458272.1835   5   6   5.1565   3.9634   5.5123  -3.7861   3.0981  -3.6394   0.00    0.0
2019/01/15 09:41:03.000   4280220.1133  -4034413.7154  -2458278.1325   5   6   5.1567   3.9633   5.5108  -3.7861   3.0973  -3.6382   0.00    0.0
2019/01/15 09:41:04.000   4280219.6408  -4034412.8548  -2458279.6132   5   6   5.1569   3.9632   5.5094  -3.7861   3.0965  -3.6370   0.00    0.0
2019/01/15 09:41:05.000   4280215.6815  -4034414.0304  -2458275.7460   5   6   5.1571   3.9632   5.5079  -3.7861   3.0957  -3.6359   0.00    0.0
2019/01/15 09:41:06.000   4280220.7863  -4034411.9346  -2458276.8148   5   6   5.1572   3.9631   5.5065  -3.7862   3.0949  -3.6347   0.00    0.0
2019/01/15 09:41:07.000   4280213.8145  -4034412.9844  -2458283.6060   5   6   5.1574   3.9630   5.5050  -3.7862   3.0941  -3.6335   0.00    0.0
2019/01/15 09:41:08.000   4280216.9659  -4034409.9427  -2458267.9374   5   6   5.1576   3.9630   5.5036  -3.7862   3.0933  -3.6323   0.00    0.0
2019/01/15 09:41:10.000   4280240.7748  -4034425.9423  -2458268.5812   5   6   5.1579   3.9628   5.5007  -3.7863   3.0916  -3.6300   0.00    0.0
2019/01/15 09:41:11.000   4280235.9592  -4034423.4094  -2458265.5624   5   6   5.1581   3.9628   5.4993  -3.7863   3.0908  -3.6288   0.00    0.0
2019/01/15 09:41:12.000   4280222.2441  -4034408.0312  -2458253.8498   5   6   5.1583   3.9627   5.4978  -3.7863   3.0900  -3.6277   0.00    0.0
2019/01/15 09:41:13.000   4280222.4439  -4034419.8811  -2458254.5605   5   6   5.1585   3.9626   5.4964  -3.7863   3.0892  -3.6265   0.00    0.0
2019/01/15 09:41:14.000   4280220.4372  -4034417.4749  -2458256.3775   5   6   5.1586   3.9626   5.4949  -3.7864   3.0884  -3.6253   0.00    0.0
2019/01/15 09:41:15.000   4280230.5880  -4034423.6212  -2458266.5648   5   6   5.1588   3.9625   5.4935  -3.7864   3.0876  -3.6242   0.00    0.0
2019/01/15 09:41:16.000   4280225.5960  -4034419.7855  -2458258.1071   5   6   5.1590   3.9624   5.4920  -3.7864   3.0868  -3.6230   0.00    0.0
2019/01/15 09:41:17.000   4280223.0056  -4034419.0544  -2458268.3075   5   6   5.1592   3.9624   5.4906  -3.7865   3.0860  -3.6218   0.00    0.0
2019/01/15 09:41:18.000   4280229.9461  -4034432.2779  -2458277.9687   5   6   5.1593   3.9623   5.4892  -3.7865   3.0852  -3.6207   0.00    0.0
2019/01/15 09:41:19.000   4280220.2422  -4034427.8832  -2458271.3525   5   6   5.1595   3.9623   5.4877  -3.7865   3.0844  -3.6195   0.00    0.0
2019/01/15 09:41:20.000   4280218.4548  -4034423.1747  -2458277.0601   5   6   5.1597   3.9622   5.4863  -3.7866   3.0836  -3.6183   0.00    0.0
2019/01/15 09:41:21.000   4280223.2618  -4034423.4529  -2458268.5225   5   6   5.1599   3.9621   5.4849  -3.7866   3.0828  -3.6172   0.00    0.0
2019/01/15 09:41:22.000   4280221.7014  -4034423.7782  -2458248.3652   5   6   5.1601   3.9621   5.4834  -3.7866   3.0820  -3.6160   0.00    0.0
2019/01/15 09:41:23.000   4280231.8220  -4034426.1506  -2458263.5882   5   6   5.1603   3.9620   5.4820  -3.7867   3.0812  -3.6148   0.00    0.0
2019/01/15 09:41:24.000   4280232.5476  -4034426.6488  -2458277.9734   5   6   5.1605   3.9619   5.4805  -3.7867   3.0804  -3.6137   0.00    0.0
2019/01/15 09:41:25.000   4280227.1427  -4034425.3491  -2458279.3219   5   6   5.1606   3.9619   5.4791  -3.7867   3.0796  -3.6125   0.00    0.0
2019/01/15 09:41:26.000   4280235.3786  -4034425.0324  -2458276.3344   5   6   5.1608   3.9618   5.4777  -3.7868   3.0788  -3.6114   0.00    0.0
2019/01/15 09:41:27.000   4280224.2234  -4034424.7458  -2458275.1518   5   6   5.1610   3.9618   5.4762  -3.7868   3.0780  -3.6102   0.00    0.0
2019/01/15 09:41:28.000   4280230.9157  -4034421.0713  -2458279.1081   5   6   5.1612   3.9617   5.4748  -3.7869   3.0772  -3.6090   0.00    0.0
2019/01/15 09:41:29.000   4280229.3214  -4034416.2967  -2458276.2086   5   6   5.1614   3.9617   5.4734  -3.7869   3.0764  -3.6079   0.00    0.0
2019/01/15 09:41:30.000   4280232.5315  -4034425.2064  -2458273.5114   5   6   5.1616   3.9616   5.4719  -3.7869   3.0756  -3.6067   0.00    0.0
2019/01/15 09:41:31.000   4280234.5871  -4034434.5384  -2458277.6338   5   6   5.1618   3.9615   5.4705  -3.7870   3.0748  -3.6056   0.00    0.0
2019/01/15 09:41:32.000   4280220.4241  -4034416.8022  -2458261.8860   5   6   5.1620   3.9615   5.4691  -3.7870   3.0740  -3.6044   0.00    0.0
2019/01/15 09:41:33.000   4280240.6393  -4034426.4777  -2458273.7944   5   6   5.1622   3.9614   5.4677  -3.7871   3.0732  -3.6033   0.00    0.0
2019/01/15 09:41:34.000   4280227.5352  -4034422.7900  -2458263.4327   5   6   5.1624   3.9614   5.4662  -3.7871   3.0724  -3.6021   0.00    0.0
2019/01/15 09:41:35.000   4280229.0681  -4034426.5069  -2458264.4157   5   6   5.1625   3.9613   5.4648  -3.7871   3.0716  -3.6009   0.00    0.0
2019/01/15 09:41:36.000   4280236.8033  -4034434.0820  -2458263.3684   5   6   5.1627   3.9613   5.4634  -3.7872   3.0708  -3.5998   0.00    0.0
2019/01/15 09:41:37.000   4280215.6798  -4034416.6037  -2458264.1124   5   6   5.1629   3.9612   5.4620  -3.7872   3.0701  -3.5986   0.00    0.0
2019/01/15 09:41:38.000   4280216.3966  -4034417.7497  -2458274.6492   5   6   5.1631   3.9612   5.4605  -3.7873   3.0693  -3.5975   0.00    0.0
2019/01/15 09:41:39.000   4280230.3139  -4034425.3086  -2458267.3100   5   6   5.1633   3.9611   5.4591  -3.7873   3.0685  -3.5963   0.00    0.0
2019/01/15 09:41:40.000   4280218.0139  -4034415.1184  -2458259.3046   5   6   5.1635   3.9610   5.4577  -3.7874   3.0677  -3.5952   0.00    0.0
2019/01/15 09:41:41.000   4280226.5760  -4034421.6976  -2458263.1672   5   6   5.1637   3.9610   5.4562  -3.7874   3.0669  -3.5940   0.00    0.0
2019/01/15 09:41:42.000   4280209.5297  -4034408.6781  -2458254.4171   5   6   5.1639   3.9609   5.4548  -3.7875   3.0661  -3.5929   0.00    0.0
2019/01/15 09:41:43.000   4280219.7204  -4034411.3412  -2458267.0158   5   6   5.1641   3.9609   5.4534  -3.7875   3.0653  -3.5917   0.00    0.0
2019/01/15 09:41:44.000   4280227.5663  -4034417.1838  -2458254.2882   5   6   5.1643   3.9608   5.4520  -3.7876   3.0645  -3.5906   0.00    0.0
2019/01/15 09:41:45.000   4280212.0827  -4034410.2071  -2458260.7384   5   6   5.1645   3.9608   5.4506  -3.7876   3.0638  -3.5895   0.00    0.0
2019/01/15 09:41:46.000   4280215.8491  -4034409.7195  -2458282.7601   5   6   5.1647   3.9607   5.4491  -3.7877   3.0630  -3.5883   0.00    0.0
2019/01/15 09:41:47.000   4280218.6203  -4034412.1868  -2458277.2537   5   6   5.1649   3.9607   5.4477  -3.7877   3.0622  -3.5872   0.00    0.0
2019/01/15 09:41:48.000   4280221.4444  -4034417.1419  -2458266.7909   5   6   5.1651   3.9606   5.4463  -3.7877   3.0614  -3.5860   0.00    0.0
2019/01/15 09:41:50.000   4280229.7847  -4034420.2847  -2458265.2204   5   6   5.1655   3.9605   5.4435  -3.7878   3.0598  -3.5837   0.00    0.0
2019/01/15 09:41:51.000   4280208.4834  -4034401.8428  -2458252.2693   5   6   5.1658   3.9605   5.4421  -3.7879   3.0591  -3.5826   0.00    0.0
2019/01/15 09:41:53.000   4280213.4530  -4034419.6952  -2458249.8281   5   6   5.1662   3.9604   5.4392  -3.7880   3.0575  -3.5803   0.00    0.0
2019/01/15 09:41:54.000   4280226.4930  -4034419.8122  -2458264.5972   5   6   5.1664   3.9603   5.4378  -3.7881   3.0567  -3.5792   0.00    0.0
2019/01/15 09:41:56.000   4280209.3341  -4034412.1284  -2458237.6109   5   6   5.1668   3.9602   5.4350  -3.7882   3.0552  -3.5769   0.00    0.0
2019/01/15 09:41:57.000   4280209.4213  -4034397.9688  -2458242.9024   5   6   5.1670   3.9602   5.4336  -3.7882   3.0544  -3.5758   0.00    0.0
2019/01/15 09:41:59.000   4280222.4968  -4034421.0682  -2458268.5567   5   6   5.1674   3.9601   5.4307  -3.7883   3.0528  -3.5735   0.00    0.0
2019/01/15 09:42:00.000   4280241.7192  -4034426.3102  -2458270.5591   5   6   5.1676   3.9600   5.4293  -3.7884   3.0520  -3.5723   0.00    0.0
2019/01/15 09:42:01.000   4280209.3142  -4034406.1407  -2458251.6284   5   6   5.1679   3.9600   5.4279  -3.7885   3.0513  -3.5712   0.00    0.0
2019/01/15 09:42:02.000   4280216.0327  -4034413.5317  -2458256.3436   5   6   5.1681   3.9600   5.4265  -3.7885   3.0505  -3.5701   0.00    0.0
2019/01/15 09:42:03.000   4280227.7636  -4034405.6042  -2458260.5430   5   6   5.1683   3.9599   5.4251  -3.7886   3.0497  -3.5689   0.00    0.0
2019/01/15 09:42:04.000   4280235.2807  -4034415.6696  -2458278.4151   5   6   5.1685   3.9599   5.4237  -3.7886   3.0489  -3.5678   0.00    0.0
2019/01/15 09:42:05.000   4280210.5332  -4034410.7135  -2458252.7683   5   6   5.1687   3.9598   5.4223  -3.7887   3.0482  -3.5667   0.00    0.0
2019/01/15 09:42:07.000   4280223.9260  -4034418.1182  -2458270.0809   5   6   5.1691   3.9597   5.4195  -3.7888   3.0466  -3.5644   0.00    0.0
2019/01/15 09:42:08.000   4280222.7476  -4034412.0918  -2458276.1589   5   6   5.1694   3.9597   5.4181  -3.7889   3.0459  -3.5633   0.00    0.0
2019/01/15 09:42:09.000   4280215.3843  -4034419.4369  -2458267.4314   5   6   5.1696   3.9597   5.4167  -3.7889   3.0451  -3.5621   0.00    0.0
2019/01/15 09:42:10.000   4280236.7494  -4034436.0670  -2458269.7416   5   6   5.1698   3.9596   5.4152  -3.7890   3.0443  -3.5610   0.00    0.0
2019/01/15 09:42:11.000   4280229.5409  -4034421.7498  -2458261.8835   5   6   5.1700   3.9596   5.4138  -3.7891   3.0436  -3.5599   0.00    0.0
2019/01/15 09:42:12.000   4280215.9698  -4034423.0142  -2458272.2872   5   6   5.1702   3.9595   5.4124  -3.7891   3.0428  -3.5587   0.00    0.0
2019/01/15 09:42:15.000   4280210.8569  -4034421.2233  -2458281.2711   5   6   5.1709   3.9594   5.4082  -3.7893   3.0405  -3.5554   0.00    0.0
2019/01/15 09:42:16.000   4280213.4529  -4034409.0104  -2458267.1320   5   6   5.1711   3.9594   5.4068  -3.7894   3.0397  -3.5542   0.00    0.0
2019/01/15 09:42:17.000   4280222.1881  -4034417.9842  -2458264.7808   5   6   5.1713   3.9593   5.4054  -3.7895   3.0390  -3.5531   0.00    0.0
2019/01/15 09:42:19.000   4280220.0835  -4034413.4902  -2458272.8568   5   6   5.1718   3.9593   5.4026  -3.7896   3.0374  -3.5509   0.00    0.0
2019/01/15 09:42:20.000   4280228.1302  -4034424.5410  -2458260.4417   5   6   5.1720   3.9592   5.4012  -3.7897   3.0367  -3.5497   0.00    0.0
2019/01/15 09:42:21.000   4280222.2961  -4034426.7821  -2458264.6360   5   6   5.1722   3.9592   5.3998  -3.7897   3.0359  -3.5486   0.00    0.0
2019/01/15 09:42:22.000   4280220.4166  -4034413.7206  -2458263.1270   5   6   5.1725   3.9591   5.3985  -3.7898   3.0352  -3.5475   0.00    0.0
2019/01/15 09:42:23.000   4280220.0222  -4034414.8627  -2458259.3046   5   6   5.1727   3.9591   5.3971  -3.7899   3.0344  -3.5464   0.00    0.0
2019/01/15 09:42:24.000   4280215.8239  -4034408.7952  -2458260.5613   5   6   5.1729   3.9591   5.3957  -3.7899   3.0336  -3.5453   0.00    0.0
2019/01/15 09:42:25.000   4280206.3842  -4034396.2710  -2458262.5203   5   6   5.1732   3.9590   5.3943  -3.7900   3.0329  -3.5442   0.00    0.0
2019/01/15 09:42:27.000   4280231.4027  -4034422.6679  -2458263.2271   5   6   5.1736   3.9590   5.3915  -3.7902   3.0314  -3.5419   0.00    0.0
2019/01/15 09:42:28.000   4280205.2092  -4034406.1310  -2458255.0022   5   6   5.1739   3.9589   5.3901  -3.7902   3.0306  -3.5408   0.00    0.0
2019/01/15 09:42:29.000   4280215.8495  -4034415.7152  -2458261.9734   5   6   5.1741   3.9589   5.3887  -3.7903   3.0298  -3.5397   0.00    0.0
2019/01/15 09:42:30.000   4280228.6476  -4034420.8915  -2458256.3265   5   6   5.1743   3.9589   5.3873  -3.7904   3.0291  -3.5386   0.00    0.0
2019/01/15 09:42:31.000   4280219.6655  -4034417.3299  -2458265.7181   5   6   5.1746   3.9588   5.3859  -3.7904   3.0283  -3.5375   0.00    0.0
2019/01/15 09:42:32.000   4280226.3450  -4034427.4362  -2458290.1844   5   6   5.1748   3.9588   5.3845  -3.7905   3.0276  -3.5363   0.00    0.0
2019/01/15 09:42:33.000   4280224.6805  -4034425.7761  -2458279.1345   5   6   5.1750   3.9588   5.3831  -3.7906   3.0268  -3.5352   0.00    0.0
2019/01/15 09:42:34.000   4280219.3749  -4034415.6735  -2458252.8734   5   6   5.1753   3.9587   5.3817  -3.7907   3.0261  -3.5341   0.00    0.0
2019/01/15 09:42:35.000   4280218.2864  -4034411.6930  -2458256.0200   5   6   5.1755   3.9587   5.3804  -3.7908   3.0253  -3.5330   0.00    0.0
2019/01/15 09:42:36.000   4280218.1783  -4034413.5222  -2458266.8358   5   6   5.1757   3.9587   5.3790  -3.7908   3.0246  -3.5319   0.00    0.0
2019/01/15 09:42:37.000   4280216.3876  -4034412.6372  -2458280.7576   5   6   5.1760   3.9586   5.3776  -3.7909   3.0238  -3.5308   0.00    0.0
2019/01/15 09:42:38.000   4280216.8539  -4034419.6375  -2458273.9637   5   6   5.1762   3.9586   5.3762  -3.7910   3.0231  -3.5297   0.00    0.0
2019/01/15 09:42:39.000   4280228.8222  -4034425.7185  -2458253.6438   5   6   5.1765   3.9586   5.3748  -3.7911   3.0223  -3.5286   0.00    0.0
2019/01/15 09:42:40.000   4280214.0394  -4034421.1598  -2458276.6125   5   6   5.1767   3.9585   5.3734  -3.7911   3.0216  -3.5274   0.00    0.0
2019/01/15 09:42:42.000   4280220.3707  -4034421.7589  -2458277.9139   5   6   5.1772   3.9585   5.3707  -3.7913   3.0201  -3.5252   0.00    0.0
2019/01/15 09:42:43.000   4280219.4149  -4034425.7206  -2458285.4854   5   6   5.1774   3.9584   5.3693  -3.7914   3.0193  -3.5241   0.00    0.0
2019/01/15 09:42:44.000   4280221.4318  -4034426.4139  -2458270.1120   5   6   5.1777   3.9584   5.3679  -3.7915   3.0186  -3.5230   0.00    0.0
2019/01/15 09:42:45.000   4280217.7289  -4034424.1485  -2458267.0348   5   6   5.1779   3.9584   5.3665  -3.7916   3.0178  -3.5219   0.00    0.0
2019/01/15 09:42:46.000   4280233.6637  -4034424.8104  -2458282.4391   5   6   5.1782   3.9584   5.3651  -3.7916   3.0171  -3.5208   0.00    0.0
2019/01/15 09:42:47.000   4280216.3290  -4034415.8641  -2458275.7369   5   6   5.1784   3.9583   5.3638  -3.7917   3.0163  -3.5197   0.00    0.0
2019/01/15 09:42:48.000   4280224.6136  -4034419.4963  -2458289.3102   5   6   5.1786   3.9583   5.3624  -3.7918   3.0156  -3.5186   0.00    0.0
2019/01/15 09:42:49.000   4280226.8349  -4034417.6557  -2458278.8522   5   6   5.1789   3.9583   5.3610  -3.7919   3.0149  -3.5175   0.00    0.0
2019/01/15 09:42:50.000   4280226.2402  -4034424.9925  -2458291.0180   5   6   5.1791   3.9582   5.3596  -3.7920   3.0141  -3.5164   0.00    0.0
2019/01/15 09:42:51.000   4280228.5174  -4034421.5750  -2458272.8070   5   6   5.1794   3.9582   5.3582  -3.7921   3.0134  -3.5153   0.00    0.0
2019/01/15 09:42:52.000   4280229.0968  -4034420.5854  -2458272.4383   5   6   5.1796   3.9582   5.3569  -3.7921   3.0126  -3.5142   0.00    0.0
2019/01/15 09:42:53.000   4280232.5193  -4034427.6651  -2458267.4350   5   6   5.1799   3.9582   5.3555  -3.7922   3.0119  -3.5131   0.00    0.0
2019/01/15 09:42:54.000   4280229.5637  -4034417.9775  -2458262.6576   5   6   5.1801   3.9581   5.3541  -3.7923   3.0112  -3.5120   0.00    0.0
2019/01/15 09:42:56.000   4280227.6036  -4034414.6737  -2458270.4176   5   6   5.1806   3.9581   5.3514  -3.7925   3.0097  -3.5098   0.00    0.0
2019/01/15 09:42:57.000   4280226.3917  -4034418.1375  -2458270.6931   5   6   5.1809   3.9581   5.3500  -3.7926   3.0089  -3.5087   0.00    0.0
2019/01/15 09:42:58.000   4280217.0057  -4034414.6803  -2458250.0381   5   6   5.1811   3.9580   5.3486  -3.7927   3.0082  -3.5076   0.00    0.0
2019/01/15 09:42:59.000   4280216.2640  -4034404.5761  -2458257.1293   5   6   5.1814   3.9580   5.3473  -3.7928   3.0075  -3.5065   0.00    0.0
2019/01/15 09:43:00.000   4280218.8564  -4034414.5881  -2458270.9114   5   6   5.1817   3.9580   5.3459  -3.7929   3.0067  -3.5054   0.00    0.0
2019/01/15 09:43:03.000   4280224.0252  -4034410.1488  -2458274.5013   5   6   5.1824   3.9579   5.3418  -3.7931   3.0045  -3.5021   0.00    0.0
2019/01/15 09:43:04.000   4280224.5178  -4034407.9352  -2458277.7662   5   6   5.1827   3.9579   5.3404  -3.7932   3.0038  -3.5011   0.00    0.0
