% program   : RTKPOST ver.2.4.2
% inp file  : D:\Google Drive\UERJ\_Projeto Final\Python\tcc-guilherme\20190212_Sta91500.19o
% inp file  : D:\Google Drive\UERJ\_Projeto Final\20190212_Marco91500 IBGE\brdm0430.19p
% obs start : 2019/02/12 08:38:50.0 GPST (week2040 203930.0s)
% obs end   : 2019/02/12 10:17:44.0 GPST (week2040 209864.0s)
% pos mode  : single
% elev mask : 15.0 deg
% ionos opt : broadcast
% tropo opt : saastamoinen
% ephemeris : broadcast
% navi sys  : gps glonass
%
% (x/y/z-ecef=WGS84,Q=1:fix,2:float,3:sbas,4:dgps,5:single,6:ppp,ns=# of satellites)
%  GPST                      x-ecef(m)      y-ecef(m)      z-ecef(m)   Q  ns   sdx(m)   sdy(m)   sdz(m)  sdxy(m)  sdyz(m)  sdzx(m) age(s)  ratio
2019/02/12 08:38:56.000   4280206.9924  -4034400.5871  -2458259.4567   5  10   5.2158   6.1201   3.6883  -5.1575   4.2751  -3.8474   0.00    0.0
2019/02/12 08:39:03.000   4280216.2253  -4034403.9358  -2458270.8028   5  12   4.8154   5.2656   3.0398  -4.5492   3.4957  -3.2575   0.00    0.0
2019/02/12 08:39:37.000   4280218.3179  -4034416.8526  -2458261.1545   5  13   4.7416   5.2300   2.9735  -4.4917   3.4402  -3.1723   0.00    0.0
2019/02/12 08:39:47.000   4280217.6855  -4034408.7981  -2458251.4371   5  12   4.0368   5.1689   3.2837  -4.1262   3.5873  -3.0608   0.00    0.0
2019/02/12 08:40:47.000   4280230.1997  -4034428.3200  -2458271.8560   5  14   3.9553   4.9813   2.8879  -3.9976   3.2732  -2.8498   0.00    0.0
2019/02/12 08:40:49.000   4280218.9319  -4034427.9125  -2458268.5610   5  13   3.9990   5.1377   3.2095  -4.0890   3.5322  -2.9903   0.00    0.0
2019/02/12 08:41:05.000   4280219.4822  -4034409.8537  -2458264.4202   5  13   4.0065   5.1409   3.2113  -4.0948   3.5357  -2.9947   0.00    0.0
2019/02/12 08:41:08.000   4280223.6535  -4034420.8704  -2458279.9266   5  12   4.8639   5.4471   3.3391  -4.6619   3.7615  -3.3899   0.00    0.0
2019/02/12 08:41:17.000   4280212.3875  -4034410.6235  -2458262.7285   5  14   3.9718   4.9925   2.8975  -4.0128   3.2869  -2.8639   0.00    0.0
2019/02/12 08:41:22.000   4280237.0614  -4034431.0986  -2458273.6739   5  14   3.9745   4.9943   2.8991  -4.0152   3.2891  -2.8661   0.00    0.0
2019/02/12 08:41:43.000   4280236.0306  -4034432.4807  -2458270.4239   5  13   4.0490   5.0362   2.9672  -4.0771   3.3514  -2.9492   0.00    0.0
2019/02/12 08:41:58.000   4280220.3496  -4034420.7653  -2458269.0685   5  13   4.0303   5.1501   3.2164  -4.1128   3.5457  -3.0083   0.00    0.0
2019/02/12 08:42:06.000   4280209.0554  -4034402.2483  -2458260.8631   5  12   4.8878   5.4528   3.3400  -4.6768   3.7666  -3.3971   0.00    0.0
2019/02/12 08:42:08.000   4280211.5838  -4034412.6588  -2458260.6885   5  12   4.8886   5.4530   3.3400  -4.6772   3.7667  -3.3973   0.00    0.0
2019/02/12 08:42:36.000   4280214.9051  -4034404.7668  -2458254.4086   5  14   4.0130   5.0191   2.9211  -4.0496   3.3199  -2.8983   0.00    0.0
2019/02/12 08:42:38.000   4280226.1608  -4034427.9463  -2458268.9958   5  13   4.1476   5.0660   2.9687  -3.9614   3.3745  -2.8026   0.00    0.0
2019/02/12 08:42:44.000   4280213.2275  -4034398.3591  -2458255.3613   5  14   4.0170   5.0215   2.9234  -4.0531   3.3230  -2.9015   0.00    0.0
2019/02/12 08:42:49.000   4280215.5629  -4034414.1139  -2458273.1343   5  14   4.0195   5.0230   2.9247  -4.0552   3.3249  -2.9035   0.00    0.0
2019/02/12 08:43:15.000   4280211.6405  -4034421.6021  -2458260.1155   5  14   4.0321   5.0304   2.9318  -4.0661   3.3346  -2.9138   0.00    0.0
2019/02/12 08:43:17.000   4280228.7270  -4034420.3150  -2458269.9139   5  14   4.0330   5.0310   2.9323  -4.0669   3.3353  -2.9146   0.00    0.0
2019/02/12 08:43:26.000   4280194.7108  -4034393.1654  -2458256.1531   5  13   4.1824   5.0725   2.9756  -3.9853   3.3844  -2.8245   0.00    0.0
2019/02/12 08:43:29.000   4280210.4527  -4034409.2856  -2458265.6724   5  12   5.1932   5.3170   3.0556  -4.5599   3.5443  -3.1807   0.00    0.0
2019/02/12 08:43:58.000   4280227.3112  -4034410.2901  -2458273.3013   5  14   4.0520   5.0415   2.9428  -4.0828   3.3494  -2.9298   0.00    0.0
2019/02/12 08:43:59.000   4280215.4389  -4034399.3766  -2458261.8295   5  14   4.0524   5.0417   2.9430  -4.0831   3.3497  -2.9302   0.00    0.0
2019/02/12 08:44:02.000   4280208.8341  -4034411.1653  -2458263.9432   5  14   4.0538   5.0424   2.9437  -4.0842   3.3507  -2.9312   0.00    0.0
2019/02/12 08:44:07.000   4280232.4001  -4034416.0463  -2458269.6196   5  14   4.0560   5.0436   2.9449  -4.0861   3.3523  -2.9330   0.00    0.0
2019/02/12 08:44:25.000   4280226.9912  -4034415.6596  -2458267.3810   5  14   4.0639   5.0476   2.9492  -4.0925   3.3580  -2.9392   0.00    0.0
2019/02/12 08:44:37.000   4280202.4754  -4034387.2649  -2458253.8736   5  14   4.0690   5.0502   2.9520  -4.0966   3.3616  -2.9432   0.00    0.0
2019/02/12 08:44:58.000   4280219.8217  -4034414.8588  -2458265.7518   5  13   4.1488   5.0924   3.0179  -4.1610   3.4231  -3.0274   0.00    0.0
2019/02/12 08:45:03.000   4280220.0018  -4034422.3039  -2458267.8521   5  14   4.0798   5.0552   2.9577  -4.1050   3.3691  -2.9516   0.00    0.0
2019/02/12 08:45:04.000   4280209.3458  -4034399.6407  -2458257.0070   5  14   4.0803   5.0554   2.9579  -4.1054   3.3694  -2.9519   0.00    0.0
2019/02/12 08:45:12.000   4280236.1475  -4034421.4979  -2458271.4554   5  14   4.0835   5.0568   2.9596  -4.1078   3.3715  -2.9544   0.00    0.0
2019/02/12 08:45:32.000   4280208.9636  -4034407.1935  -2458263.0454   5  14   4.0914   5.0601   2.9637  -4.1138   3.3768  -2.9603   0.00    0.0
2019/02/12 08:45:33.000   4280220.8875  -4034426.5717  -2458272.3160   5  14   4.0917   5.0603   2.9639  -4.1141   3.3770  -2.9606   0.00    0.0
2019/02/12 08:45:51.000   4280225.5087  -4034424.2627  -2458264.5733   5  14   4.0986   5.0629   2.9673  -4.1191   3.3814  -2.9657   0.00    0.0
2019/02/12 08:46:14.000   4280211.6286  -4034401.0556  -2458253.3108   5  14   4.1070   5.0659   2.9716  -4.1251   3.3867  -2.9719   0.00    0.0
2019/02/12 08:46:30.000   4280216.3312  -4034404.1326  -2458265.7536   5  13   4.3083   5.0844   2.9954  -4.0643   3.4115  -2.8986   0.00    0.0
2019/02/12 08:46:55.000   4280205.5891  -4034410.1401  -2458265.7522   5  14   4.1211   5.0699   2.9784  -4.1346   3.3949  -2.9820   0.00    0.0
2019/02/12 08:47:04.000   4280221.7975  -4034418.9090  -2458266.6006   5  14   4.1240   5.0706   2.9798  -4.1364   3.3965  -2.9840   0.00    0.0
2019/02/12 08:47:09.000   4280232.5890  -4034427.9487  -2458269.6057   5  14   4.1256   5.0709   2.9805  -4.1374   3.3974  -2.9851   0.00    0.0
2019/02/12 08:47:37.000   4280226.0158  -4034438.5497  -2458276.2583   5  14   4.1342   5.0724   2.9844  -4.1426   3.4018  -2.9909   0.00    0.0
2019/02/12 08:47:39.000   4280211.1081  -4034409.1164  -2458264.7871   5  14   4.1348   5.0725   2.9847  -4.1430   3.4021  -2.9913   0.00    0.0
2019/02/12 08:48:03.000   4280229.6697  -4034426.6745  -2458274.9634   5  14   4.1417   5.0731   2.9877  -4.1468   3.4054  -2.9958   0.00    0.0
2019/02/12 08:48:14.000   4280213.0170  -4034406.1899  -2458260.9041   5  14   4.1447   5.0732   2.9890  -4.1483   3.4067  -2.9977   0.00    0.0
2019/02/12 08:48:18.000   4280217.3179  -4034402.6227  -2458262.3658   5  14   4.1457   5.0732   2.9894  -4.1489   3.4071  -2.9984   0.00    0.0
2019/02/12 08:48:23.000   4280207.0731  -4034391.1507  -2458254.8283   5  14   4.1471   5.0732   2.9900  -4.1495   3.4077  -2.9992   0.00    0.0
2019/02/12 08:48:49.000   4280254.0450  -4034458.4902  -2458285.5321   5  14   4.1536   5.0727   2.9925  -4.1525   3.4102  -3.0031   0.00    0.0
2019/02/12 08:49:04.000   4280228.8014  -4034426.2372  -2458270.5543   5  14   4.1572   5.0721   2.9939  -4.1539   3.4113  -3.0052   0.00    0.0
2019/02/12 08:49:05.000   4280223.1425  -4034410.1789  -2458262.7461   5  14   4.1574   5.0721   2.9940  -4.1540   3.4114  -3.0053   0.00    0.0
2019/02/12 08:49:06.000   4280208.9965  -4034393.7905  -2458259.5596   5  14   4.1577   5.0720   2.9941  -4.1541   3.4115  -3.0054   0.00    0.0
2019/02/12 08:49:11.000   4280201.1704  -4034387.1582  -2458251.3965   5  14   4.1588   5.0718   2.9945  -4.1545   3.4118  -3.0060   0.00    0.0
2019/02/12 08:49:18.000   4280236.4043  -4034430.2637  -2458274.9117   5  13   4.2399   5.1121   3.0539  -4.2179   3.4681  -3.0869   0.00    0.0
2019/02/12 08:49:23.000   4280238.7358  -4034429.3285  -2458276.4163   5  14   4.1615   5.0711   2.9954  -4.1554   3.4125  -3.0075   0.00    0.0
2019/02/12 08:49:44.000   4280238.2781  -4034439.1067  -2458265.3119   5  14   4.1658   5.0695   2.9968  -4.1566   3.4135  -3.0097   0.00    0.0
2019/02/12 08:50:11.000   4280197.0110  -4034382.1293  -2458245.9532   5  14   4.1710   5.0669   2.9983  -4.1576   3.4142  -3.0120   0.00    0.0
2019/02/12 08:50:26.000   4280214.5723  -4034410.2101  -2458268.4040   5  14   4.1736   5.0651   2.9989  -4.1578   3.4142  -3.0131   0.00    0.0
2019/02/12 08:50:44.000   4280229.4844  -4034425.3703  -2458262.8009   5  14   4.1765   5.0627   2.9995  -4.1578   3.4141  -3.0141   0.00    0.0
2019/02/12 08:51:21.000   4280216.1221  -4034407.6336  -2458269.8485   5  14   4.1817   5.0567   3.0002  -4.1567   3.4129  -3.0154   0.00    0.0
2019/02/12 08:51:29.000   4280227.9103  -4034423.3032  -2458273.7333   5  13   4.2654   5.0961   3.0570  -4.2206   3.4674  -3.0957   0.00    0.0
2019/02/12 08:52:05.000   4280227.7979  -4034427.5674  -2458271.5595   5  14   4.1866   5.0479   3.0000  -4.1537   3.4099  -3.0155   0.00    0.0
2019/02/12 08:52:06.000   4280231.8821  -4034434.8611  -2458274.5476   5  14   4.1867   5.0477   3.0000  -4.1536   3.4098  -3.0155   0.00    0.0
2019/02/12 08:52:09.000   4280218.3267  -4034422.8980  -2458271.3143   5  14   4.1869   5.0470   2.9999  -4.1533   3.4096  -3.0154   0.00    0.0
2019/02/12 08:52:14.000   4280210.5964  -4034405.6459  -2458261.7566   5  14   4.1874   5.0459   2.9998  -4.1529   3.4091  -3.0153   0.00    0.0
2019/02/12 08:52:32.000   4280206.6745  -4034414.1064  -2458260.3267   5  14   4.1888   5.0416   2.9994  -4.1510   3.4073  -3.0148   0.00    0.0
2019/02/12 08:52:38.000   4280208.8209  -4034400.9016  -2458260.5587   5  14   4.1893   5.0401   2.9992  -4.1502   3.4066  -3.0146   0.00    0.0
2019/02/12 08:52:44.000   4280223.6605  -4034417.9621  -2458259.3150   5  14   4.1896   5.0386   2.9990  -4.1495   3.4059  -3.0143   0.00    0.0
2019/02/12 08:52:55.000   4280219.8304  -4034416.5207  -2458263.7993   5  14   4.1903   5.0357   2.9985  -4.1480   3.4045  -3.0138   0.00    0.0
2019/02/12 08:53:04.000   4280200.9629  -4034410.9709  -2458262.7800   5  14   4.1908   5.0332   2.9981  -4.1468   3.4033  -3.0133   0.00    0.0
2019/02/12 08:53:41.000   4280206.5852  -4034405.8268  -2458263.2697   5  13   4.2772   5.0625   3.0499  -4.2055   3.4508  -3.0900   0.00    0.0
2019/02/12 08:53:46.000   4280228.2968  -4034437.7462  -2458270.7738   5  13   4.2774   5.0609   3.0494  -4.2046   3.4499  -3.0895   0.00    0.0
2019/02/12 08:53:50.000   4280207.8547  -4034409.9989  -2458263.4932   5  13   4.2775   5.0596   3.0490  -4.2038   3.4491  -3.0891   0.00    0.0
2019/02/12 08:53:54.000   4280234.6063  -4034421.2063  -2458266.0269   5  14   4.1923   5.0182   2.9950  -4.1383   3.3955  -3.0093   0.00    0.0
2019/02/12 08:54:28.000   4280219.8478  -4034420.5336  -2458266.2816   5  14   4.1923   5.0068   2.9921  -4.1313   3.3890  -3.0055   0.00    0.0
2019/02/12 08:54:40.000   4280218.2789  -4034414.7631  -2458264.5643   5  14   4.1922   5.0025   2.9910  -4.1285   3.3865  -3.0040   0.00    0.0
2019/02/12 08:54:43.000   4280209.5557  -4034408.2620  -2458266.8344   5  14   4.1921   5.0014   2.9907  -4.1278   3.3858  -3.0036   0.00    0.0
2019/02/12 08:54:48.000   4280229.9084  -4034422.3475  -2458269.5891   5  12   4.6072   5.9589   3.5191  -4.7965   4.1755  -3.5385   0.00    0.0
2019/02/12 08:55:02.000   4280229.3681  -4034422.0767  -2458271.4014   5  14   4.1916   4.9943   2.9887  -4.1231   3.3816  -3.0008   0.00    0.0
2019/02/12 08:55:06.000   4280236.3433  -4034426.3492  -2458272.1738   5  13   4.2777   5.0321   3.0401  -4.1867   3.4322  -3.0789   0.00    0.0
2019/02/12 08:55:09.000   4280225.1193  -4034401.4704  -2458257.2558   5  13   4.5716   5.9500   3.5080  -4.7851   4.1685  -3.5148   0.00    0.0
2019/02/12 08:55:10.000   4280235.8468  -4034428.2036  -2458275.5929   5  13   4.5715   5.9496   3.5080  -4.7848   4.1683  -3.5147   0.00    0.0
2019/02/12 08:55:27.000   4280215.5706  -4034394.8326  -2458252.6061   5  13   4.2770   5.0235   3.0371  -4.1810   3.4266  -3.0753   0.00    0.0
2019/02/12 08:55:29.000   4280212.2984  -4034411.1621  -2458256.6029   5  13   4.2769   5.0227   3.0368  -4.1805   3.4261  -3.0749   0.00    0.0
2019/02/12 08:55:53.000   4280220.5513  -4034415.5839  -2458263.2503   5  13   4.2756   5.0124   3.0331  -4.1734   3.4193  -3.0703   0.00    0.0
2019/02/12 08:56:00.000   4280220.5432  -4034417.5810  -2458264.7114   5  13   4.2752   5.0094   3.0319  -4.1713   3.4172  -3.0689   0.00    0.0
2019/02/12 08:56:02.000   4280221.6616  -4034414.7443  -2458270.2825   5  14   4.1882   4.9699   2.9812  -4.1063   3.3663  -2.9906   0.00    0.0
2019/02/12 08:56:33.000   4280218.9871  -4034407.8922  -2458270.1127   5  13   4.2727   4.9943   3.0262  -4.1605   3.4070  -3.0617   0.00    0.0
2019/02/12 08:56:54.000   4280210.4730  -4034407.6537  -2458255.1676   5  13   4.2707   4.9842   3.0222  -4.1532   3.4000  -3.0567   0.00    0.0
2019/02/12 08:56:58.000   4280231.9509  -4034428.8279  -2458276.4310   5  13   4.2703   4.9822   3.0215  -4.1518   3.3987  -3.0557   0.00    0.0
2019/02/12 08:57:11.000   4280233.1864  -4034416.4906  -2458268.0905   5  14   4.1815   4.9382   2.9705  -4.0833   3.3454  -2.9757   0.00    0.0
2019/02/12 08:57:12.000   4280209.1248  -4034393.4109  -2458258.3591   5  14   4.1814   4.9377   2.9703  -4.0829   3.3451  -2.9754   0.00    0.0
2019/02/12 08:57:21.000   4280207.5382  -4034406.0091  -2458262.7318   5  14   4.1803   4.9333   2.9687  -4.0796   3.3421  -2.9733   0.00    0.0
2019/02/12 08:57:28.000   4280211.4320  -4034408.0004  -2458267.7786   5  12   4.5924   5.8819   3.5024  -4.7428   4.1342  -3.5094   0.00    0.0
2019/02/12 08:57:37.000   4280178.8052  -4034380.7395  -2458241.3498   5  13   4.2657   4.9625   3.0135  -4.1371   3.3848  -3.0456   0.00    0.0
2019/02/12 08:57:38.000   4280221.7043  -4034418.9126  -2458267.3091   5  13   4.2656   4.9619   3.0133  -4.1367   3.3844  -3.0453   0.00    0.0
2019/02/12 08:57:40.000   4280212.5219  -4034422.8350  -2458273.4602   5  13   4.2653   4.9609   3.0129  -4.1359   3.3837  -3.0447   0.00    0.0
2019/02/12 08:57:42.000   4280206.9847  -4034415.6507  -2458270.4803   5  13   4.2651   4.9598   3.0125  -4.1351   3.3829  -3.0442   0.00    0.0
2019/02/12 08:57:43.000   4280224.1948  -4034422.2075  -2458267.4368   5  13   4.2649   4.9593   3.0123  -4.1347   3.3825  -3.0439   0.00    0.0
2019/02/12 08:57:56.000   4280238.6299  -4034427.1740  -2458278.3348   5  14   4.1755   4.9156   2.9623  -4.0662   3.3300  -2.9642   0.00    0.0
2019/02/12 08:58:03.000   4280216.8212  -4034406.2593  -2458264.3527   5  14   4.1745   4.9120   2.9610  -4.0634   3.3275  -2.9624   0.00    0.0
2019/02/12 08:58:11.000   4280215.6179  -4034414.9121  -2458263.1255   5  13   4.2610   4.9443   3.0061  -4.1232   3.3718  -3.0358   0.00    0.0
2019/02/12 08:58:16.000   4280208.3719  -4034404.6830  -2458263.4111   5  14   4.1725   4.9051   2.9584  -4.0581   3.3227  -2.9588   0.00    0.0
2019/02/12 08:58:20.000   4280211.7716  -4034405.8578  -2458265.6886   5  14   4.1718   4.9030   2.9576  -4.0565   3.3212  -2.9576   0.00    0.0
2019/02/12 08:58:23.000   4280206.8795  -4034403.6969  -2458262.8323   5  14   4.1713   4.9014   2.9570  -4.0552   3.3201  -2.9568   0.00    0.0
2019/02/12 08:58:24.000   4280222.7269  -4034418.8711  -2458272.5499   5  13   4.5451   5.8460   3.4843  -4.7112   4.1104  -3.4740   0.00    0.0
2019/02/12 08:58:38.000   4280203.6226  -4034407.9077  -2458251.3312   5  14   4.1689   4.8933   2.9540  -4.0489   3.3144  -2.9524   0.00    0.0
2019/02/12 08:58:45.000   4280199.5409  -4034395.3348  -2458252.2512   5  13   4.2555   4.9253   2.9981  -4.1085   3.3580  -3.0254   0.00    0.0
2019/02/12 08:58:47.000   4280204.5930  -4034387.7727  -2458254.7809   5  13   4.2552   4.9242   2.9976  -4.1076   3.3572  -3.0247   0.00    0.0
2019/02/12 08:59:04.000   4280210.0143  -4034401.3414  -2458267.3319   5  14   4.1642   4.8788   2.9484  -4.0375   3.3042  -2.9446   0.00    0.0
2019/02/12 08:59:23.000   4280231.5185  -4034426.5672  -2458276.4150   5  12   4.5658   5.8048   3.4776  -4.6831   4.0857  -3.4713   0.00    0.0
2019/02/12 08:59:24.000   4280233.5658  -4034429.6325  -2458275.7835   5  12   4.5655   5.8041   3.4774  -4.6825   4.0852  -3.4709   0.00    0.0
2019/02/12 08:59:25.000   4280236.8458  -4034439.4712  -2458277.4235   5  12   4.5652   5.8033   3.4771  -4.6819   4.0847  -3.4705   0.00    0.0
2019/02/12 08:59:29.000   4280223.4482  -4034427.3833  -2458268.2305   5  12   4.5641   5.8003   3.4761  -4.6795   4.0828  -3.4690   0.00    0.0
2019/02/12 08:59:39.000   4280238.2309  -4034425.9727  -2458272.7350   5  12   4.5612   5.7928   3.4734  -4.6735   4.0778  -3.4650   0.00    0.0
2019/02/12 08:59:40.000   4280242.6701  -4034441.0589  -2458274.3840   5  12   4.5609   5.7920   3.4731  -4.6729   4.0773  -3.4646   0.00    0.0
2019/02/12 08:59:50.000   4280253.5404  -4034449.9868  -2458286.8782   5  13   4.2433   4.8868   2.9816  -4.0779   3.3297  -3.0033   0.00    0.0
2019/02/12 08:59:55.000   4280228.5881  -4034414.6333  -2458265.5239   5  14   4.1459   4.8487   2.8982  -4.0163   3.2777  -2.9492   0.00    0.0
2019/02/12 09:00:15.000   4280216.6069  -4034399.5049  -2458263.0516   5  12   4.7162   4.8930   2.9609  -4.1849   3.3396  -3.1404   0.00    0.0
2019/02/12 09:00:31.000   4280228.1214  -4034436.7180  -2458275.5320   5  13   4.2247   4.8609   2.9344  -4.0588   3.3071  -3.0101   0.00    0.0
2019/02/12 09:00:35.000   4280241.0672  -4034430.0932  -2458276.3092   5  13   4.2236   4.8584   2.9335  -4.0567   3.3054  -3.0087   0.00    0.0
2019/02/12 09:00:39.000   4280224.9903  -4034423.7991  -2458262.7524   5  14   4.1343   4.8223   2.8900  -3.9937   3.2604  -2.9353   0.00    0.0
2019/02/12 09:00:40.000   4280240.9493  -4034435.1423  -2458271.0338   5  13   4.2222   4.8552   2.9324  -4.0539   3.3032  -3.0069   0.00    0.0
2019/02/12 09:00:44.000   4280223.7761  -4034424.8185  -2458266.5170   5  13   4.2211   4.8527   2.9315  -4.0518   3.3015  -3.0055   0.00    0.0
2019/02/12 09:00:45.000   4280232.8638  -4034439.1989  -2458286.7222   5  13   4.2208   4.8520   2.9312  -4.0512   3.3010  -3.0051   0.00    0.0
2019/02/12 09:00:51.000   4280213.2921  -4034417.4179  -2458267.5444   5  13   4.2191   4.8482   2.9299  -4.0479   3.2984  -3.0030   0.00    0.0
2019/02/12 09:01:04.000   4280204.8832  -4034397.0379  -2458253.9308   5  13   4.2154   4.8398   2.9269  -4.0406   3.2926  -2.9983   0.00    0.0
2019/02/12 09:01:05.000   4280219.1219  -4034408.3072  -2458269.3980   5  14   4.1270   4.8061   2.8848  -3.9797   3.2496  -2.9265   0.00    0.0
2019/02/12 09:01:38.000   4280225.1353  -4034422.6708  -2458267.3053   5  13   4.2052   4.8172   2.9186  -4.0210   3.2769  -2.9854   0.00    0.0
2019/02/12 09:01:40.000   4280229.6483  -4034438.9810  -2458275.3023   5  13   4.2046   4.8159   2.9181  -4.0198   3.2760  -2.9846   0.00    0.0
2019/02/12 09:01:43.000   4280225.9241  -4034416.7095  -2458266.5963   5  13   4.2036   4.8139   2.9174  -4.0180   3.2746  -2.9834   0.00    0.0
2019/02/12 09:01:47.000   4280220.4348  -4034422.2044  -2458269.4808   5  13   4.2024   4.8112   2.9164  -4.0157   3.2727  -2.9818   0.00    0.0
2019/02/12 09:01:54.000   4280206.9178  -4034402.3374  -2458264.3025   5  14   4.1122   4.7746   2.8743  -3.9522   3.2282  -2.9089   0.00    0.0
2019/02/12 09:01:55.000   4280207.1325  -4034414.8343  -2458271.2629   5  14   4.1119   4.7739   2.8741  -3.9516   3.2278  -2.9085   0.00    0.0
2019/02/12 09:02:00.000   4280232.2432  -4034430.1180  -2458278.4635   5  13   4.1982   4.8023   2.9131  -4.0079   3.2664  -2.9767   0.00    0.0
2019/02/12 09:02:04.000   4280211.1296  -4034401.9319  -2458266.7100   5  13   4.1970   4.7996   2.9121  -4.0055   3.2645  -2.9751   0.00    0.0
2019/02/12 09:02:16.000   4280236.3234  -4034432.0019  -2458269.6055   5  13   4.1930   4.7913   2.9090  -3.9981   3.2586  -2.9702   0.00    0.0
2019/02/12 09:02:41.000   4280232.0578  -4034424.7496  -2458265.9066   5  13   4.1847   4.7737   2.9023  -3.9826   3.2462  -2.9598   0.00    0.0
2019/02/12 09:02:48.000   4280213.5000  -4034406.4385  -2458265.2072   5  13   4.1823   4.7688   2.9004  -3.9782   3.2426  -2.9568   0.00    0.0
2019/02/12 09:02:49.000   4280223.4608  -4034416.3407  -2458262.1088   5  13   4.1819   4.7681   2.9001  -3.9776   3.2421  -2.9563   0.00    0.0
2019/02/12 09:03:16.000   4280229.5873  -4034421.6777  -2458267.6701   5  13   4.1725   4.7487   2.8926  -3.9602   3.2282  -2.9446   0.00    0.0
2019/02/12 09:03:29.000   4280190.7191  -4034390.7650  -2458255.3253   5  13   4.1678   4.7392   2.8890  -3.9517   3.2213  -2.9388   0.00    0.0
2019/02/12 09:03:42.000   4280221.9701  -4034421.7785  -2458268.7414   5  13   4.1631   4.7297   2.8852  -3.9431   3.2144  -2.9329   0.00    0.0
2019/02/12 09:03:44.000   4280231.1619  -4034424.0610  -2458265.8246   5  13   4.1624   4.7282   2.8846  -3.9418   3.2133  -2.9320   0.00    0.0
2019/02/12 09:03:51.000   4280232.4469  -4034429.6918  -2458262.9113   5  13   4.1598   4.7230   2.8826  -3.9371   3.2096  -2.9288   0.00    0.0
2019/02/12 09:03:52.000   4280230.6701  -4034422.0039  -2458268.5295   5  13   4.1594   4.7223   2.8823  -3.9365   3.2090  -2.9284   0.00    0.0
2019/02/12 09:04:00.000   4280233.6537  -4034421.0540  -2458272.7736   5  12   4.4498   5.5592   3.3429  -4.4866   3.9070  -3.3542   0.00    0.0
2019/02/12 09:04:01.000   4280218.5599  -4034413.9074  -2458270.0565   5  12   4.4493   5.5582   3.3425  -4.4857   3.9063  -3.3536   0.00    0.0
2019/02/12 09:04:02.000   4280216.6322  -4034406.4435  -2458268.6029   5  12   4.4488   5.5572   3.3422  -4.4849   3.9057  -3.3531   0.00    0.0
2019/02/12 09:04:04.000   4280203.4597  -4034388.4572  -2458252.1811   5  12   4.4477   5.5553   3.3415  -4.4832   3.9044  -3.3519   0.00    0.0
2019/02/12 09:04:05.000   4280231.9006  -4034423.0117  -2458274.3701   5  12   4.4472   5.5543   3.3411  -4.4823   3.9037  -3.3514   0.00    0.0
2019/02/12 09:04:10.000   4280211.6747  -4034400.6401  -2458260.6817   5  12   4.4446   5.5494   3.3394  -4.4780   3.9005  -3.3485   0.00    0.0
2019/02/12 09:04:15.000   4280207.0686  -4034409.0610  -2458263.5037   5  12   4.4420   5.5445   3.3377  -4.4736   3.8972  -3.3457   0.00    0.0
2019/02/12 09:04:16.000   4280220.6697  -4034419.0801  -2458266.6711   5  12   4.4415   5.5435   3.3373  -4.4728   3.8965  -3.3451   0.00    0.0
2019/02/12 09:04:17.000   4280203.6642  -4034403.6971  -2458258.1050   5  12   4.4409   5.5426   3.3370  -4.4719   3.8958  -3.3445   0.00    0.0
2019/02/12 09:04:19.000   4280205.9890  -4034400.0665  -2458261.7633   5  12   4.4399   5.5406   3.3363  -4.4701   3.8945  -3.3434   0.00    0.0
2019/02/12 09:04:20.000   4280221.2897  -4034410.6276  -2458259.9387   5  12   4.4393   5.5396   3.3359  -4.4693   3.8939  -3.3428   0.00    0.0
2019/02/12 09:04:23.000   4280221.6166  -4034417.2627  -2458266.3567   5  12   4.4378   5.5367   3.3349  -4.4666   3.8919  -3.3410   0.00    0.0
2019/02/12 09:04:24.000   4280225.0012  -4034427.3701  -2458274.0455   5  12   4.4372   5.5357   3.3345  -4.4658   3.8912  -3.3405   0.00    0.0
2019/02/12 09:04:26.000   4280224.0948  -4034416.4433  -2458261.3206   5  12   4.4362   5.5337   3.3338  -4.4640   3.8899  -3.3393   0.00    0.0
2019/02/12 09:04:30.000   4280217.8391  -4034424.5143  -2458267.1464   5  12   4.4340   5.5297   3.3324  -4.4605   3.8872  -3.3370   0.00    0.0
2019/02/12 09:04:45.000   4280192.5905  -4034411.4820  -2458265.7395   5  12   4.4260   5.5148   3.3270  -4.4472   3.8770  -3.3281   0.00    0.0
2019/02/12 09:04:47.000   4280228.1087  -4034425.9341  -2458278.2618   5  12   4.4249   5.5128   3.3263  -4.4454   3.8757  -3.3269   0.00    0.0
2019/02/12 09:04:48.000   4280234.9428  -4034427.9967  -2458283.7628   5  11   4.9020   5.5209   3.3417  -4.5195   3.8883  -3.4278   0.00    0.0
2019/02/12 09:04:49.000   4280217.8222  -4034413.7545  -2458276.3408   5  11   4.9018   5.5200   3.3414  -4.5187   3.8876  -3.4274   0.00    0.0
2019/02/12 09:04:52.000   4280230.8703  -4034417.8828  -2458269.1498   5  11   4.9010   5.5170   3.3404  -4.5164   3.8857  -3.4260   0.00    0.0
2019/02/12 09:04:57.000   4280239.0508  -4034417.4168  -2458270.6497   5  11   4.8996   5.5121   3.3387  -4.5125   3.8824  -3.4238   0.00    0.0
2019/02/12 09:05:10.000   4280214.2038  -4034399.1566  -2458250.8152   5  12   4.4122   5.4895   3.3178  -4.4246   3.8598  -3.3130   0.00    0.0
2019/02/12 09:05:23.000   4280203.8280  -4034399.5618  -2458250.1008   5  12   4.4050   5.4762   3.3129  -4.4127   3.8507  -3.3050   0.00    0.0
2019/02/12 09:05:31.000   4280222.2042  -4034420.9237  -2458272.7522   5  12   4.4005   5.4679   3.3098  -4.4053   3.8450  -3.3001   0.00    0.0
2019/02/12 09:05:32.000   4280213.8715  -4034400.2520  -2458263.0061   5  12   4.3999   5.4669   3.3094  -4.4044   3.8443  -3.2994   0.00    0.0
2019/02/12 09:05:34.000   4280206.0843  -4034389.0571  -2458258.4081   5  12   4.3988   5.4649   3.3087  -4.4025   3.8428  -3.2982   0.00    0.0
2019/02/12 09:05:38.000   4280212.2140  -4034392.3970  -2458258.3174   5  12   4.3965   5.4607   3.3071  -4.3988   3.8400  -3.2957   0.00    0.0
2019/02/12 09:05:41.000   4280210.1157  -4034397.2689  -2458250.9693   5  12   4.3948   5.4576   3.3060  -4.3960   3.8378  -3.2938   0.00    0.0
2019/02/12 09:05:45.000   4280220.9802  -4034401.6821  -2458255.6234   5  12   4.3925   5.4535   3.3044  -4.3922   3.8350  -3.2913   0.00    0.0
2019/02/12 09:05:46.000   4280226.8772  -4034403.6911  -2458257.0962   5  12   4.3920   5.4524   3.3040  -4.3913   3.8342  -3.2906   0.00    0.0
2019/02/12 09:05:47.000   4280225.9405  -4034420.6563  -2458266.1416   5  12   4.3914   5.4514   3.3036  -4.3904   3.8335  -3.2900   0.00    0.0
2019/02/12 09:05:51.000   4280244.5213  -4034439.5233  -2458276.2278   5  12   4.3891   5.4472   3.3021  -4.3866   3.8306  -3.2875   0.00    0.0
2019/02/12 09:06:01.000   4280226.7095  -4034416.0029  -2458258.4909   5  12   4.3833   5.4367   3.2981  -4.3772   3.8234  -3.2811   0.00    0.0
2019/02/12 09:06:02.000   4280230.2078  -4034417.2236  -2458261.7475   5  12   4.3828   5.4357   3.2977  -4.3763   3.8227  -3.2804   0.00    0.0
2019/02/12 09:06:04.000   4280233.4154  -4034439.9566  -2458278.5408   5  12   4.3816   5.4336   3.2969  -4.3744   3.8212  -3.2792   0.00    0.0
2019/02/12 09:06:06.000   4280221.9362  -4034427.3233  -2458268.4346   5  12   4.3805   5.4315   3.2961  -4.3725   3.8197  -3.2779   0.00    0.0
2019/02/12 09:06:07.000   4280239.0333  -4034435.8932  -2458274.1399   5  12   4.3799   5.4304   3.2957  -4.3715   3.8190  -3.2772   0.00    0.0
2019/02/12 09:06:22.000   4280237.8368  -4034426.5081  -2458263.7234   5  12   4.3711   5.4146   3.2897  -4.3572   3.8080  -3.2675   0.00    0.0
2019/02/12 09:06:23.000   4280225.2455  -4034428.5703  -2458270.9122   5  12   4.3705   5.4135   3.2893  -4.3563   3.8072  -3.2669   0.00    0.0
2019/02/12 09:06:24.000   4280218.0161  -4034426.0790  -2458279.3856   5  12   4.3700   5.4125   3.2889  -4.3553   3.8065  -3.2662   0.00    0.0
2019/02/12 09:06:29.000   4280213.2149  -4034406.5517  -2458265.0679   5  12   4.3670   5.4072   3.2869  -4.3505   3.8028  -3.2629   0.00    0.0
2019/02/12 09:06:32.000   4280220.1297  -4034394.6488  -2458258.4296   5  12   4.3653   5.4040   3.2857  -4.3476   3.8005  -3.2610   0.00    0.0
2019/02/12 09:06:38.000   4280226.1911  -4034415.2157  -2458265.0640   5  12   4.3617   5.3976   3.2833  -4.3418   3.7961  -3.2570   0.00    0.0
2019/02/12 09:07:04.000   4280229.8174  -4034418.0428  -2458274.6335   5  12   4.3462   5.3697   3.2725  -4.3165   3.7765  -3.2397   0.00    0.0
2019/02/12 09:07:06.000   4280214.2350  -4034395.0834  -2458255.3158   5  12   4.3451   5.3675   3.2717  -4.3145   3.7749  -3.2383   0.00    0.0
2019/02/12 09:07:08.000   4280213.3866  -4034403.2827  -2458263.2118   5  12   4.3438   5.3653   3.2709  -4.3126   3.7734  -3.2370   0.00    0.0
2019/02/12 09:07:18.000   4280214.2035  -4034401.1653  -2458258.2496   5  12   4.3378   5.3545   3.2667  -4.3027   3.7658  -3.2302   0.00    0.0
2019/02/12 09:07:19.000   4280213.2104  -4034394.0391  -2458251.9030   5  12   4.3372   5.3534   3.2662  -4.3017   3.7650  -3.2295   0.00    0.0
2019/02/12 09:07:27.000   4280230.4824  -4034427.4212  -2458272.7170   5  12   4.3324   5.3447   3.2629  -4.2938   3.7588  -3.2241   0.00    0.0
2019/02/12 09:07:28.000   4280223.7315  -4034417.9709  -2458262.6211   5  12   4.3318   5.3436   3.2624  -4.2928   3.7581  -3.2234   0.00    0.0
2019/02/12 09:07:33.000   4280218.3115  -4034405.7981  -2458259.7603   5  12   4.3287   5.3382   3.2603  -4.2879   3.7542  -3.2199   0.00    0.0
2019/02/12 09:07:35.000   4280226.2937  -4034442.1159  -2458279.2699   5  11   4.8479   5.3486   3.2811  -4.3785   3.7710  -3.3439   0.00    0.0
2019/02/12 09:07:36.000   4280228.6504  -4034432.5336  -2458264.0995   5  11   4.8475   5.3476   3.2807  -4.3776   3.7703  -3.3434   0.00    0.0
2019/02/12 09:07:38.000   4280248.7604  -4034439.1464  -2458279.9566   5  11   4.8468   5.3454   3.2800  -4.3757   3.7688  -3.3423   0.00    0.0
2019/02/12 09:07:39.000   4280221.8464  -4034423.3937  -2458262.5225   5  11   4.8464   5.3443   3.2796  -4.3748   3.7681  -3.3417   0.00    0.0
2019/02/12 09:07:43.000   4280212.1964  -4034417.8344  -2458257.3536   5  11   4.8449   5.3400   3.2780  -4.3712   3.7651  -3.3395   0.00    0.0
2019/02/12 09:07:44.000   4280204.7753  -4034401.5657  -2458256.6557   5  11   4.8445   5.3389   3.2776  -4.3703   3.7643  -3.3389   0.00    0.0
2019/02/12 09:07:46.000   4280229.6996  -4034421.5085  -2458270.0215   5  11   4.8437   5.3368   3.2768  -4.3684   3.7628  -3.3378   0.00    0.0
2019/02/12 09:07:56.000   4280219.3756  -4034411.3863  -2458261.5761   5  11   4.8399   5.3260   3.2728  -4.3592   3.7552  -3.3321   0.00    0.0
2019/02/12 09:08:06.000   4280213.2190  -4034417.8321  -2458266.3853   5  12   4.3085   5.3020   3.2461  -4.2548   3.7285  -3.1971   0.00    0.0
2019/02/12 09:08:07.000   4280228.2293  -4034445.8885  -2458275.5142   5  12   4.3079   5.3009   3.2457  -4.2538   3.7277  -3.1964   0.00    0.0
2019/02/12 09:08:10.000   4280223.5886  -4034412.4547  -2458268.0611   5  12   4.3061   5.2976   3.2444  -4.2508   3.7253  -3.1943   0.00    0.0
2019/02/12 09:08:26.000   4280202.0138  -4034384.7329  -2458262.8040   5  12   4.2962   5.2799   3.2374  -4.2346   3.7127  -3.1830   0.00    0.0
2019/02/12 09:08:36.000   4280220.3807  -4034406.8920  -2458259.9272   5  12   4.2900   5.2689   3.2330  -4.2244   3.7047  -3.1759   0.00    0.0
2019/02/12 09:08:37.000   4280213.9715  -4034408.0150  -2458262.7908   5  12   4.2893   5.2677   3.2326  -4.2234   3.7040  -3.1752   0.00    0.0
2019/02/12 09:08:38.000   4280218.0658  -4034414.8640  -2458270.5691   5  12   4.2887   5.2666   3.2321  -4.2223   3.7032  -3.1745   0.00    0.0
2019/02/12 09:08:40.000   4280226.4011  -4034420.6555  -2458269.0270   5  12   4.2875   5.2644   3.2312  -4.2203   3.7016  -3.1730   0.00    0.0
2019/02/12 09:08:42.000   4280218.8710  -4034406.7853  -2458264.7370   5  12   4.2862   5.2622   3.2304  -4.2183   3.7000  -3.1716   0.00    0.0
2019/02/12 09:08:43.000   4280205.7448  -4034408.6675  -2458264.9723   5  12   4.2856   5.2611   3.2299  -4.2172   3.6992  -3.1709   0.00    0.0
2019/02/12 09:08:48.000   4280240.9758  -4034438.4006  -2458282.3097   5  12   4.2825   5.2555   3.2277  -4.2121   3.6952  -3.1673   0.00    0.0
2019/02/12 09:08:49.000   4280222.2645  -4034421.7101  -2458266.3629   5  12   4.2819   5.2544   3.2273  -4.2111   3.6944  -3.1666   0.00    0.0
2019/02/12 09:08:52.000   4280223.6785  -4034433.4801  -2458267.0963   5  12   4.2800   5.2511   3.2259  -4.2080   3.6920  -3.1644   0.00    0.0
2019/02/12 09:08:53.000   4280222.4214  -4034422.7092  -2458262.1188   5  12   4.2794   5.2499   3.2255  -4.2070   3.6912  -3.1637   0.00    0.0
2019/02/12 09:08:58.000   4280231.4914  -4034424.4683  -2458269.0356   5  12   4.2762   5.2444   3.2233  -4.2019   3.6871  -3.1601   0.00    0.0
2019/02/12 09:09:00.000   4280213.4232  -4034401.6252  -2458264.8875   5  12   4.2750   5.2421   3.2224  -4.1998   3.6855  -3.1587   0.00    0.0
2019/02/12 09:09:11.000   4280235.3613  -4034433.8346  -2458271.4144   5  12   4.2681   5.2299   3.2175  -4.1885   3.6767  -3.1508   0.00    0.0
2019/02/12 09:09:30.000   4280226.1494  -4034430.0275  -2458274.9528   5  11   4.8011   5.2226   3.2340  -4.2694   3.6822  -3.2762   0.00    0.0
2019/02/12 09:09:32.000   4280224.8683  -4034415.5153  -2458264.3957   5  11   4.8003   5.2204   3.2331  -4.2675   3.6806  -3.2749   0.00    0.0
2019/02/12 09:09:40.000   4280233.3590  -4034412.2812  -2458268.4855   5  11   4.7968   5.2114   3.2297  -4.2596   3.6742  -3.2699   0.00    0.0
2019/02/12 09:09:41.000   4280230.7007  -4034433.0705  -2458282.8576   5  11   4.7963   5.2103   3.2293  -4.2586   3.6734  -3.2693   0.00    0.0
2019/02/12 09:09:42.000   4280215.1588  -4034407.3535  -2458269.6139   5  11   4.7959   5.2092   3.2289  -4.2576   3.6726  -3.2687   0.00    0.0
2019/02/12 09:09:44.000   4280209.7124  -4034396.1303  -2458251.5938   5  12   4.2473   5.1929   3.2026  -4.1543   3.6499  -3.1267   0.00    0.0
2019/02/12 09:09:45.000   4280203.6326  -4034392.9734  -2458248.1679   5  12   4.2467   5.1917   3.2021  -4.1532   3.6491  -3.1260   0.00    0.0
2019/02/12 09:09:50.000   4280210.8815  -4034401.0969  -2458256.6978   5  12   4.2435   5.1861   3.1999  -4.1480   3.6450  -3.1223   0.00    0.0
2019/02/12 09:09:53.000   4280197.5808  -4034398.1970  -2458253.6929   5  12   4.2416   5.1827   3.1985  -4.1449   3.6425  -3.1201   0.00    0.0
2019/02/12 09:09:54.000   4280218.7290  -4034414.5963  -2458263.3314   5  12   4.2410   5.1816   3.1980  -4.1439   3.6417  -3.1194   0.00    0.0
2019/02/12 09:10:05.000   4280219.2048  -4034410.6516  -2458261.2455   5  12   4.2340   5.1692   3.1930  -4.1324   3.6327  -3.1112   0.00    0.0
2019/02/12 09:10:08.000   4280219.2185  -4034419.1965  -2458270.4586   5  12   4.2321   5.1658   3.1917  -4.1292   3.6302  -3.1090   0.00    0.0
2019/02/12 09:10:32.000   4280218.4895  -4034410.0036  -2458261.9191   5  10   5.3068   7.3544   3.5623  -5.4652   4.6183  -3.7513   0.00    0.0
2019/02/12 09:10:36.000   4280231.9799  -4034412.5561  -2458264.9677   5  10   5.3033   7.3457   3.5595  -5.4585   4.6128  -3.7473   0.00    0.0
2019/02/12 09:10:38.000   4280218.0348  -4034413.0634  -2458262.3427   5  10   5.3016   7.3414   3.5581  -5.4551   4.6101  -3.7453   0.00    0.0
2019/02/12 09:10:45.000   4280203.8228  -4034404.9107  -2458265.0014   5  12   4.2086   5.1241   3.1747  -4.0904   3.5997  -3.0814   0.00    0.0
2019/02/12 09:10:46.000   4280195.0059  -4034392.0462  -2458257.7540   5  12   4.2080   5.1230   3.1742  -4.0893   3.5988  -3.0807   0.00    0.0
2019/02/12 09:11:02.000   4280243.3338  -4034453.2249  -2458280.6858   5  12   4.1978   5.1049   3.1668  -4.0724   3.5855  -3.0687   0.00    0.0
2019/02/12 09:11:03.000   4280218.4728  -4034420.1687  -2458272.5217   5  12   4.1972   5.1037   3.1663  -4.0714   3.5847  -3.0679   0.00    0.0
2019/02/12 09:11:09.000   4280219.1266  -4034427.2520  -2458270.0467   5  12   4.1934   5.0969   3.1636  -4.0650   3.5797  -3.0634   0.00    0.0
2019/02/12 09:11:12.000   4280211.1158  -4034418.4691  -2458260.6399   5  12   4.1915   5.0935   3.1622  -4.0618   3.5772  -3.0611   0.00    0.0
2019/02/12 09:11:21.000   4280200.7235  -4034424.3638  -2458273.5508   5  11   4.7508   5.0978   3.1857  -4.1574   3.5922  -3.2048   0.00    0.0
2019/02/12 09:11:24.000   4280221.1935  -4034415.5454  -2458259.6863   5  11   4.7494   5.0945   3.1844  -4.1543   3.5897  -3.2028   0.00    0.0
2019/02/12 09:11:28.000   4280215.4068  -4034422.0649  -2458267.0585   5  11   4.7475   5.0899   3.1826  -4.1502   3.5864  -3.2001   0.00    0.0
2019/02/12 09:11:40.000   4280225.5606  -4034423.5668  -2458267.1842   5  11   4.7418   5.0763   3.1772  -4.1377   3.5765  -3.1921   0.00    0.0
2019/02/12 09:11:41.000   4280233.3294  -4034424.0659  -2458268.5487   5  11   4.7413   5.0752   3.1768  -4.1367   3.5757  -3.1914   0.00    0.0
2019/02/12 09:11:43.000   4280204.1579  -4034396.2608  -2458257.6444   5  11   4.7403   5.0729   3.1759  -4.1346   3.5740  -3.1901   0.00    0.0
2019/02/12 09:11:54.000   4280220.8512  -4034405.1784  -2458262.5781   5  11   4.7351   5.0605   3.1710  -4.1231   3.5649  -3.1827   0.00    0.0
2019/02/12 09:11:57.000   4280221.6746  -4034409.7675  -2458271.9758   5  11   4.7336   5.0571   3.1696  -4.1200   3.5624  -3.1807   0.00    0.0
2019/02/12 09:11:58.000   4280209.7873  -4034415.0365  -2458269.4940   5  11   4.7331   5.0559   3.1692  -4.1189   3.5615  -3.1800   0.00    0.0
2019/02/12 09:11:59.000   4280208.0066  -4034403.1125  -2458261.7159   5  11   4.7327   5.0548   3.1687  -4.1179   3.5607  -3.1793   0.00    0.0
2019/02/12 09:12:00.000   4280209.9076  -4034414.6263  -2458266.6199   5  11   4.7322   5.0537   3.1683  -4.1168   3.5599  -3.1786   0.00    0.0
2019/02/12 09:12:01.000   4280224.1576  -4034411.8637  -2458259.8406   5  11   4.7317   5.0526   3.1678  -4.1158   3.5591  -3.1779   0.00    0.0
2019/02/12 09:12:13.000   4280231.4216  -4034423.6217  -2458269.4037   5  11   4.7259   5.0389   3.1624  -4.1032   3.5491  -3.1698   0.00    0.0
2019/02/12 09:12:15.000   4280233.1827  -4034423.2419  -2458267.3373   5  11   4.7249   5.0367   3.1615  -4.1011   3.5474  -3.1684   0.00    0.0
2019/02/12 09:12:22.000   4280223.9133  -4034424.5173  -2458259.0593   5  11   4.7215   5.0287   3.1584  -4.0937   3.5415  -3.1636   0.00    0.0
2019/02/12 09:12:30.000   4280238.2126  -4034431.6024  -2458268.7080   5  12   4.1420   5.0053   3.1258  -3.9789   3.5119  -3.0017   0.00    0.0
2019/02/12 09:12:34.000   4280215.0881  -4034425.4290  -2458270.4128   5  11   4.7157   5.0151   3.1530  -4.0810   3.5315  -3.1554   0.00    0.0
2019/02/12 09:12:36.000   4280241.8803  -4034432.9247  -2458270.1025   5  11   4.7147   5.0129   3.1521  -4.0789   3.5298  -3.1540   0.00    0.0
2019/02/12 09:12:38.000   4280230.6367  -4034432.7416  -2458278.8067   5  12   4.1369   4.9963   3.1220  -3.9704   3.5051  -2.9955   0.00    0.0
2019/02/12 09:12:39.000   4280244.5197  -4034438.2533  -2458283.2102   5  12   4.1363   4.9951   3.1216  -3.9693   3.5043  -2.9948   0.00    0.0
2019/02/12 09:12:46.000   4280208.4089  -4034405.0482  -2458264.8024   5  12   4.1319   4.9872   3.1183  -3.9619   3.4984  -2.9894   0.00    0.0
2019/02/12 09:12:48.000   4280203.5932  -4034400.9353  -2458252.7347   5  12   4.1306   4.9850   3.1174  -3.9597   3.4967  -2.9878   0.00    0.0
2019/02/12 09:13:02.000   4280228.1787  -4034412.3541  -2458260.2294   5  12   4.1218   4.9692   3.1108  -3.9448   3.4849  -2.9770   0.00    0.0
2019/02/12 09:13:06.000   4280223.0009  -4034416.9267  -2458260.9845   5  12   4.1192   4.9647   3.1089  -3.9405   3.4815  -2.9739   0.00    0.0
2019/02/12 09:13:07.000   4280224.7083  -4034418.6504  -2458263.5138   5  11   4.6994   4.9777   3.1381  -4.0460   3.5038  -3.1326   0.00    0.0
2019/02/12 09:13:09.000   4280210.3589  -4034404.7998  -2458261.1458   5  12   4.1174   4.9613   3.1075  -3.9373   3.4790  -2.9716   0.00    0.0
2019/02/12 09:13:10.000   4280213.1278  -4034403.0242  -2458255.2779   5  11   4.6979   4.9744   3.1367  -4.0428   3.5013  -3.1305   0.00    0.0
2019/02/12 09:13:11.000   4280219.7163  -4034411.2957  -2458268.8979   5  11   4.6974   4.9732   3.1362  -4.0417   3.5005  -3.1298   0.00    0.0
2019/02/12 09:13:12.000   4280203.4779  -4034388.9609  -2458249.3492   5  11   4.6969   4.9721   3.1358  -4.0406   3.4996  -3.1291   0.00    0.0
2019/02/12 09:13:13.000   4280212.0904  -4034397.9250  -2458253.9322   5  11   4.6964   4.9710   3.1353  -4.0396   3.4988  -3.1284   0.00    0.0
2019/02/12 09:13:17.000   4280218.4773  -4034412.7086  -2458266.9848   5  12   4.1123   4.9523   3.1038  -3.9288   3.4723  -2.9654   0.00    0.0
2019/02/12 09:13:18.000   4280209.8923  -4034406.0263  -2458259.8358   5  11   4.6940   4.9653   3.1331  -4.0342   3.4946  -3.1249   0.00    0.0
2019/02/12 09:13:19.000   4280205.9320  -4034405.3839  -2458270.0900   5  11   4.6935   4.9642   3.1326  -4.0332   3.4937  -3.1242   0.00    0.0
2019/02/12 09:13:21.000   4280223.5177  -4034402.4085  -2458268.1339   5  11   4.6925   4.9619   3.1317  -4.0310   3.4921  -3.1228   0.00    0.0
2019/02/12 09:13:22.000   4280218.7463  -4034416.6459  -2458264.6850   5  12   4.1092   4.9466   3.1014  -3.9234   3.4680  -2.9616   0.00    0.0
2019/02/12 09:13:24.000   4280236.7086  -4034428.8853  -2458276.3646   5  11   4.6910   4.9585   3.1303  -4.0278   3.4895  -3.1207   0.00    0.0
2019/02/12 09:13:25.000   4280232.0807  -4034427.3395  -2458278.6474   5  11   4.6905   4.9574   3.1299  -4.0267   3.4887  -3.1200   0.00    0.0
2019/02/12 09:13:26.000   4280219.7269  -4034436.9159  -2458280.2167   5  11   4.6900   4.9562   3.1294  -4.0257   3.4878  -3.1193   0.00    0.0
2019/02/12 09:13:29.000   4280247.1854  -4034454.8341  -2458287.0576   5  11   4.6885   4.9528   3.1281  -4.0224   3.4853  -3.1172   0.00    0.0
2019/02/12 09:13:34.000   4280222.1726  -4034417.9643  -2458269.6971   5  11   4.6860   4.9472   3.1258  -4.0171   3.4811  -3.1136   0.00    0.0
2019/02/12 09:13:35.000   4280231.0708  -4034434.2814  -2458275.5131   5  11   4.6855   4.9461   3.1253  -4.0160   3.4803  -3.1129   0.00    0.0
2019/02/12 09:13:41.000   4280236.8897  -4034440.0698  -2458273.3544   5  11   4.6825   4.9393   3.1226  -4.0096   3.4752  -3.1087   0.00    0.0
2019/02/12 09:13:42.000   4280216.4333  -4034433.5770  -2458277.9907   5  11   4.6820   4.9381   3.1222  -4.0085   3.4743  -3.1080   0.00    0.0
2019/02/12 09:13:44.000   4280217.2231  -4034402.0653  -2458265.6819   5  11   4.6810   4.9359   3.1213  -4.0063   3.4727  -3.1066   0.00    0.0
2019/02/12 09:13:53.000   4280211.4693  -4034411.8903  -2458267.4310   5  12   4.0898   4.9118   3.0869  -3.8903   3.4419  -2.9375   0.00    0.0
2019/02/12 09:14:13.000   4280222.8271  -4034409.3953  -2458269.3945   5  11   4.6664   4.9032   3.1081  -3.9751   3.4482  -3.0860   0.00    0.0
2019/02/12 09:14:49.000   4280218.8541  -4034407.6726  -2458261.6993   5  12   4.0551   4.8493   3.0608  -3.8306   3.3947  -2.8939   0.00    0.0
2019/02/12 09:14:50.000   4280213.6872  -4034413.3562  -2458272.7841   5  11   4.6477   4.8616   3.0912  -3.9349   3.4169  -3.0596   0.00    0.0
2019/02/12 09:14:51.000   4280224.8305  -4034397.7274  -2458261.1740   5  12   4.0539   4.8471   3.0599  -3.8285   3.3930  -2.8924   0.00    0.0
2019/02/12 09:15:00.000   4280221.4334  -4034411.2188  -2458266.0415   5  12   4.0484   4.8371   3.0557  -3.8189   3.3854  -2.8854   0.00    0.0
2019/02/12 09:15:03.000   4280205.4970  -4034398.6218  -2458257.0861   5  12   4.0465   4.8338   3.0543  -3.8157   3.3829  -2.8830   0.00    0.0
2019/02/12 09:15:22.000   4280212.4111  -4034410.3770  -2458256.9584   5  11   4.6315   4.8258   3.0767  -3.9001   3.3898  -3.0365   0.00    0.0
2019/02/12 09:15:23.000   4280208.2682  -4034397.4660  -2458252.2780   5  11   4.6310   4.8247   3.0762  -3.8990   3.3890  -3.0358   0.00    0.0
2019/02/12 09:15:24.000   4280222.5757  -4034414.4145  -2458264.7194   5  11   4.6304   4.8235   3.0757  -3.8979   3.3881  -3.0350   0.00    0.0
2019/02/12 09:15:25.000   4280220.3878  -4034418.4738  -2458261.1489   5  11   4.6299   4.8224   3.0753  -3.8968   3.3873  -3.0343   0.00    0.0
2019/02/12 09:15:26.000   4280228.5459  -4034419.9045  -2458260.5593   5  11   4.6294   4.8213   3.0748  -3.8957   3.3864  -3.0336   0.00    0.0
2019/02/12 09:15:28.000   4280215.7192  -4034423.0755  -2458259.7721   5  11   4.6284   4.8191   3.0739  -3.8935   3.3847  -3.0321   0.00    0.0
2019/02/12 09:15:30.000   4280223.2403  -4034428.5945  -2458268.7762   5  11   4.6274   4.8168   3.0730  -3.8913   3.3830  -3.0307   0.00    0.0
2019/02/12 09:15:37.000   4280224.2001  -4034431.5778  -2458270.7771   5  11   4.6238   4.8091   3.0698  -3.8837   3.3771  -3.0256   0.00    0.0
2019/02/12 09:15:44.000   4280225.0719  -4034423.9183  -2458260.5901   5  11   4.6203   4.8013   3.0667  -3.8760   3.3712  -3.0205   0.00    0.0
2019/02/12 09:15:45.000   4280225.0401  -4034414.1502  -2458256.5086   5  11   4.6198   4.8002   3.0662  -3.8749   3.3703  -3.0198   0.00    0.0
2019/02/12 09:15:50.000   4280224.8270  -4034425.2700  -2458269.3776   5  11   4.6172   4.7946   3.0639  -3.8695   3.3661  -3.0162   0.00    0.0
2019/02/12 09:15:54.000   4280220.0329  -4034425.1931  -2458269.2527   5  12   4.0156   4.7776   3.0307  -3.7616   3.3401  -2.8432   0.00    0.0
2019/02/12 09:16:08.000   4280212.1569  -4034399.8071  -2458267.0547   5  11   4.6080   4.7747   3.0558  -3.8497   3.3509  -3.0031   0.00    0.0
2019/02/12 09:16:20.000   4280206.4837  -4034402.7676  -2458254.2052   5  12   4.0001   4.7492   3.0187  -3.7341   3.3183  -2.8229   0.00    0.0
2019/02/12 09:16:29.000   4280212.9688  -4034400.9967  -2458256.1987   5  12   3.9947   4.7394   3.0146  -3.7246   3.3108  -2.8159   0.00    0.0
2019/02/12 09:16:32.000   4280226.7849  -4034411.7406  -2458262.1384   5  12   3.9930   4.7361   3.0132  -3.7214   3.3083  -2.8136   0.00    0.0
2019/02/12 09:16:33.000   4280225.3443  -4034415.6567  -2458262.7489   5  12   3.9924   4.7350   3.0128  -3.7204   3.3075  -2.8128   0.00    0.0
2019/02/12 09:16:34.000   4280214.0047  -4034405.6171  -2458262.3883   5  12   3.9918   4.7339   3.0123  -3.7193   3.3066  -2.8120   0.00    0.0
2019/02/12 09:16:40.000   4280218.1500  -4034393.9308  -2458256.2450   5  12   3.9882   4.7274   3.0096  -3.7130   3.3017  -2.8074   0.00    0.0
2019/02/12 09:16:50.000   4280209.2148  -4034402.1127  -2458259.0212   5  11   4.5867   4.7284   3.0368  -3.8037   3.3155  -2.9723   0.00    0.0
2019/02/12 09:16:51.000   4280201.8803  -4034415.2473  -2458269.1546   5  11   4.5862   4.7273   3.0364  -3.8026   3.3146  -2.9716   0.00    0.0
2019/02/12 09:17:03.000   4280221.5662  -4034416.1238  -2458271.5112   5  11   4.5801   4.7142   3.0310  -3.7894   3.3045  -2.9628   0.00    0.0
2019/02/12 09:17:10.000   4280232.3268  -4034416.0773  -2458259.6585   5  12   3.9707   4.6950   2.9960  -3.6815   3.2767  -2.7840   0.00    0.0
2019/02/12 09:17:11.000   4280239.4536  -4034434.6464  -2458277.1741   5  12   3.9701   4.6940   2.9955  -3.6805   3.2759  -2.7832   0.00    0.0
2019/02/12 09:17:18.000   4280250.3200  -4034432.6285  -2458267.5525   5  11   4.5724   4.6978   3.0243  -3.7729   3.2919  -2.9517   0.00    0.0
2019/02/12 09:17:25.000   4280227.4223  -4034433.8828  -2458271.0873   5  11   4.5689   4.6902   3.0211  -3.7652   3.2860  -2.9466   0.00    0.0
2019/02/12 09:17:52.000   4280214.7037  -4034423.2956  -2458270.9872   5  11   4.5552   4.6610   3.0091  -3.7356   3.2634  -2.9267   0.00    0.0
2019/02/12 09:17:59.000   4280231.6949  -4034427.7238  -2458274.2616   5  11   4.5517   4.6534   3.0060  -3.7279   3.2575  -2.9215   0.00    0.0
2019/02/12 09:18:04.000   4280218.4983  -4034419.1063  -2458266.2086   5  11   4.5492   4.6481   3.0038  -3.7224   3.2534  -2.9178   0.00    0.0
2019/02/12 09:18:10.000   4280202.7744  -4034398.4454  -2458268.3316   5  11   4.5461   4.6416   3.0011  -3.7158   3.2484  -2.9134   0.00    0.0
2019/02/12 09:18:12.000   4280222.8092  -4034407.1732  -2458261.1075   5  10   4.8927   6.3703   3.2334  -4.6580   3.9754  -3.2654   0.00    0.0
2019/02/12 09:18:14.000   4280218.6795  -4034397.1725  -2458262.0245   5  10   4.8910   6.3663   3.2320  -4.6546   3.9727  -3.2632   0.00    0.0
2019/02/12 09:18:17.000   4280229.1849  -4034410.1883  -2458268.8375   5  10   4.8884   6.3602   3.2300  -4.6493   3.9686  -3.2600   0.00    0.0
2019/02/12 09:18:21.000   4280218.6394  -4034403.7217  -2458261.3824   5  10   4.8849   6.3522   3.2272  -4.6424   3.9632  -3.2558   0.00    0.0
2019/02/12 09:18:24.000   4280222.0455  -4034409.1067  -2458267.2700   5  11   4.5391   4.6266   2.9949  -3.7004   3.2367  -2.9030   0.00    0.0
2019/02/12 09:18:27.000   4280217.4423  -4034414.3884  -2458260.6943   5  11   4.5376   4.6234   2.9936  -3.6971   3.2342  -2.9008   0.00    0.0
2019/02/12 09:18:33.000   4280214.8303  -4034425.3083  -2458272.9090   5  11   4.5346   4.6170   2.9910  -3.6905   3.2292  -2.8963   0.00    0.0
2019/02/12 09:18:44.000   4280219.4739  -4034422.2613  -2458260.8511   5  11   4.5291   4.6053   2.9861  -3.6784   3.2201  -2.8882   0.00    0.0
2019/02/12 09:18:49.000   4280245.5478  -4034437.0044  -2458282.6895   5  11   4.5266   4.6000   2.9839  -3.6730   3.2159  -2.8845   0.00    0.0
2019/02/12 09:18:50.000   4280235.6743  -4034430.9487  -2458278.5004   5  11   4.5261   4.5989   2.9835  -3.6719   3.2151  -2.8838   0.00    0.0
2019/02/12 09:18:52.000   4280220.2297  -4034431.9586  -2458269.4664   5  11   4.5251   4.5968   2.9826  -3.6697   3.2134  -2.8823   0.00    0.0
2019/02/12 09:18:57.000   4280222.0036  -4034427.0178  -2458271.6587   5  11   4.5226   4.5915   2.9804  -3.6642   3.2093  -2.8786   0.00    0.0
2019/02/12 09:18:58.000   4280218.7316  -4034426.9051  -2458270.4414   5  11   4.5221   4.5905   2.9800  -3.6631   3.2085  -2.8778   0.00    0.0
2019/02/12 09:19:01.000   4280226.2228  -4034426.5906  -2458270.1000   5  11   4.5206   4.5873   2.9787  -3.6598   3.2060  -2.8756   0.00    0.0
2019/02/12 09:19:02.000   4280224.1276  -4034436.4913  -2458273.2226   5  11   4.5201   4.5862   2.9782  -3.6587   3.2052  -2.8749   0.00    0.0
2019/02/12 09:19:03.000   4280216.9881  -4034431.8789  -2458269.4088   5  11   4.5196   4.5852   2.9778  -3.6576   3.2043  -2.8741   0.00    0.0
2019/02/12 09:19:04.000   4280236.5576  -4034449.9530  -2458278.3408   5  11   4.5191   4.5841   2.9774  -3.6565   3.2035  -2.8734   0.00    0.0
2019/02/12 09:19:07.000   4280215.2597  -4034421.6606  -2458264.4976   5  11   4.5176   4.5810   2.9761  -3.6532   3.2010  -2.8712   0.00    0.0
2019/02/12 09:19:09.000   4280218.0417  -4034428.2365  -2458269.7336   5  11   4.5166   4.5789   2.9752  -3.6510   3.1994  -2.8697   0.00    0.0
2019/02/12 09:19:10.000   4280207.4128  -4034428.5451  -2458271.8922   5  11   4.5161   4.5778   2.9748  -3.6499   3.1985  -2.8690   0.00    0.0
2019/02/12 09:19:11.000   4280207.1144  -4034417.9608  -2458266.4156   5  11   4.5156   4.5768   2.9743  -3.6488   3.1977  -2.8682   0.00    0.0
2019/02/12 09:19:36.000   4280236.7773  -4034442.5067  -2458271.6986   5  11   4.4738   6.1606   3.1734  -4.6554   3.8767  -3.1340   0.00    0.0
2019/02/12 09:19:39.000   4280208.4277  -4034406.1336  -2458264.5268   5  12   3.8872   4.5385   2.9302  -3.5275   3.1551  -2.6686   0.00    0.0
2019/02/12 09:19:41.000   4280203.2227  -4034403.6150  -2458255.8932   5  11   4.5008   4.5453   2.9613  -3.6160   3.1730  -2.8460   0.00    0.0
2019/02/12 09:19:46.000   4280225.1582  -4034432.0667  -2458270.1226   5  11   4.4983   4.5401   2.9592  -3.6105   3.1689  -2.8423   0.00    0.0
2019/02/12 09:19:48.000   4280232.6361  -4034445.0068  -2458272.5744   5  11   4.4973   4.5381   2.9583  -3.6083   3.1673  -2.8408   0.00    0.0
2019/02/12 09:19:49.000   4280226.2244  -4034435.6576  -2458270.4112   5  11   4.4968   4.5370   2.9579  -3.6072   3.1664  -2.8401   0.00    0.0
2019/02/12 09:19:57.000   4280233.8280  -4034434.0374  -2458270.6216   5  11   4.4929   4.5287   2.9545  -3.5985   3.1599  -2.8341   0.00    0.0
2019/02/12 09:20:05.000   4280215.6846  -4034421.9927  -2458265.2925   5  11   4.4890   4.5204   2.9510  -3.5898   3.1533  -2.8282   0.00    0.0
2019/02/12 09:20:14.000   4280217.3095  -4034429.8659  -2458276.2189   5  11   4.4846   4.5111   2.9472  -3.5799   3.1460  -2.8216   0.00    0.0
2019/02/12 09:20:22.000   4280223.0159  -4034423.8966  -2458270.4961   5  11   4.4807   4.5029   2.9438  -3.5712   3.1395  -2.8156   0.00    0.0
2019/02/12 09:20:23.000   4280202.5800  -4034418.0067  -2458260.2282   5  11   4.4802   4.5019   2.9434  -3.5701   3.1387  -2.8149   0.00    0.0
2019/02/12 09:20:30.000   4280213.0396  -4034413.3022  -2458253.8715   5  10   4.7127   5.0399   3.0495  -4.0060   3.4144  -3.0141   0.00    0.0
2019/02/12 09:20:43.000   4280207.8082  -4034405.6193  -2458269.8445   5  10   4.7651   6.0746   3.1335  -4.3994   3.7751  -3.1066   0.00    0.0
2019/02/12 09:20:48.000   4280206.0043  -4034403.0474  -2458259.0849   5  10   4.7610   6.0651   3.1303  -4.3910   3.7686  -3.1015   0.00    0.0
2019/02/12 09:20:49.000   4280206.8146  -4034420.4384  -2458262.0163   5  10   4.7602   6.0632   3.1296  -4.3893   3.7673  -3.1004   0.00    0.0
2019/02/12 09:20:50.000   4280208.4324  -4034415.8009  -2458262.4672   5  11   4.4671   4.4743   2.9319  -3.5407   3.1168  -2.7949   0.00    0.0
2019/02/12 09:21:02.000   4280247.8106  -4034465.7808  -2458290.8045   5  11   4.4613   4.4622   2.9269  -3.5277   3.1071  -2.7860   0.00    0.0
2019/02/12 09:21:24.000   4280236.3243  -4034445.6670  -2458277.3400   5  11   4.4508   4.4400   2.9177  -3.5038   3.0894  -2.7698   0.00    0.0
2019/02/12 09:21:28.000   4280239.3853  -4034448.8963  -2458280.9769   5  11   4.4489   4.4360   2.9161  -3.4995   3.0862  -2.7668   0.00    0.0
2019/02/12 09:21:38.000   4280228.1429  -4034420.1328  -2458260.8090   5  11   4.4442   4.4260   2.9119  -3.4887   3.0782  -2.7595   0.00    0.0
2019/02/12 09:21:42.000   4280222.8792  -4034407.5907  -2458259.5732   5  11   4.4423   4.4220   2.9103  -3.4844   3.0750  -2.7565   0.00    0.0
2019/02/12 09:21:43.000   4280202.6360  -4034414.1095  -2458257.7499   5  11   4.4418   4.4210   2.9099  -3.4833   3.0742  -2.7558   0.00    0.0
2019/02/12 09:21:44.000   4280210.5679  -4034411.6077  -2458255.5676   5  11   4.4414   4.4200   2.9095  -3.4822   3.0734  -2.7550   0.00    0.0
2019/02/12 09:21:45.000   4280210.7171  -4034411.8762  -2458262.8154   5  11   4.4409   4.4191   2.9091  -3.4811   3.0726  -2.7543   0.00    0.0
2019/02/12 09:22:02.000   4280221.4158  -4034412.2656  -2458267.6728   5  11   4.4329   4.4022   2.9021  -3.4628   3.0591  -2.7418   0.00    0.0
2019/02/12 09:22:03.000   4280210.9520  -4034405.8276  -2458267.6099   5  11   4.4325   4.4012   2.9017  -3.4617   3.0583  -2.7410   0.00    0.0
2019/02/12 09:22:04.000   4280206.9937  -4034405.0351  -2458260.6610   5  11   4.4320   4.4002   2.9013  -3.4606   3.0575  -2.7403   0.00    0.0
2019/02/12 09:22:05.000   4280212.3689  -4034408.1333  -2458259.2449   5  11   4.4315   4.3993   2.9009  -3.4595   3.0567  -2.7396   0.00    0.0
2019/02/12 09:22:06.000   4280216.8482  -4034412.9538  -2458263.3792   5  11   4.4311   4.3983   2.9005  -3.4585   3.0559  -2.7388   0.00    0.0
2019/02/12 09:22:11.000   4280222.0122  -4034417.0220  -2458261.7426   5  11   4.4287   4.3934   2.8984  -3.4531   3.0519  -2.7352   0.00    0.0
2019/02/12 09:22:19.000   4280229.2598  -4034433.1071  -2458266.7940   5  11   4.4250   4.3855   2.8952  -3.4445   3.0456  -2.7293   0.00    0.0
2019/02/12 09:22:24.000   4280222.3016  -4034427.0229  -2458271.7987   5  11   4.4227   4.3806   2.8931  -3.4391   3.0416  -2.7256   0.00    0.0
2019/02/12 09:22:31.000   4280219.0820  -4034428.4404  -2458268.9902   5  11   4.4194   4.3738   2.8903  -3.4316   3.0361  -2.7205   0.00    0.0
2019/02/12 09:22:34.000   4280225.5536  -4034442.1530  -2458271.5878   5  11   4.4181   4.3709   2.8891  -3.4283   3.0338  -2.7183   0.00    0.0
2019/02/12 09:22:38.000   4280238.4197  -4034442.5172  -2458281.5969   5  11   4.4162   4.3670   2.8875  -3.4241   3.0306  -2.7153   0.00    0.0
2019/02/12 09:22:40.000   4280249.6694  -4034440.9001  -2458275.7685   5  11   4.4153   4.3650   2.8867  -3.4219   3.0290  -2.7138   0.00    0.0
2019/02/12 09:22:41.000   4280250.8641  -4034449.1168  -2458276.6494   5  11   4.4148   4.3640   2.8863  -3.4208   3.0283  -2.7131   0.00    0.0
2019/02/12 09:22:42.000   4280234.4787  -4034433.4352  -2458276.2709   5  11   4.4144   4.3631   2.8859  -3.4198   3.0275  -2.7124   0.00    0.0
2019/02/12 09:22:43.000   4280238.2395  -4034430.1728  -2458264.1078   5  11   4.4139   4.3621   2.8855  -3.4187   3.0267  -2.7116   0.00    0.0
2019/02/12 09:22:46.000   4280209.4399  -4034415.7650  -2458268.1061   5  11   4.4126   4.3592   2.8843  -3.4155   3.0243  -2.7094   0.00    0.0
2019/02/12 09:22:50.000   4280219.8626  -4034423.3188  -2458267.7601   5  11   4.4107   4.3553   2.8827  -3.4112   3.0212  -2.7065   0.00    0.0
2019/02/12 09:22:51.000   4280210.7430  -4034425.3478  -2458270.6051   5  11   4.4103   4.3544   2.8823  -3.4101   3.0204  -2.7058   0.00    0.0
2019/02/12 09:22:52.000   4280215.5574  -4034406.7050  -2458263.8431   5  11   4.4098   4.3534   2.8819  -3.4091   3.0196  -2.7051   0.00    0.0
2019/02/12 09:22:53.000   4280220.3501  -4034423.7311  -2458272.3323   5  11   4.4093   4.3524   2.8815  -3.4080   3.0188  -2.7043   0.00    0.0
2019/02/12 09:22:55.000   4280219.7102  -4034421.5982  -2458274.0843   5  11   4.4084   4.3505   2.8807  -3.4058   3.0173  -2.7029   0.00    0.0
2019/02/12 09:22:56.000   4280222.3529  -4034417.8181  -2458272.9267   5  11   4.4080   4.3495   2.8803  -3.4048   3.0165  -2.7021   0.00    0.0
2019/02/12 09:22:58.000   4280233.5016  -4034420.5773  -2458275.7545   5  11   4.4071   4.3476   2.8795  -3.4026   3.0149  -2.7007   0.00    0.0
2019/02/12 09:22:59.000   4280217.2421  -4034410.5423  -2458267.0783   5  11   4.4066   4.3467   2.8791  -3.4016   3.0142  -2.6999   0.00    0.0
2019/02/12 09:23:00.000   4280223.9799  -4034414.2821  -2458269.2921   5  11   4.4062   4.3457   2.8787  -3.4005   3.0134  -2.6992   0.00    0.0
2019/02/12 09:23:01.000   4280194.2454  -4034380.9974  -2458251.0492   5  11   4.4057   4.3447   2.8783  -3.3994   3.0126  -2.6985   0.00    0.0
2019/02/12 09:23:04.000   4280225.5949  -4034401.3885  -2458260.7086   5  11   4.4043   4.3419   2.8771  -3.3962   3.0103  -2.6963   0.00    0.0
2019/02/12 09:23:06.000   4280222.2781  -4034407.1836  -2458269.0525   5  11   4.4034   4.3399   2.8763  -3.3941   3.0087  -2.6948   0.00    0.0
2019/02/12 09:23:09.000   4280209.2664  -4034391.7416  -2458262.9608   5  11   4.4021   4.3371   2.8751  -3.3909   3.0064  -2.6926   0.00    0.0
2019/02/12 09:23:10.000   4280212.3434  -4034388.4667  -2458255.6281   5  11   4.4016   4.3361   2.8748  -3.3898   3.0056  -2.6919   0.00    0.0
2019/02/12 09:23:11.000   4280214.4987  -4034402.5697  -2458262.2999   5  11   4.4012   4.3351   2.8744  -3.3888   3.0048  -2.6911   0.00    0.0
2019/02/12 09:23:12.000   4280215.1675  -4034395.6589  -2458260.1890   5  11   4.4007   4.3342   2.8740  -3.3877   3.0040  -2.6904   0.00    0.0
2019/02/12 09:23:13.000   4280218.4377  -4034396.7350  -2458259.3922   5  11   4.4003   4.3332   2.8736  -3.3866   3.0032  -2.6897   0.00    0.0
2019/02/12 09:23:14.000   4280212.9706  -4034392.1558  -2458262.1414   5  11   4.3998   4.3323   2.8732  -3.3856   3.0025  -2.6889   0.00    0.0
2019/02/12 09:23:17.000   4280209.7395  -4034389.0336  -2458258.5288   5  11   4.3985   4.3294   2.8720  -3.3824   3.0001  -2.6868   0.00    0.0
2019/02/12 09:23:19.000   4280227.8736  -4034417.3957  -2458263.0214   5  11   4.3976   4.3275   2.8712  -3.3802   2.9986  -2.6853   0.00    0.0
2019/02/12 09:23:20.000   4280228.0659  -4034413.5654  -2458264.8582   5  11   4.3971   4.3265   2.8708  -3.3792   2.9978  -2.6846   0.00    0.0
2019/02/12 09:23:26.000   4280210.6516  -4034393.0278  -2458254.5048   5  11   4.3944   4.3208   2.8684  -3.3728   2.9932  -2.6802   0.00    0.0
2019/02/12 09:23:27.000   4280219.1771  -4034417.2051  -2458266.7155   5  11   4.3940   4.3199   2.8680  -3.3717   2.9924  -2.6794   0.00    0.0
2019/02/12 09:23:28.000   4280207.1138  -4034407.0243  -2458262.6813   5  11   4.3935   4.3189   2.8677  -3.3706   2.9916  -2.6787   0.00    0.0
2019/02/12 09:23:29.000   4280205.7349  -4034398.6523  -2458258.3268   5  11   4.3931   4.3180   2.8673  -3.3696   2.9908  -2.6780   0.00    0.0
