% program   : RTKPOST ver.2.4.2
% inp file  : D:\Google Drive\UERJ\_Projeto Final\Python\tcc-guilherme\20190115_Levantamento_8min_Original.19o
% inp file  : D:\Google Drive\UERJ\_Projeto Final\20190115_Marco 91500 IBGE\brdm0150.19p
% obs start : 2019/01/15 09:34:43.0 GPST (week2036 207283.0s)
% obs end   : 2019/01/15 09:52:37.0 GPST (week2036 208357.0s)
% pos mode  : single
% elev mask : 15.0 deg
% ionos opt : broadcast
% tropo opt : saastamoinen
% ephemeris : broadcast
% navi sys  : gps glonass
%
% (x/y/z-ecef=WGS84,Q=1:fix,2:float,3:sbas,4:dgps,5:single,6:ppp,ns=# of satellites)
%  GPST                      x-ecef(m)      y-ecef(m)      z-ecef(m)   Q  ns   sdx(m)   sdy(m)   sdz(m)  sdxy(m)  sdyz(m)  sdzx(m) age(s)  ratio
2019/01/15 09:34:46.000   4280216.6892  -4034402.5879  -2458269.4009   5  12   4.1976   3.6678   4.0391  -3.2847   2.9001  -2.8896   0.00    0.0
2019/01/15 09:34:47.000   4280229.7927  -4034419.3086  -2458272.6114   5  12   4.1976   3.6675   4.0387  -3.2845   2.8997  -2.8890   0.00    0.0
2019/01/15 09:34:51.000   4280216.8760  -4034400.0096  -2458272.0763   5  12   4.1976   3.6667   4.0372  -3.2839   2.8981  -2.8869   0.00    0.0
2019/01/15 09:34:53.000   4280217.2239  -4034412.6468  -2458272.3818   5  12   4.1976   3.6662   4.0365  -3.2835   2.8974  -2.8858   0.00    0.0
2019/01/15 09:34:54.000   4280211.9012  -4034412.3363  -2458270.0370   5  12   4.1976   3.6660   4.0361  -3.2834   2.8970  -2.8852   0.00    0.0
2019/01/15 09:34:55.000   4280211.2239  -4034409.2901  -2458272.6771   5  12   4.1977   3.6658   4.0357  -3.2832   2.8966  -2.8847   0.00    0.0
2019/01/15 09:35:06.000   4280217.3960  -4034419.0013  -2458268.7313   5  12   4.1977   3.6634   4.0316  -3.2814   2.8922  -2.8786   0.00    0.0
2019/01/15 09:35:07.000   4280223.8635  -4034425.2727  -2458270.5631   5  12   4.1977   3.6632   4.0312  -3.2812   2.8918  -2.8781   0.00    0.0
2019/01/15 09:35:09.000   4280203.8605  -4034410.0714  -2458249.6681   5  12   4.1977   3.6628   4.0305  -3.2809   2.8911  -2.8770   0.00    0.0
2019/01/15 09:35:21.000   4280229.4451  -4034424.9320  -2458269.3623   5  12   4.1978   3.6602   4.0260  -3.2789   2.8863  -2.8704   0.00    0.0
2019/01/15 09:35:26.000   4280234.6772  -4034425.3112  -2458271.6355   5  12   4.1978   3.6591   4.0241  -3.2781   2.8843  -2.8676   0.00    0.0
2019/01/15 09:35:39.000   4280220.2910  -4034407.6268  -2458258.7631   5  12   4.1979   3.6563   4.0192  -3.2760   2.8792  -2.8605   0.00    0.0
2019/01/15 09:35:46.000   4280213.3527  -4034404.6955  -2458263.0176   5  12   4.1980   3.6549   4.0165  -3.2749   2.8765  -2.8566   0.00    0.0
2019/01/15 09:35:48.000   4280216.7832  -4034411.7093  -2458271.4256   5  12   4.1980   3.6544   4.0157  -3.2745   2.8757  -2.8555   0.00    0.0
2019/01/15 09:36:26.000   4280205.9955  -4034386.3147  -2458256.5365   5  12   4.1986   3.6465   4.0012  -3.2685   2.8607  -2.8345   0.00    0.0
2019/01/15 09:36:33.000   4280208.3879  -4034423.4941  -2458279.4363   5  12   4.1987   3.6451   3.9985  -3.2674   2.8580  -2.8306   0.00    0.0
2019/01/15 09:36:34.000   4280205.0596  -4034410.1738  -2458271.5926   5  12   4.1987   3.6449   3.9981  -3.2673   2.8576  -2.8300   0.00    0.0
2019/01/15 09:36:38.000   4280226.6004  -4034423.6909  -2458272.4614   5  12   4.1988   3.6440   3.9966  -3.2667   2.8560  -2.8278   0.00    0.0
2019/01/15 09:36:43.000   4280227.8262  -4034421.5782  -2458264.2268   5  12   4.1989   3.6430   3.9947  -3.2659   2.8540  -2.8250   0.00    0.0
2019/01/15 09:37:16.000   4280222.1612  -4034424.1913  -2458278.1030   5  12   4.1996   3.6363   3.9818  -3.2609   2.8411  -2.8066   0.00    0.0
2019/01/15 09:37:18.000   4280221.5532  -4034422.2628  -2458277.4805   5  12   4.1996   3.6359   3.9811  -3.2606   2.8403  -2.8055   0.00    0.0
2019/01/15 09:37:19.000   4280221.0917  -4034410.5126  -2458271.4769   5  12   4.1997   3.6358   3.9807  -3.2604   2.8399  -2.8050   0.00    0.0
2019/01/15 09:37:24.000   4280225.8163  -4034434.5851  -2458269.7110   5  12   4.1998   3.6348   3.9787  -3.2597   2.8379  -2.8022   0.00    0.0
2019/01/15 09:37:29.000   4280237.1883  -4034424.1243  -2458282.6794   5  12   4.1999   3.6338   3.9768  -3.2589   2.8360  -2.7994   0.00    0.0
2019/01/15 09:37:33.000   4280229.1136  -4034429.8461  -2458269.0758   5  12   4.2000   3.6330   3.9752  -3.2583   2.8344  -2.7971   0.00    0.0
2019/01/15 09:37:35.000   4280227.9911  -4034416.5457  -2458269.6653   5  12   4.2001   3.6326   3.9744  -3.2580   2.8336  -2.7960   0.00    0.0
2019/01/15 09:37:36.000   4280230.3865  -4034419.6983  -2458270.5198   5  12   4.2001   3.6324   3.9740  -3.2579   2.8332  -2.7955   0.00    0.0
2019/01/15 09:37:37.000   4280225.0740  -4034424.9701  -2458269.1684   5  12   4.2001   3.6322   3.9736  -3.2577   2.8328  -2.7949   0.00    0.0
2019/01/15 09:37:41.000   4280229.8785  -4034417.9414  -2458272.7000   5  12   4.2002   3.6314   3.9721  -3.2571   2.8313  -2.7927   0.00    0.0
2019/01/15 09:37:42.000   4280225.0312  -4034416.4841  -2458265.9996   5  12   4.2003   3.6312   3.9717  -3.2570   2.8309  -2.7921   0.00    0.0
2019/01/15 09:37:44.000   4280228.9421  -4034414.9287  -2458258.6660   5  12   4.2003   3.6308   3.9709  -3.2567   2.8301  -2.7910   0.00    0.0
2019/01/15 09:37:45.000   4280227.1087  -4034417.4621  -2458266.0052   5  12   4.2004   3.6306   3.9705  -3.2565   2.8297  -2.7904   0.00    0.0
2019/01/15 09:37:47.000   4280218.6838  -4034416.4310  -2458266.3161   5  12   4.2004   3.6302   3.9697  -3.2563   2.8289  -2.7893   0.00    0.0
2019/01/15 09:37:52.000   4280227.0924  -4034418.0795  -2458258.0004   5  12   4.2006   3.6292   3.9678  -3.2555   2.8270  -2.7865   0.00    0.0
2019/01/15 09:38:17.000   4280222.8361  -4034420.6406  -2458269.7213   5  12   4.2014   3.6244   3.9579  -3.2519   2.8172  -2.7725   0.00    0.0
2019/01/15 09:38:20.000   4280227.6617  -4034422.8461  -2458264.1309   5  12   4.2015   3.6238   3.9567  -3.2515   2.8160  -2.7708   0.00    0.0
2019/01/15 09:38:22.000   4280234.2811  -4034419.6558  -2458273.3552   5  12   4.2015   3.6234   3.9559  -3.2512   2.8152  -2.7697   0.00    0.0
2019/01/15 09:38:28.000   4280225.4968  -4034424.1389  -2458263.1015   5  12   4.2017   3.6223   3.9535  -3.2503   2.8129  -2.7663   0.00    0.0
2019/01/15 09:38:33.000   4280207.6994  -4034413.1608  -2458257.8753   5  12   4.2019   3.6213   3.9516  -3.2496   2.8109  -2.7635   0.00    0.0
2019/01/15 09:38:36.000   4280225.7857  -4034421.4665  -2458267.6851   5  12   4.2020   3.6208   3.9504  -3.2492   2.8098  -2.7618   0.00    0.0
2019/01/15 09:38:39.000   4280211.6971  -4034414.9957  -2458279.1523   5  12   4.2021   3.6202   3.9492  -3.2488   2.8086  -2.7601   0.00    0.0
2019/01/15 09:38:43.000   4280216.3419  -4034409.8183  -2458275.4356   5  12   4.2023   3.6194   3.9476  -3.2482   2.8070  -2.7579   0.00    0.0
2019/01/15 09:38:46.000   4280231.2907  -4034423.5873  -2458279.1072   5  12   4.2024   3.6189   3.9464  -3.2478   2.8059  -2.7562   0.00    0.0
2019/01/15 09:38:49.000   4280231.5455  -4034424.4994  -2458276.9284   5  12   4.2025   3.6183   3.9452  -3.2474   2.8047  -2.7545   0.00    0.0
2019/01/15 09:38:58.000   4280215.6282  -4034417.9023  -2458274.3148   5  12   4.2029   3.6166   3.9416  -3.2461   2.8012  -2.7494   0.00    0.0
2019/01/15 09:39:02.000   4280218.5860  -4034416.3187  -2458266.2668   5  12   4.2030   3.6159   3.9400  -3.2456   2.7996  -2.7472   0.00    0.0
2019/01/15 09:39:09.000   4280226.2258  -4034422.0842  -2458272.2610   5  12   4.2033   3.6146   3.9372  -3.2446   2.7969  -2.7432   0.00    0.0
2019/01/15 09:39:12.000   4280234.8664  -4034420.9932  -2458272.6796   5  12   4.2035   3.6140   3.9360  -3.2442   2.7957  -2.7415   0.00    0.0
2019/01/15 09:39:13.000   4280220.7404  -4034402.4143  -2458255.5010   5  12   4.2035   3.6138   3.9356  -3.2441   2.7954  -2.7410   0.00    0.0
2019/01/15 09:39:21.000   4280207.8463  -4034418.6400  -2458269.6953   5  12   4.2038   3.6124   3.9325  -3.2430   2.7922  -2.7364   0.00    0.0
2019/01/15 09:39:30.000   4280227.2473  -4034410.5194  -2458282.4137   5  12   4.2042   3.6107   3.9288  -3.2418   2.7888  -2.7314   0.00    0.0
2019/01/15 09:39:43.000   4280213.3976  -4034410.4071  -2458272.2990   5  12   4.2048   3.6084   3.9236  -3.2401   2.7837  -2.7240   0.00    0.0
2019/01/15 09:40:18.000   4280207.5713  -4034404.1634  -2458266.5074   5  12   4.2066   3.6021   3.9096  -3.2355   2.7702  -2.7042   0.00    0.0
2019/01/15 09:40:23.000   4280217.2076  -4034412.2956  -2458277.1668   5  12   4.2069   3.6012   3.9075  -3.2349   2.7683  -2.7014   0.00    0.0
2019/01/15 09:40:36.000   4280213.0673  -4034411.2758  -2458262.2412   5  12   4.2076   3.5989   3.9023  -3.2332   2.7633  -2.6940   0.00    0.0
2019/01/15 09:40:42.000   4280218.7270  -4034418.6053  -2458275.1879   5  12   4.2079   3.5979   3.8999  -3.2324   2.7609  -2.6906   0.00    0.0
2019/01/15 09:40:47.000   4280219.7296  -4034410.9192  -2458267.2013   5  12   4.2082   3.5970   3.8978  -3.2318   2.7590  -2.6878   0.00    0.0
2019/01/15 09:40:55.000   4280231.7848  -4034426.5370  -2458272.3777   5  12   4.2087   3.5957   3.8946  -3.2308   2.7560  -2.6833   0.00    0.0
2019/01/15 09:40:56.000   4280228.5328  -4034425.2564  -2458276.0262   5  12   4.2087   3.5955   3.8942  -3.2307   2.7556  -2.6827   0.00    0.0
2019/01/15 09:41:00.000   4280214.7153  -4034409.5638  -2458261.2121   5  12   4.2090   3.5948   3.8926  -3.2302   2.7540  -2.6804   0.00    0.0
2019/01/15 09:41:01.000   4280211.4083  -4034404.3299  -2458250.3787   5  12   4.2090   3.5946   3.8922  -3.2301   2.7537  -2.6799   0.00    0.0
2019/01/15 09:41:02.000   4280212.7200  -4034409.9573  -2458272.9916   5  12   4.2091   3.5945   3.8918  -3.2300   2.7533  -2.6793   0.00    0.0
2019/01/15 09:41:11.000   4280238.3791  -4034423.5448  -2458269.1325   5  12   4.2096   3.5929   3.8881  -3.2289   2.7498  -2.6742   0.00    0.0
2019/01/15 09:41:12.000   4280219.6036  -4034409.8498  -2458250.2127   5  12   4.2097   3.5928   3.8877  -3.2287   2.7494  -2.6736   0.00    0.0
2019/01/15 09:41:16.000   4280223.0514  -4034419.7314  -2458265.8383   5  12   4.2099   3.5921   3.8861  -3.2283   2.7479  -2.6714   0.00    0.0
2019/01/15 09:41:17.000   4280223.8736  -4034420.8893  -2458273.3773   5  12   4.2100   3.5919   3.8857  -3.2281   2.7475  -2.6708   0.00    0.0
2019/01/15 09:41:18.000   4280229.4420  -4034430.1114  -2458277.9706   5  12   4.2101   3.5917   3.8853  -3.2280   2.7471  -2.6702   0.00    0.0
2019/01/15 09:41:19.000   4280219.0046  -4034427.8425  -2458269.3087   5  12   4.2101   3.5916   3.8849  -3.2279   2.7468  -2.6697   0.00    0.0
2019/01/15 09:41:20.000   4280220.1783  -4034426.1221  -2458274.8520   5  12   4.2102   3.5914   3.8845  -3.2278   2.7464  -2.6691   0.00    0.0
2019/01/15 09:41:27.000   4280220.8677  -4034420.4902  -2458276.2704   5  12   4.2106   3.5902   3.8816  -3.2269   2.7437  -2.6651   0.00    0.0
2019/01/15 09:41:31.000   4280233.0578  -4034432.1536  -2458277.0113   5  12   4.2109   3.5896   3.8800  -3.2265   2.7422  -2.6628   0.00    0.0
2019/01/15 09:41:32.000   4280227.0072  -4034419.0655  -2458273.4679   5  12   4.2110   3.5894   3.8796  -3.2263   2.7418  -2.6623   0.00    0.0
2019/01/15 09:41:38.000   4280221.0418  -4034417.8033  -2458277.2137   5  12   4.2113   3.5884   3.8771  -3.2256   2.7395  -2.6589   0.00    0.0
2019/01/15 09:41:40.000   4280212.0004  -4034410.7664  -2458266.6269   5  12   4.2115   3.5881   3.8763  -3.2254   2.7387  -2.6577   0.00    0.0
2019/01/15 09:41:41.000   4280227.9841  -4034418.6843  -2458271.1469   5  12   4.2115   3.5879   3.8759  -3.2253   2.7384  -2.6572   0.00    0.0
2019/01/15 09:41:43.000   4280218.1141  -4034413.6313  -2458265.2809   5  12   4.2117   3.5876   3.8751  -3.2250   2.7376  -2.6560   0.00    0.0
2019/01/15 09:41:50.000   4280224.8617  -4034419.7309  -2458267.2011   5  12   4.2121   3.5864   3.8722  -3.2242   2.7349  -2.6521   0.00    0.0
2019/01/15 09:41:51.000   4280212.8495  -4034406.6233  -2458250.4486   5  12   4.2122   3.5862   3.8718  -3.2241   2.7346  -2.6515   0.00    0.0
2019/01/15 09:41:54.000   4280219.5026  -4034416.4431  -2458264.0173   5  12   4.2124   3.5857   3.8706  -3.2237   2.7334  -2.6498   0.00    0.0
2019/01/15 09:42:00.000   4280238.5988  -4034421.6245  -2458271.5027   5  12   4.2128   3.5848   3.8682  -3.2231   2.7311  -2.6464   0.00    0.0
2019/01/15 09:42:01.000   4280208.1442  -4034406.1238  -2458259.4413   5  12   4.2129   3.5846   3.8678  -3.2229   2.7308  -2.6458   0.00    0.0
2019/01/15 09:42:05.000   4280210.3218  -4034410.6932  -2458259.8403   5  12   4.2132   3.5839   3.8661  -3.2225   2.7292  -2.6435   0.00    0.0
2019/01/15 09:42:09.000   4280213.4929  -4034419.9231  -2458264.3101   5  12   4.2135   3.5833   3.8645  -3.2220   2.7277  -2.6413   0.00    0.0
2019/01/15 09:42:31.000   4280222.5086  -4034418.0443  -2458267.4466   5  12   4.2151   3.5798   3.8555  -3.2195   2.7194  -2.6288   0.00    0.0
2019/01/15 09:42:32.000   4280231.2608  -4034429.6716  -2458289.2459   5  12   4.2151   3.5796   3.8551  -3.2194   2.7190  -2.6282   0.00    0.0
2019/01/15 09:42:36.000   4280211.1870  -4034409.8595  -2458259.4815   5  12   4.2154   3.5790   3.8535  -3.2190   2.7175  -2.6259   0.00    0.0
2019/01/15 09:42:37.000   4280218.4175  -4034415.5835  -2458277.9672   5  12   4.2155   3.5788   3.8531  -3.2189   2.7171  -2.6253   0.00    0.0
2019/01/15 09:42:38.000   4280218.5343  -4034419.0502  -2458272.1297   5  12   4.2156   3.5786   3.8527  -3.2188   2.7167  -2.6248   0.00    0.0
2019/01/15 09:42:43.000   4280214.4500  -4034425.0755  -2458277.6398   5  12   4.2160   3.5778   3.8506  -3.2182   2.7148  -2.6219   0.00    0.0
2019/01/15 09:42:46.000   4280228.1019  -4034422.4813  -2458276.1712   5  12   4.2162   3.5774   3.8494  -3.2179   2.7137  -2.6202   0.00    0.0
2019/01/15 09:42:52.000   4280223.3226  -4034416.1039  -2458269.7144   5  12   4.2167   3.5764   3.8469  -3.2172   2.7115  -2.6168   0.00    0.0
2019/01/15 09:42:59.000   4280222.3755  -4034406.1321  -2458264.0577   5  12   4.2172   3.5753   3.8441  -3.2165   2.7088  -2.6128   0.00    0.0
2019/01/15 09:43:00.000   4280223.5639  -4034415.8805  -2458274.2261   5  12   4.2173   3.5752   3.8437  -3.2163   2.7084  -2.6123   0.00    0.0
2019/01/15 09:43:05.000   4280215.6686  -4034416.1847  -2458267.2058   5  12   4.2177   3.5744   3.8416  -3.2158   2.7066  -2.6094   0.00    0.0
2019/01/15 09:43:06.000   4280233.3984  -4034425.4674  -2458271.4726   5  12   4.2178   3.5742   3.8412  -3.2157   2.7062  -2.6089   0.00    0.0
2019/01/15 09:43:10.000   4280222.1263  -4034413.8492  -2458264.2638   5  12   4.2181   3.5736   3.8396  -3.2153   2.7047  -2.6066   0.00    0.0
2019/01/15 09:43:12.000   4280223.9718  -4034418.7507  -2458273.7067   5  12   4.2183   3.5733   3.8387  -3.2151   2.7039  -2.6055   0.00    0.0
2019/01/15 09:43:21.000   4280211.9559  -4034408.8203  -2458258.9933   5  12   4.2190   3.5719   3.8351  -3.2141   2.7006  -2.6003   0.00    0.0
2019/01/15 09:43:22.000   4280219.5458  -4034413.0647  -2458264.3868   5  12   4.2191   3.5718   3.8346  -3.2140   2.7002  -2.5998   0.00    0.0
2019/01/15 09:43:25.000   4280206.1711  -4034405.3809  -2458261.4964   5  12   4.2193   3.5713   3.8334  -3.2137   2.6991  -2.5981   0.00    0.0
2019/01/15 09:43:28.000   4280203.3658  -4034399.2891  -2458256.9110   5  12   4.2196   3.5709   3.8322  -3.2134   2.6979  -2.5964   0.00    0.0
2019/01/15 09:43:31.000   4280217.5846  -4034415.5241  -2458254.2285   5  12   4.2198   3.5704   3.8310  -3.2131   2.6968  -2.5947   0.00    0.0
2019/01/15 09:43:32.000   4280233.0624  -4034416.9361  -2458259.7673   5  12   4.2199   3.5703   3.8305  -3.2130   2.6964  -2.5941   0.00    0.0
2019/01/15 09:43:33.000   4280222.7595  -4034405.3805  -2458254.4328   5  12   4.2200   3.5701   3.8301  -3.2128   2.6961  -2.5935   0.00    0.0
2019/01/15 09:43:38.000   4280215.2163  -4034395.6369  -2458260.6229   5  12   4.2204   3.5694   3.8281  -3.2123   2.6942  -2.5907   0.00    0.0
2019/01/15 09:43:39.000   4280212.6737  -4034402.4840  -2458259.3182   5  12   4.2205   3.5692   3.8277  -3.2122   2.6938  -2.5901   0.00    0.0
2019/01/15 09:43:40.000   4280209.1768  -4034410.1428  -2458269.1118   5  12   4.2206   3.5690   3.8273  -3.2121   2.6935  -2.5895   0.00    0.0
2019/01/15 09:43:41.000   4280217.3501  -4034405.2816  -2458264.4137   5  12   4.2207   3.5689   3.8269  -3.2120   2.6931  -2.5890   0.00    0.0
2019/01/15 09:43:46.000   4280215.9891  -4034400.3799  -2458256.9395   5  12   4.2211   3.5681   3.8248  -3.2115   2.6912  -2.5861   0.00    0.0
2019/01/15 09:43:48.000   4280223.0909  -4034405.8572  -2458265.5325   5  12   4.2213   3.5678   3.8240  -3.2113   2.6905  -2.5850   0.00    0.0
2019/01/15 09:43:49.000   4280229.7966  -4034423.8349  -2458267.1602   5  12   4.2214   3.5677   3.8236  -3.2112   2.6901  -2.5844   0.00    0.0
2019/01/15 09:43:51.000   4280218.7188  -4034411.3722  -2458256.5851   5  12   4.2215   3.5674   3.8228  -3.2110   2.6894  -2.5833   0.00    0.0
2019/01/15 09:43:54.000   4280210.3386  -4034398.2953  -2458253.5815   5  12   4.2218   3.5670   3.8215  -3.2107   2.6882  -2.5816   0.00    0.0
2019/01/15 09:43:55.000   4280210.3122  -4034404.0265  -2458261.9046   5  12   4.2219   3.5668   3.8211  -3.2106   2.6879  -2.5810   0.00    0.0
2019/01/15 09:43:56.000   4280205.4340  -4034397.4116  -2458259.1785   5  12   4.2220   3.5667   3.8207  -3.2105   2.6875  -2.5804   0.00    0.0
2019/01/15 09:43:58.000   4280216.1078  -4034417.0552  -2458264.4659   5  12   4.2222   3.5664   3.8199  -3.2103   2.6867  -2.5793   0.00    0.0
2019/01/15 09:44:07.000   4280216.4944  -4034419.9731  -2458265.3083   5  10   4.5765   4.5107   3.8164  -3.8576   2.7041  -2.5880   0.00    0.0
2019/01/15 09:44:13.000   4280201.0092  -4034405.2670  -2458256.9988   5  11   4.5772   4.4047   3.8140  -3.8552   2.7013  -2.5851   0.00    0.0
2019/01/15 09:44:24.000   4280228.9374  -4034418.1492  -2458283.1582   5  12   4.2245   3.5625   3.8092  -3.2077   2.6771  -2.5645   0.00    0.0
2019/01/15 09:44:40.000   4280220.8622  -4034422.6204  -2458272.8043   5  12   4.2260   3.5602   3.8027  -3.2062   2.6712  -2.5554   0.00    0.0
2019/01/15 09:44:41.000   4280213.7418  -4034413.6176  -2458262.6000   5  12   4.2261   3.5601   3.8022  -3.2061   2.6708  -2.5549   0.00    0.0
2019/01/15 09:44:49.000   4280232.0465  -4034421.5656  -2458267.1158   5  12   4.2269   3.5589   3.7990  -3.2053   2.6679  -2.5503   0.00    0.0
2019/01/15 09:44:51.000   4280226.4926  -4034419.3819  -2458259.6756   5  12   4.2271   3.5587   3.7981  -3.2051   2.6671  -2.5492   0.00    0.0
2019/01/15 09:45:02.000   4280225.2395  -4034407.8570  -2458260.8739   5  12   4.2282   3.5571   3.7936  -3.2041   2.6631  -2.5429   0.00    0.0
2019/01/15 09:45:07.000   4280222.9212  -4034415.2736  -2458256.2997   5  12   4.2287   3.5564   3.7916  -3.2036   2.6613  -2.5401   0.00    0.0
2019/01/15 09:45:12.000   4280232.1642  -4034424.6973  -2458264.8774   5  12   4.2292   3.5557   3.7895  -3.2032   2.6594  -2.5373   0.00    0.0
2019/01/15 09:45:13.000   4280221.1579  -4034412.0162  -2458257.9657   5  12   4.2293   3.5556   3.7891  -3.2031   2.6591  -2.5367   0.00    0.0
2019/01/15 09:45:26.000   4280224.8650  -4034411.2224  -2458256.9104   5  12   4.2306   3.5538   3.7838  -3.2019   2.6543  -2.5293   0.00    0.0
2019/01/15 09:45:31.000   4280222.9684  -4034415.1102  -2458256.4225   5  12   4.2311   3.5531   3.7817  -3.2015   2.6525  -2.5265   0.00    0.0
2019/01/15 09:45:32.000   4280216.9895  -4034411.3220  -2458255.4538   5  12   4.2312   3.5530   3.7813  -3.2014   2.6521  -2.5259   0.00    0.0
2019/01/15 09:45:34.000   4280212.9337  -4034413.3030  -2458263.7704   5  12   4.2315   3.5527   3.7805  -3.2012   2.6514  -2.5248   0.00    0.0
2019/01/15 09:45:40.000   4280213.5613  -4034419.3280  -2458264.9591   5  12   4.2321   3.5519   3.7780  -3.2007   2.6492  -2.5214   0.00    0.0
2019/01/15 09:45:47.000   4280220.9854  -4034420.3705  -2458269.6893   5  12   4.2328   3.5509   3.7752  -3.2001   2.6467  -2.5174   0.00    0.0
2019/01/15 09:45:51.000   4280214.5304  -4034415.1565  -2458253.6876   5  12   4.2333   3.5504   3.7735  -3.1997   2.6452  -2.5151   0.00    0.0
2019/01/15 09:46:31.000   4280218.2762  -4034416.8220  -2458273.3196   5  12   4.2377   3.5451   3.7571  -3.1964   2.6308  -2.4925   0.00    0.0
2019/01/15 09:46:37.000   4280217.5875  -4034421.5440  -2458281.5655   5  12   4.2384   3.5443   3.7547  -3.1959   2.6286  -2.4891   0.00    0.0
2019/01/15 09:46:38.000   4280216.9433  -4034419.8798  -2458272.7687   5  12   4.2385   3.5442   3.7543  -3.1958   2.6282  -2.4885   0.00    0.0
2019/01/15 09:46:39.000   4280231.8482  -4034431.5353  -2458278.3713   5  12   4.2386   3.5441   3.7539  -3.1957   2.6279  -2.4879   0.00    0.0
2019/01/15 09:46:44.000   4280228.3833  -4034432.0234  -2458271.9463   5  12   4.2392   3.5434   3.7518  -3.1953   2.6261  -2.4851   0.00    0.0
2019/01/15 09:46:50.000   4280217.3622  -4034404.6191  -2458263.5502   5  12   4.2399   3.5427   3.7494  -3.1948   2.6239  -2.4817   0.00    0.0
2019/01/15 09:46:51.000   4280224.8355  -4034420.3769  -2458274.4362   5  12   4.2400   3.5426   3.7489  -3.1948   2.6236  -2.4812   0.00    0.0
2019/01/15 09:46:52.000   4280235.0851  -4034419.9898  -2458274.5811   5  12   4.2401   3.5424   3.7485  -3.1947   2.6232  -2.4806   0.00    0.0
2019/01/15 09:46:56.000   4280228.3160  -4034416.5143  -2458262.9880   5  12   4.2406   3.5419   3.7469  -3.1944   2.6218  -2.4783   0.00    0.0
2019/01/15 09:47:00.000   4280223.6812  -4034418.4057  -2458265.6003   5  12   4.2411   3.5414   3.7453  -3.1941   2.6204  -2.4761   0.00    0.0
2019/01/15 09:47:02.000   4280224.0586  -4034421.4420  -2458261.3851   5  12   4.2413   3.5412   3.7444  -3.1939   2.6196  -2.4749   0.00    0.0
2019/01/15 09:47:15.000   4280216.6570  -4034419.3807  -2458271.7444   5  12   4.2429   3.5396   3.7391  -3.1929   2.6150  -2.4676   0.00    0.0
2019/01/15 09:47:24.000   4280211.9789  -4034417.0254  -2458266.5691   5  12   4.2440   3.5384   3.7355  -3.1922   2.6118  -2.4625   0.00    0.0
2019/01/15 09:47:27.000   4280220.1534  -4034422.2232  -2458259.0508   5  12   4.2443   3.5381   3.7342  -3.1920   2.6108  -2.4608   0.00    0.0
2019/01/15 09:47:29.000   4280211.0201  -4034413.4103  -2458261.5662   5  12   4.2446   3.5378   3.7334  -3.1919   2.6100  -2.4597   0.00    0.0
2019/01/15 09:47:35.000   4280217.8983  -4034415.6835  -2458274.3756   5  12   4.2453   3.5371   3.7310  -3.1914   2.6079  -2.4563   0.00    0.0
2019/01/15 09:47:36.000   4280210.1576  -4034409.9948  -2458272.5341   5  12   4.2455   3.5370   3.7306  -3.1913   2.6076  -2.4557   0.00    0.0
2019/01/15 09:47:39.000   4280213.3217  -4034416.5418  -2458257.9696   5  12   4.2458   3.5366   3.7293  -3.1911   2.6065  -2.4540   0.00    0.0
2019/01/15 09:47:42.000   4280216.3214  -4034416.9084  -2458258.4334   5  12   4.2462   3.5363   3.7281  -3.1909   2.6054  -2.4524   0.00    0.0
2019/01/15 09:47:43.000   4280214.0578  -4034412.6270  -2458256.3013   5  12   4.2463   3.5361   3.7277  -3.1908   2.6051  -2.4518   0.00    0.0
2019/01/15 09:47:45.000   4280208.9256  -4034407.1189  -2458255.6054   5  12   4.2466   3.5359   3.7269  -3.1907   2.6044  -2.4507   0.00    0.0
2019/01/15 09:47:49.000   4280220.8363  -4034423.2916  -2458268.0195   5  12   4.2471   3.5354   3.7253  -3.1904   2.6030  -2.4484   0.00    0.0
2019/01/15 09:47:50.000   4280226.5210  -4034426.4600  -2458269.7148   5  12   4.2472   3.5353   3.7248  -3.1903   2.6026  -2.4478   0.00    0.0
2019/01/15 09:47:52.000   4280216.3283  -4034408.7381  -2458266.6834   5  12   4.2475   3.5351   3.7240  -3.1902   2.6019  -2.4467   0.00    0.0
2019/01/15 09:47:53.000   4280212.7208  -4034400.1410  -2458262.7685   5  12   4.2476   3.5349   3.7236  -3.1901   2.6016  -2.4462   0.00    0.0
2019/01/15 09:47:56.000   4280220.5359  -4034408.1541  -2458256.5274   5  12   4.2480   3.5346   3.7224  -3.1899   2.6005  -2.4445   0.00    0.0
2019/01/15 09:47:57.000   4280214.4902  -4034410.4232  -2458260.8622   5  12   4.2481   3.5345   3.7220  -3.1898   2.6002  -2.4439   0.00    0.0
2019/01/15 09:47:58.000   4280234.9492  -4034415.2433  -2458266.2896   5  12   4.2483   3.5343   3.7216  -3.1898   2.5998  -2.4433   0.00    0.0
2019/01/15 09:48:00.000   4280224.0243  -4034414.0844  -2458259.1532   5  12   4.2485   3.5341   3.7208  -3.1896   2.5991  -2.4422   0.00    0.0
2019/01/15 09:48:02.000   4280217.5578  -4034400.5480  -2458254.6859   5  12   4.2488   3.5339   3.7200  -3.1895   2.5984  -2.4411   0.00    0.0
2019/01/15 09:48:08.000   4280217.3515  -4034415.1935  -2458273.1381   5  12   4.2495   3.5332   3.7175  -3.1891   2.5963  -2.4377   0.00    0.0
2019/01/15 09:48:09.000   4280224.8687  -4034419.2682  -2458264.7108   5  12   4.2497   3.5330   3.7171  -3.1890   2.5959  -2.4371   0.00    0.0
2019/01/15 09:48:26.000   4280209.0372  -4034412.7199  -2458260.0178   5  12   4.2519   3.5311   3.7102  -3.1878   2.5900  -2.4276   0.00    0.0
2019/01/15 09:48:29.000   4280225.9310  -4034424.1730  -2458265.7538   5  12   4.2523   3.5307   3.7090  -3.1876   2.5890  -2.4259   0.00    0.0
2019/01/15 09:48:32.000   4280227.8881  -4034417.8847  -2458268.6150   5  12   4.2527   3.5304   3.7078  -3.1874   2.5879  -2.4242   0.00    0.0
2019/01/15 09:48:33.000   4280225.8960  -4034414.8983  -2458267.7534   5  12   4.2529   3.5303   3.7073  -3.1874   2.5876  -2.4236   0.00    0.0
2019/01/15 09:48:37.000   4280220.9328  -4034418.4071  -2458267.8589   5  12   4.2534   3.5298   3.7057  -3.1871   2.5862  -2.4214   0.00    0.0
2019/01/15 09:48:39.000   4280223.2505  -4034419.8036  -2458261.2901   5  12   4.2537   3.5296   3.7049  -3.1870   2.5855  -2.4203   0.00    0.0
2019/01/15 09:48:45.000   4280209.6201  -4034405.8346  -2458265.3289   5  11   4.4382   3.7063   3.7267  -3.4038   2.4886  -2.3032   0.00    0.0
2019/01/15 09:48:51.000   4280224.4567  -4034400.0966  -2458253.3434   5  11   4.4403   3.7064   3.7242  -3.4047   2.4865  -2.2996   0.00    0.0
2019/01/15 09:48:53.000   4280229.5540  -4034403.3421  -2458264.8495   5  11   4.4410   3.7064   3.7233  -3.4049   2.4858  -2.2984   0.00    0.0
2019/01/15 09:48:59.000   4280212.5835  -4034410.9770  -2458258.2715   5  11   4.4431   3.7065   3.7208  -3.4058   2.4837  -2.2948   0.00    0.0
2019/01/15 09:49:00.000   4280199.0152  -4034399.7251  -2458249.4021   5  11   4.4434   3.7065   3.7203  -3.4059   2.4834  -2.2942   0.00    0.0
2019/01/15 09:49:01.000   4280199.3011  -4034398.2905  -2458251.7537   5  11   4.4438   3.7065   3.7199  -3.4061   2.4830  -2.2936   0.00    0.0
2019/01/15 09:49:02.000   4280218.4982  -4034410.1557  -2458259.4686   5  11   4.4441   3.7065   3.7195  -3.4062   2.4827  -2.2930   0.00    0.0
2019/01/15 09:49:05.000   4280232.4103  -4034418.7895  -2458258.2469   5  11   4.4452   3.7066   3.7182  -3.4066   2.4816  -2.2912   0.00    0.0
2019/01/15 09:49:06.000   4280232.1512  -4034412.6642  -2458260.7614   5  11   4.4456   3.7066   3.7178  -3.4068   2.4813  -2.2906   0.00    0.0
2019/01/15 09:49:07.000   4280238.1334  -4034424.1461  -2458261.7798   5  11   4.4459   3.7066   3.7174  -3.4069   2.4810  -2.2899   0.00    0.0
2019/01/15 09:49:11.000   4280226.6073  -4034418.8386  -2458272.3558   5  11   4.4473   3.7066   3.7157  -3.4075   2.4796  -2.2875   0.00    0.0
2019/01/15 09:49:13.000   4280232.4814  -4034410.7891  -2458264.5850   5  11   4.4480   3.7067   3.7148  -3.4078   2.4789  -2.2863   0.00    0.0
2019/01/15 09:49:17.000   4280218.2938  -4034420.9153  -2458270.4473   5  11   4.4495   3.7067   3.7131  -3.4084   2.4775  -2.2839   0.00    0.0
2019/01/15 09:49:23.000   4280212.5099  -4034416.8271  -2458271.0609   5  11   4.4516   3.7068   3.7106  -3.4092   2.4755  -2.2803   0.00    0.0
2019/01/15 09:49:24.000   4280209.0282  -4034415.4690  -2458272.3824   5  11   4.4520   3.7068   3.7101  -3.4094   2.4751  -2.2797   0.00    0.0
2019/01/15 09:49:26.000   4280212.5220  -4034417.6219  -2458267.2909   5  11   4.4527   3.7069   3.7093  -3.4097   2.4744  -2.2785   0.00    0.0
2019/01/15 09:49:27.000   4280203.7671  -4034400.5608  -2458250.3831   5  11   4.4531   3.7069   3.7089  -3.4098   2.4741  -2.2779   0.00    0.0
2019/01/15 09:49:28.000   4280216.6551  -4034412.8166  -2458270.9819   5  11   4.4534   3.7069   3.7084  -3.4100   2.4737  -2.2773   0.00    0.0
2019/01/15 09:49:29.000   4280207.2210  -4034404.1511  -2458271.1707   5  11   4.4538   3.7069   3.7080  -3.4101   2.4734  -2.2767   0.00    0.0
2019/01/15 09:49:33.000   4280219.7714  -4034416.7411  -2458270.5904   5  11   4.4552   3.7070   3.7063  -3.4107   2.4720  -2.2743   0.00    0.0
2019/01/15 09:49:34.000   4280228.4032  -4034419.4187  -2458269.3715   5  11   4.4556   3.7070   3.7059  -3.4109   2.4717  -2.2737   0.00    0.0
2019/01/15 09:49:41.000   4280220.5032  -4034405.5623  -2458266.2347   5  11   4.4581   3.7072   3.7029  -3.4119   2.4693  -2.2695   0.00    0.0
2019/01/15 09:49:45.000   4280218.4719  -4034402.3673  -2458260.1117   5  11   4.4596   3.7072   3.7013  -3.4125   2.4679  -2.2671   0.00    0.0
2019/01/15 09:49:47.000   4280209.7660  -4034401.6168  -2458258.5238   5  11   4.4603   3.7073   3.7004  -3.4128   2.4673  -2.2659   0.00    0.0
2019/01/15 09:49:49.000   4280208.6516  -4034402.8296  -2458258.0013   5  11   4.4611   3.7073   3.6996  -3.4131   2.4666  -2.2647   0.00    0.0
2019/01/15 09:49:50.000   4280228.8219  -4034415.4835  -2458259.7317   5  11   4.4614   3.7073   3.6991  -3.4133   2.4662  -2.2641   0.00    0.0
2019/01/15 09:49:52.000   4280220.0608  -4034411.3424  -2458257.2964   5  11   4.4622   3.7074   3.6983  -3.4136   2.4656  -2.2629   0.00    0.0
2019/01/15 09:49:54.000   4280217.7975  -4034408.8800  -2458271.2433   5  11   4.4629   3.7074   3.6974  -3.4139   2.4649  -2.2617   0.00    0.0
2019/01/15 09:49:56.000   4280213.5479  -4034401.3750  -2458249.2379   5  11   4.4636   3.7075   3.6966  -3.4142   2.4642  -2.2605   0.00    0.0
2019/01/15 09:49:57.000   4280216.7138  -4034415.9644  -2458262.0085   5  11   4.4640   3.7075   3.6962  -3.4143   2.4639  -2.2599   0.00    0.0
2019/01/15 09:49:59.000   4280218.8162  -4034409.6228  -2458269.6372   5  11   4.4647   3.7075   3.6953  -3.4146   2.4632  -2.2587   0.00    0.0
2019/01/15 09:50:01.000   4280215.6351  -4034411.4998  -2458253.4344   5  11   4.4655   3.7076   3.6945  -3.4149   2.4625  -2.2575   0.00    0.0
2019/01/15 09:50:02.000   4280224.2886  -4034416.6823  -2458260.8576   5  11   4.4658   3.7076   3.6941  -3.4151   2.4622  -2.2569   0.00    0.0
2019/01/15 09:50:13.000   4280221.7443  -4034414.7497  -2458262.9317   5  11   4.4699   3.7079   3.6894  -3.4168   2.4585  -2.2503   0.00    0.0
2019/01/15 09:50:15.000   4280221.0061  -4034413.1347  -2458256.3489   5  11   4.4707   3.7079   3.6886  -3.4171   2.4578  -2.2491   0.00    0.0
2019/01/15 09:50:16.000   4280210.9184  -4034402.2291  -2458258.0984   5  11   4.4710   3.7079   3.6882  -3.4173   2.4575  -2.2485   0.00    0.0
2019/01/15 09:50:17.000   4280217.0753  -4034405.4128  -2458261.4795   5  11   4.4714   3.7080   3.6877  -3.4174   2.4571  -2.2479   0.00    0.0
2019/01/15 09:50:25.000   4280219.3466  -4034400.7165  -2458270.5936   5  11   4.4744   3.7082   3.6844  -3.4187   2.4544  -2.2431   0.00    0.0
2019/01/15 09:50:29.000   4280205.7287  -4034401.9558  -2458265.1179   5  11   4.4759   3.7083   3.6827  -3.4193   2.4531  -2.2407   0.00    0.0
2019/01/15 09:50:31.000   4280216.8738  -4034404.9278  -2458257.8338   5  11   4.4767   3.7083   3.6819  -3.4196   2.4524  -2.2395   0.00    0.0
2019/01/15 09:50:40.000   4280224.0777  -4034407.9495  -2458248.2725   5  11   4.4801   3.7086   3.6781  -3.4211   2.4494  -2.2341   0.00    0.0
2019/01/15 09:50:41.000   4280223.0940  -4034409.5495  -2458258.6823   5  11   4.4804   3.7086   3.6777  -3.4212   2.4491  -2.2335   0.00    0.0
2019/01/15 09:50:47.000   4280222.1657  -4034415.0794  -2458249.7755   5  11   4.4827   3.7088   3.6751  -3.4222   2.4471  -2.2299   0.00    0.0
2019/01/15 09:50:51.000   4280233.8948  -4034419.2877  -2458271.5524   5  11   4.4843   3.7089   3.6735  -3.4229   2.4458  -2.2275   0.00    0.0
2019/01/15 09:50:52.000   4280227.5469  -4034426.3425  -2458272.8090   5  11   4.4846   3.7089   3.6730  -3.4230   2.4454  -2.2269   0.00    0.0
2019/01/15 09:50:53.000   4280224.6582  -4034414.3088  -2458276.4868   5  11   4.4850   3.7089   3.6726  -3.4232   2.4451  -2.2264   0.00    0.0
2019/01/15 09:50:54.000   4280217.1278  -4034415.1714  -2458266.2952   5  11   4.4854   3.7090   3.6722  -3.4234   2.4448  -2.2258   0.00    0.0
2019/01/15 09:51:10.000   4280225.9101  -4034429.9856  -2458263.4901   5  11   4.4916   3.7095   3.6655  -3.4260   2.4395  -2.2162   0.00    0.0
2019/01/15 09:51:14.000   4280250.9698  -4034448.4610  -2458275.8035   5  11   4.4931   3.7096   3.6638  -3.4267   2.4381  -2.2138   0.00    0.0
2019/01/15 09:51:18.000   4280218.5930  -4034425.7906  -2458287.0381   5  11   4.4947   3.7097   3.6622  -3.4273   2.4368  -2.2115   0.00    0.0
2019/01/15 09:51:20.000   4280225.9810  -4034417.3132  -2458266.7942   5  11   4.4954   3.7098   3.6614  -3.4277   2.4362  -2.2103   0.00    0.0
2019/01/15 09:51:21.000   4280238.7206  -4034432.3625  -2458269.7887   5  11   4.4958   3.7098   3.6609  -3.4278   2.4358  -2.2097   0.00    0.0
2019/01/15 09:51:28.000   4280235.7155  -4034425.9155  -2458260.8205   5  11   4.4986   3.7101   3.6580  -3.4290   2.4336  -2.2055   0.00    0.0
2019/01/15 09:51:30.000   4280220.4743  -4034416.1376  -2458258.1087   5  11   4.4994   3.7101   3.6572  -3.4294   2.4329  -2.2044   0.00    0.0
2019/01/15 09:51:36.000   4280241.0958  -4034433.4885  -2458264.3737   5  11   4.5017   3.7104   3.6547  -3.4304   2.4309  -2.2008   0.00    0.0
2019/01/15 09:51:39.000   4280231.5972  -4034418.9227  -2458265.5064   5  11   4.5029   3.7105   3.6534  -3.4309   2.4300  -2.1990   0.00    0.0
2019/01/15 09:51:45.000   4280232.7009  -4034425.8523  -2458266.2710   5  11   4.5053   3.7107   3.6509  -3.4319   2.4280  -2.1955   0.00    0.0
2019/01/15 09:51:47.000   4280213.3838  -4034400.6797  -2458250.1902   5  11   4.5061   3.7108   3.6501  -3.4323   2.4274  -2.1943   0.00    0.0
2019/01/15 09:51:48.000   4280205.6401  -4034393.8537  -2458245.7442   5  11   4.5065   3.7108   3.6497  -3.4325   2.4270  -2.1937   0.00    0.0
2019/01/15 09:51:53.000   4280204.7429  -4034402.8833  -2458271.1233   5  11   4.5084   3.7110   3.6476  -3.4333   2.4254  -2.1907   0.00    0.0
2019/01/15 09:51:57.000   4280201.8792  -4034385.1965  -2458260.8711   5  11   4.5100   3.7112   3.6460  -3.4340   2.4241  -2.1884   0.00    0.0
2019/01/15 09:51:58.000   4280209.1525  -4034395.6991  -2458267.1545   5  11   4.5104   3.7112   3.6456  -3.4342   2.4238  -2.1878   0.00    0.0
2019/01/15 09:51:59.000   4280222.7424  -4034411.5329  -2458271.5310   5  11   4.5108   3.7112   3.6451  -3.4344   2.4235  -2.1872   0.00    0.0
2019/01/15 09:52:00.000   4280204.1538  -4034404.3782  -2458265.2849   5  11   4.5112   3.7113   3.6447  -3.4346   2.4231  -2.1866   0.00    0.0
2019/01/15 09:52:08.000   4280200.6901  -4034400.1475  -2458270.8306   5  11   4.5144   3.7116   3.6414  -3.4360   2.4206  -2.1819   0.00    0.0
2019/01/15 09:52:13.000   4280221.1496  -4034409.9902  -2458265.2558   5  11   4.5165   3.7118   3.6394  -3.4368   2.4190  -2.1789   0.00    0.0
2019/01/15 09:52:14.000   4280213.6160  -4034403.9012  -2458265.8018   5  11   4.5169   3.7118   3.6389  -3.4370   2.4186  -2.1783   0.00    0.0
2019/01/15 09:52:16.000   4280220.9014  -4034414.6680  -2458272.5458   5  11   4.5177   3.7119   3.6381  -3.4374   2.4180  -2.1771   0.00    0.0
2019/01/15 09:52:25.000   4280217.7537  -4034415.9021  -2458260.6581   5  11   4.5213   3.7123   3.6344  -3.4390   2.4151  -2.1718   0.00    0.0
2019/01/15 09:52:26.000   4280225.7393  -4034407.2718  -2458260.2357   5  11   4.5217   3.7123   3.6340  -3.4392   2.4148  -2.1712   0.00    0.0
2019/01/15 09:52:27.000   4280218.7362  -4034411.9476  -2458268.1064   5  11   4.5221   3.7124   3.6336  -3.4394   2.4145  -2.1707   0.00    0.0
2019/01/15 09:52:30.000   4280224.0355  -4034417.2128  -2458271.7037   5  11   4.5233   3.7125   3.6323  -3.4399   2.4135  -2.1689   0.00    0.0
2019/01/15 09:52:31.000   4280212.3930  -4034408.5578  -2458260.5668   5  11   4.5238   3.7126   3.6319  -3.4401   2.4132  -2.1683   0.00    0.0
2019/01/15 09:52:32.000   4280205.7400  -4034399.3706  -2458254.7032   5  11   4.5242   3.7126   3.6315  -3.4403   2.4129  -2.1677   0.00    0.0
2019/01/15 09:52:36.000   4280216.7509  -4034416.1586  -2458255.0570   5  11   4.5258   3.7128   3.6299  -3.4410   2.4116  -2.1654   0.00    0.0
2019/01/15 09:52:37.000   4280219.3483  -4034414.3002  -2458261.8483   5  11   4.5262   3.7128   3.6295  -3.4412   2.4113  -2.1648   0.00    0.0
