     2.11           OBSERVATION DATA    M: Mixed            RINEX VERSION / TYPE
Geo++ RINEX Logger  Geo++               20190115 092504 UTC PGM / RUN BY / DATE
************************************************************COMMENT
This file was generated by the Geo++ RINEX Logger App       COMMENT
for Android devices (Version 2.0.1). If you encounter       COMMENT
any issues, please send an email to android@geopp.de        COMMENT
************************************************************COMMENT
Marco 91500                                                 MARKER NAME
Guilherme L M G CarvUERJ                                    OBSERVER / AGENCY
ce11171bcbf17f3503  samsung             SM-G955F            REC # / TYPE / VERS
ce11171bcbf17f3503  SM-G955F                                ANT # / TYPE
  4280221.1939 -4034417.0116 -2458268.9016                  APPROX POSITION XYZ
        0.0000        0.0000        0.0000                  ANTENNA: DELTA H/E/N
     4    C1    L1    S1    D1                              # / TYPES OF OBSERV
  2019     1    15     9    25   22.0001326     GPS         TIME OF FIRST OBS
                                                            END OF HEADER
 19  1 15  9 25 22.0001326  0 11G06G07G13G15G17G19G30R02R12R22R23
  23435633.548                          21.387        2984.553
  25460994.520                          22.650       -2329.848
  20713278.496   108849012.3571         35.559         -37.448
  22636596.710   118956117.7251         35.515        1788.778
  20312450.283   106742646.4491         30.551        -892.278
  20483170.996   107639790.0321         32.124         635.551
  22519612.896   118341363.7361         27.814       -1491.996
  22033907.743   117577153.1331         28.804       -1469.536
  21081849.040                          23.710        1418.443
  19729351.254   105316616.2961         27.799        1130.954
  21982964.011                          20.533        4463.987
 19  1 15  9 25 23.0001326  0 11G06G07G13G15G17G19G30R02R12R22R23
  23435089.374                          22.190        2984.384
  25461459.854                          21.012       -2332.578
  20713287.969   108849050.071          36.889         -38.161
  22636250.176   118954329.185          36.164        1788.132
  20312626.523   106743538.746          31.798        -892.556
  20483052.455   107639154.579          31.561         634.881
  22519905.346   118342855.560          28.940       -1492.264
  22034182.109   117578622.793          29.421       -1469.991
  21081551.248   112613853.2041         25.571        1417.771
  19729169.496   105315485.157          26.581        1130.548
  21982151.613                          20.359        4463.277
 19  1 15  9 25 24.0001326  0 11G06G07G13G15G17G19G30R02R12R22R23
  23434516.486   123149211.8601         24.187        2983.355
  25461938.065                          21.673       -2334.133
  20713293.394   108849088.411          36.740         -38.514
  22635915.557   118952541.223          35.706        1787.768
  20312801.120   106744431.760          33.857        -893.323
  20482936.068   107638519.793          32.288         634.675
  22520186.151   118344347.792          31.101       -1492.223
  22034458.109   117580093.058          31.358       -1470.498
  21081287.088   112612435.419          27.704        1417.979
  19728931.741   105314355.193          26.942        1129.662
  21981333.716                          17.151        4462.594
 19  1 15  9 25 25.0001326  0 11G06G07G13G15G17G19G30R02R12R22R23
  23433938.050                          24.708        2981.337
  25462354.716                          21.853       -2332.789
  20713299.678   108849127.218          36.221         -39.256
  22635576.350   118950753.589          35.327        1787.180
  20312972.576   106745325.217          34.328        -894.020
  20482820.525   107637885.413          32.639         634.063
  22520471.556   118345840.164          31.700       -1492.753
  22034730.877   117581563.675          31.408       -1470.979
  21081012.445   112611017.461          28.087        1417.804
  19728716.628   105313225.933          27.127        1128.558
  21980429.853                          21.402        4463.105
 19  1 15  9 25 26.0001326  0 11G06G07G13G15G17G19G30R02R12R22R23
  23433355.366                          21.739        2981.389
  25462779.199                          21.474       -2330.817
  20713308.703   108849166.580          35.212         -39.942
  22635233.623   118948966.431          34.545        1786.765
  20313140.395   106746219.159          33.487        -894.558
  20482697.846   107637251.689          33.161         633.368
  22520752.089   118347332.811          30.764       -1492.698
  22035017.060   117583034.760          29.769       -1471.750
  21080747.000   112609599.470          27.850        1418.251
  19728518.685                          26.672        1127.472
  21979626.525                          24.108        4460.560
 19  1 15  9 25 27.0001326  0 11G06G07G13G15G17G19G30R02R12R22R23
  23432805.212                          19.608        2983.345
  25463248.913                          20.792       -2330.296
  20713321.909   108849206.577          36.419         -40.371
  22634890.466   118947179.817          34.971        1785.987
  20313307.318   106747113.869          34.922        -895.345
  20482575.824   107636618.460          33.077         632.805
  22521036.502   118348825.687          29.648       -1493.063
  22035285.621   117584506.333          31.219       -1472.219
  21080487.265   112608181.420          29.732        1418.083
  19728328.372                          23.091        1124.873
  21978806.861                          24.274        4460.345
 19  1 15  9 25 28.0001326  0 11G06G07G13G15G17G19G30R02R12R22R23
  23432247.782                          19.923        2983.347
  25463700.832                          19.419       -2333.293
  20713327.424   108849247.244          36.059         -41.200
  22634556.505   118945393.648          34.683        1785.674
  20313477.481   106748009.082          35.785        -895.761
  20482453.105   107635985.794          33.572         632.161
  22521324.539   118350318.897          29.935       -1493.246
  22035560.597   117585978.424          30.074       -1472.359
  21080221.361   112606763.348          31.688        1417.899
  19728132.630                          21.444        1128.390
  21977950.541                          23.910        4462.651
 19  1 15  9 25 29.0001326  0 11G06G07G13G15G17G19G30R02R12R22R23
  23431679.954                          19.646        2983.250
  25464127.249                          20.239       -2333.619
  20713336.779   108849288.491          36.073         -41.968
  22634211.628   118943608.068          35.193        1785.038
  20313647.967   106748904.888          36.006        -896.306
  20482335.731   107635353.777          33.258         631.561
  22521603.784   118351812.418          29.859       -1493.641
  22035847.899   117587451.063          30.463       -1473.001
  21079953.541   112605345.292          32.788        1417.831
  19727905.899                          21.732        1126.904
  21977126.298                          24.140        4459.954
 19  1 15  9 25 30.0001326  0 11G06G07G13G15G17G19G30R02R12R22R23
  23431116.860                          17.644        2982.417
  25464568.788                          20.093       -2332.854
  20713343.338   108849330.508          36.043         -42.533
  22633875.000   118941823.140          35.478        1784.366
  20313817.117   106749801.537          36.054        -896.897
  20482211.802   107634722.487          33.270         630.897
  22521889.479   118353306.357          29.919       -1494.208
  22036119.752   117588924.433          30.790       -1473.755
  21079686.869   112603927.388          33.101        1417.860
  19727675.220                          22.138        1122.921
  21976303.733                          24.089        4462.062
 19  1 15  9 25 31.0001326  0 11G06G07G13G15G17G19G30R02R12R22R23
  23430532.511                          18.102        2982.868
  25465006.380                          20.508       -2332.214
  20713349.403   108849372.998          36.382         -42.465
  22633534.827   118940038.640          35.495        1784.493
  20313989.029   106750698.658          36.060        -897.218
  20482095.380   107634091.647          33.407         630.695
  22522167.670   118354800.529          29.773       -1494.327
  22036390.541   117590398.164          31.063       -1473.777
  21079428.286   112602509.354          33.229        1418.210
  19727465.381                          22.399        1123.599
  21975430.830   117553566.0111         23.534        4461.252
 19  1 15  9 25 32.0001326  0 11G06G07G13G15G17G19G30R02R12R22R23
  23429960.972                          19.548        2982.074
  25465440.106                          20.519       -2333.020
  20713360.006   108849416.042          36.295         -43.409
  22633194.539   118938254.512          35.680        1783.832
  20314162.161   106751596.273          36.143        -897.854
  20481979.477   107633461.269          33.187         629.928
  22522451.232   118356294.809          29.849       -1494.333
  22036663.762   117591872.337          31.280       -1474.434
  21079158.804   112601091.160          33.368        1418.110
  19727264.100                          22.804        1124.527
  21974609.099                          23.511        4461.616
 19  1 15  9 25 33.0001326  0 11G06G07G13G15G17G19G30R02R12R22R23
  23429394.366                          19.191        2982.461
  25465878.459                          20.527       -2333.560
  20713366.756   108849459.881          36.239         -44.051
  22632854.807   118936471.091          35.487        1783.279
  20314331.825   106752494.680          35.834        -898.592
  20481854.816   107632831.681          32.979         629.483
  22522739.499   118357789.586          29.525       -1494.694
  22036945.683   117593347.253          31.156       -1475.377
  21078891.471   112599673.129          33.201        1418.038
  19727061.507   105304222.6321         23.205        1121.599
  21973783.447                          23.314        4461.143
 19  1 15  9 25 34.0001326  0 11G06G07G13G15G17G19G30R02R12R22R23
  23428825.573                          19.366        2982.907
  25466325.594                          20.105       -2333.410
  20713375.617   108849504.294          36.050         -44.796
  22632516.890   118934688.216          35.753        1782.579
  20314503.387   106753393.661          35.694        -899.118
  20481736.392   107632202.681          32.719         628.449
  22523020.241   118359284.689          29.327       -1495.161
  22037221.496   117594822.587          31.373       -1475.651
  21078628.758   112598255.045          33.077        1417.948
  19726853.840                          23.085        1122.096
  21972958.060                          22.828        4459.747
 19  1 15  9 25 35.0001326  0 11G06G07G13G15G17G19G30R02R12R22R23
  23428257.703                          18.618        2984.052
  25466770.733                          19.754       -2333.784
  20713383.960   108849549.426          36.428         -45.930
  22632176.718   118932905.863          35.792        1781.627
  20314674.018   106754293.360          35.963        -900.300
  20481614.453   107631574.331          33.197         627.809
  22523308.081   118360780.105          29.663       -1495.808
  22037504.911   117596298.532          31.423       -1476.467
  21078359.671   112596837.005          33.038        1417.706
  19726646.148                          23.164        1119.834
  21972120.644                          24.029        4459.018
 19  1 15  9 25 36.0001326  0 11G06G07G13G15G17G19G30R02R12R22R23
  23427695.816                          19.130        2982.756
  25467221.832                          18.573       -2334.481
  20713392.749   108849595.318          36.218         -46.587
  22631839.288   118931124.257          35.831        1781.067
  20314846.567   106755193.830          35.884        -901.237
  20481495.630   107630946.752          33.082         626.994
  22523593.451   118362276.005          29.769       -1496.290
  22037781.835   117597775.186          31.398       -1477.026
  21078095.063   112595419.183          32.903        1417.393
  19726425.260   105300860.7191         23.005        1119.150
  21971276.218                          24.751        4458.753
 19  1 15  9 25 37.0001326  0 11G06G07G13G15G17G19G30R02R12R22R23
  23427132.155                          19.080        2982.954
  25467665.199                          18.227       -2334.775
  20713402.341   108849641.912          36.052         -46.975
  22631501.178   118929343.182          36.031        1780.754
  20315018.519   106756094.966          35.836        -901.493
  20481376.147   107630319.747          33.179         626.647
  22523879.882   118363772.253          29.797       -1496.409
  22038058.446   117599252.451          31.634       -1477.478
  21077826.626   112594001.370          32.887        1417.750
  19726213.849                          22.842        1117.902
  21970449.896                          24.224        4459.390
 19  1 15  9 25 38.0001326  0 12G06G07G13G15G17G19G28G30R02R12R22R23
  23426561.677                          18.676        2984.059
  25468105.810                          17.297       -2335.235
  20713412.286   108849689.184          36.457         -47.525
  22631162.595   118927562.732          36.300        1780.343
  20315189.579   106756996.779          36.256        -902.114
  20481256.278   107629693.482          33.315         625.951
  22217571.395   116754125.1201         30.029       -1874.906
  22524165.156   118365268.876          29.640       -1496.875
  22038337.259   117600730.366          31.559       -1478.338
  21077560.836   112592583.646          33.098        1417.770
  19725996.217                          22.361        1120.921
  21969611.430   117522344.5671         23.768        4459.270
 19  1 15  9 25 39.0001326  0 12G06G07G13G15G17G19G28G30R02R12R22R23
  23425991.088                          18.030        2984.397
  25468549.986                          17.023       -2334.384
  20713420.840   108849737.220          36.059         -48.398
  22630824.433   118925782.950          36.017        1779.454
  20315361.894   106757899.346          35.941        -902.868
  20481137.602   107629067.944          33.335         625.045
  22217929.292   116756000.171          29.816       -1875.420
  22524449.097   118366765.919          29.586       -1497.279
  22038612.849   117602208.910          31.760       -1478.985
  21077295.928   112591166.061          33.223        1417.247
  19725779.941                          22.970        1118.375
  21968776.329   117517885.642          24.022        4458.219
 19  1 15  9 25 40.0001326  0 12G06G07G13G15G17G19G28G30R02R12R22R23
  23425422.924                          17.326        2983.881
  25468992.087                          14.611       -2334.886
  20713429.851   108849786.176          35.695         -49.764
  22630486.013   118924003.950          35.746        1778.099
  20315534.365   106758802.796          35.609        -904.349
  20481019.745   107628443.190          32.989         624.077
  22218285.844   116757875.500          29.368       -1876.051
  22524735.637   118368263.574          29.267       -1498.393
  22038890.918   117603688.259          31.684       -1480.172
  21077031.137   112589748.741          33.251        1416.593
  19725569.758                          22.195        1115.152
  21967941.794                          23.749        4456.176
 19  1 15  9 25 41.0001326  0 12G06G07G13G15G17G19G28G30R02R12R22R23
  23424855.180                          18.117        2982.952
  25469435.765                          14.610       -2335.163
  20713439.378   108849836.279          35.705         -50.794
  22630147.763   118922226.034          35.922        1777.330
  20315706.236   106759707.384          35.618        -905.117
  20480901.198   107627819.655          32.925         622.728
  22218647.183   116759751.286          29.504       -1875.991
  22525021.259   118369761.983          29.355       -1498.931
  22039168.201   117605168.666          31.417       -1480.945
  21076766.158   112588331.907          33.273        1416.484
  19725360.152                          22.792        1114.017
  21967109.048                          23.332        4457.045
 19  1 15  9 25 42.0001326  0 12G06G07G13G15G17G19G28G30R02R12R22R23
  23424287.550                          18.573        2982.686
  25469879.954                          13.687       -2335.856
  20713449.096   108849887.009          35.806         -51.128
  22629809.565   118920448.678          35.868        1776.971
  20315878.484   106760612.651          35.536        -905.484
  20480782.697   107627196.731          33.053         622.647
  22219006.988   116761627.155          29.596       -1875.605
  22525306.455   118371260.756          29.566       -1498.740
  22039445.756   117606649.584          31.184       -1481.126
  21076500.949   112586915.110          33.054        1416.819
  19725151.868                          22.950        1110.715
  21966275.234                          23.845        4461.696
 19  1 15  9 25 43.0001326  0 12G06G07G13G15G17G19G28G30R02R12R22R23
  23423720.093                          18.363        2981.081
  25470324.089                          15.697       -2335.153
  20713458.919   108849938.398          35.648         -51.751
  22629471.443   118918671.817          35.649        1776.569
  20316050.867   106761518.571          35.565        -905.998
  20480664.310   107626574.428          32.958         621.998
  22219358.700   116763503.055          29.504       -1875.789
  22525591.688   118372759.842          29.395       -1499.372
  22039723.346   117608131.173          31.027       -1482.317
  21076235.737   112585498.336          33.060        1416.675
  19724943.811                          23.348        1111.811
  21965441.681   117500351.0171         23.607        4457.201
 19  1 15  9 25 44.0001326  0 12G06G07G13G15G17G19G28G30R02R12R22R23
  23423152.832                          14.893        2981.862
  25470767.958                          16.040       -2333.850
  20713468.776   108849990.452          35.835         -52.229
  22629133.413   118916895.562          35.583        1775.928
  20316223.370   106762425.169          35.598        -906.754
  20480545.975   107625952.727          32.694         621.530
  22219718.072   116765378.972          29.378       -1875.813
  22525877.091   118374259.269          29.670       -1499.537
  22040001.228   117609613.186          30.989       -1482.236
  21075970.586   112584081.583          33.206        1416.766
  19724735.473                          23.862        1111.055
  21964608.741                          23.993        4455.325
 19  1 15  9 25 45.0001326  0 12G06G07G13G15G17G19G28G30R02R12R22R23
  23422585.787                          16.330        2980.479
  25471211.698                          15.056       -2333.800
  20713478.763   108850043.001          35.640         -52.951
  22628795.501   118915119.709          35.413        1775.552
  20316395.997   106763332.193          35.389        -907.687
  20480427.796   107625331.518          32.727         620.582
  22220078.102   116767254.769          28.988       -1875.793
  22526162.454   118375758.885          29.334       -1499.806
  22040278.954   117611095.681          31.064       -1482.802
  21075705.478   112582664.690          33.184        1416.715
  19724527.438                          23.363        1107.230
  21963775.327                          23.644        4458.403
 19  1 15  9 25 46.0001326  0 12G06G07G13G15G17G19G28G30R02R12R22R23
  23422018.810                          15.477        2980.340
  25471655.640                          15.902       -2334.851
  20713488.891   108850096.328          35.769         -53.654
  22628457.668   118913344.532          35.647        1774.802
  20316568.720   106764240.029          35.313        -908.172
  20480309.731   107624711.023          32.809         620.069
  22220433.059   116769130.726          29.347       -1876.011
  22526447.887   118377259.013          29.034       -1500.595
  22040556.875   117612578.823          31.015       -1483.312
  21075440.231   112581247.901          33.173        1416.901
  19724320.087                          22.975        1104.052
  21962941.992                          23.596        4459.864
 19  1 15  9 25 47.0001326  0 12G06G07G13G15G17G19G28G30R02R12R22R23
  23421451.504                          16.706        2980.566
  25472100.005                          16.291       -2337.527
  20713499.139   108850150.315          36.126         -54.141
  22628119.952   118911569.901          35.786        1774.317
  20316741.554   106765148.476          35.467        -908.775
  20480191.819   107624091.140          32.724         619.432
  22220786.378   116771006.721          29.252       -1876.002
  22526733.484   118378759.420          28.972       -1500.652
  22040834.858   117614062.536          31.221       -1483.928
  21075175.060   112579831.201          33.168        1416.747
  19724112.832   105288610.4391         23.587        1108.522
  21962108.581   117482524.8801         23.682        4455.771
 19  1 15  9 25 48.0001326  0 12G06G07G13G15G17G19G28G30R02R12R22R23
  23420884.183                          16.926        2980.247
  25472544.473                          15.555       -2336.768
  20713509.500   108850204.853          36.172         -54.968
  22627782.315   118909795.698          35.820        1773.814
  20316914.542   106766057.445          35.620        -909.279
  20480074.015   107623471.777          32.947         618.681
  22221142.499   116772882.555          29.435       -1876.047
  22527019.056   118380259.931          29.195       -1500.649
  22041113.073   117615546.626          31.466       -1484.755
  21074909.802   112578414.373          33.277        1416.740
  19723904.848                          23.744        1113.860
  21961275.939                          24.113        4453.104
 19  1 15  9 25 49.0001326  0 12G06G07G13G15G17G19G28G30R02R12R22R23
  23420316.686                          16.551        2981.785
  25472988.889                          17.026       -2338.594
  20713520.002   108850260.091          36.037         -55.587
  22627444.789   118908022.097          35.790        1773.177
  20317087.613   106766967.101          35.588        -909.915
  20479956.386   107622853.118          33.146         618.109
  22221501.418   116774758.496          28.943       -1875.968
  22527304.614   118381760.883          29.007       -1500.894
  22041391.380   117617031.307          31.230       -1484.787
  21074644.522   112576997.629          33.075        1416.627
  19723696.793   105286395.0661         23.096        1106.534
  21960443.202   117473613.0801         23.817        4455.647
 19  1 15  9 25 50.0001326  0 14G06G07G13G15G17G19G28G30R02R11R12R21
  23419749.043                          14.870        2981.419
  25473433.311                          16.644       -2336.718
  20713530.666   108850316.046          36.193         -56.433
  22627107.344   118906249.128          35.824        1772.640
  20317260.779   106767877.540          35.779        -910.524
  20479838.790   107622235.100          32.858         617.512
  22221857.812   116776634.561          29.025       -1875.953
  22527590.103   118383262.325          28.480       -1501.310
  22041669.725   117618516.729          31.522       -1485.665
  21615896.326   115508795.3641         26.790        -300.843
  21074379.318   112575581.009          33.203        1416.601
  22212858.658   118865493.4521         28.329       -2894.784
  19723489.928                          23.015        1103.676
  21959610.032                          23.410        4456.381
 19  1 15  9 25 51.0001326  0 14G06G07G13G15G17G19G28G30R02R11R12R21
  23419181.407                          15.039        2982.038
  25473877.620                          16.466       -2336.961
  20713541.528   108850372.557          36.182         -57.037
  22626770.087   118904476.667          35.891        1771.956
  20317434.180   106768788.522          35.577        -911.531
  20479721.269   107621617.645          33.159         617.011
  22222212.410   116778510.547          28.957       -1875.930
  22527875.768   118384763.961          28.321       -1501.719
  22041948.130   117620002.618          31.342       -1486.185
  21615946.989   115509096.248          26.639        -301.074
  21074114.113   112574164.365          33.425        1416.300
  22213404.903   118868388.233          28.006       -2895.113
  19723283.627                          23.442        1102.386
  21958777.150                          23.956        4450.148
 19  1 15  9 25 52.0001326  0 14G06G07G13G15G17G19G28G30R02R11R12R21
  23418613.475                          14.112        2983.813
  25474322.139                          17.513       -2337.577
  20713552.411   108850429.570          35.968         -57.236
  22626432.928   118902704.562          35.581        1771.886
  20317607.638   106769700.011          35.575        -911.817
  20479603.876   107621000.703          32.487         616.601
  22222570.605   116780386.459          28.446       -1875.993
  22528161.451   118386265.803          28.087       -1502.189
  22042226.785   117621488.978          31.181       -1486.673
  21616010.636   115509397.196          27.022        -301.149
  21073848.857   112572747.542          33.279        1416.819
  22213951.125   118871283.456          27.758       -2895.263
  19723076.976                          23.452        1103.100
  21957944.844                          24.656        4455.212
 19  1 15  9 25 53.0001326  0 14G06G07G13G15G17G19G28G30R02R11R12R21
  23418045.434                          14.819        2983.113
  25474766.875                          16.601       -2338.565
  20713563.500   108850487.304          36.331         -58.315
  22626095.799   118900933.075          35.758        1770.930
  20317781.126   106770612.097          35.956        -912.662
  20479486.704   107620384.336          33.136         615.407
  22222926.081   116782262.408          28.451       -1876.164
  22528447.199   118387767.942          28.704       -1502.579
  22042505.523   117622975.884          31.428       -1487.482
  21616055.207   115509698.304          26.974        -301.726
  21073583.684   112571330.779          33.592        1416.492
  22214485.098   118874179.317          27.773       -2896.252
  19722870.831   105282249.9781         24.024        1102.303
  21957112.165   117455792.7741         24.430        4454.153
 19  1 15  9 25 54.0001326  0 14G06G07G13G15G17G19G28G30R02R11R12R21
  23417477.507                          16.263        2983.680
  25475211.803                          17.653       -2338.702
  20713574.616   108850545.753          36.490         -58.667
  22625758.859   118899162.227          35.776        1770.301
  20317954.851   106771524.985          36.158        -913.334
  20479369.547   107619768.689          32.941         615.609
  22223282.420   116784138.449          28.351       -1876.016
  22528733.104   118389270.544          28.705       -1502.769
  22042784.408   117624463.403          31.631       -1487.997
  21616121.900   115509999.596          27.951        -301.245
  21073318.457   112569914.113          33.975        1416.739
  22215019.966   118877075.896          27.777       -2896.744
  19722664.305   105281146.976          23.907        1102.468
  21956279.520   117451338.293          24.352        4454.313
 19  1 15  9 25 55.0001326  0 14G06G07G13G15G17G19G28G30R02R11R12R21
  23416909.822                          15.273        2982.904
  25475656.713                          17.797       -2338.088
  20713585.905   108850604.774          36.150         -59.480
  22625421.957   118897391.813          35.653        1770.149
  20318128.650   106772438.385          35.702        -913.624
  20479252.533   107619153.626          32.922         614.714
  22223639.027   116786014.426          28.266       -1876.088
  22529019.055   118390773.358          28.351       -1503.319
  22043063.400   117625951.312          31.721       -1488.345
  21616181.322   115510300.979          27.777        -301.586
  21073053.280   112568497.367          33.789        1416.791
  22215552.986   118879972.952          27.327       -2897.454
  19722458.013   105280044.951          24.447        1101.891
  21955446.795   117446883.971          24.265        4454.480
 19  1 15  9 25 56.0001326  0 14G06G07G13G15G17G19G28G30R02R11R12R21
  23416342.381                          16.406        2982.387
  25476101.695                          18.482       -2338.833
  20713597.250   108850664.303          36.521         -59.929
  22625085.146   118895621.906          35.659        1769.487
  20318302.513   106773352.376          36.409        -914.326
  20479135.642   107618539.008          33.542         614.337
  22223996.487   116787890.328          28.451       -1875.871
  22529304.943   118392276.297          28.422       -1503.035
  22043342.400   117627439.674          32.033       -1488.522
  21616235.260   115510602.425          28.204        -301.490
  21072788.040   112567080.538          34.380        1416.978
  22216099.187   118882870.414          28.469       -2897.634
  19722251.692   105278943.781          24.281        1101.164
  21954613.858   117442429.838          24.567        4454.390
 19  1 15  9 25 57.0001326  0 14G06G07G13G15G17G19G28G30R02R11R12R21
  23415774.763                          16.151        2984.870
  25476546.826                          18.140       -2338.471
  20713608.750   108850724.424          36.348         -60.699
  22624748.518   118893852.360          35.577        1769.043
  20318476.566   106774266.868          36.401        -915.156
  20479018.809   107617924.968          33.517         613.402
  22224353.268   116789766.127          28.274       -1875.891
  22529590.840   118393779.603          28.486       -1503.321
  22043621.456   117628928.534          32.021       -1489.339
  21616293.880   115510903.914          28.762        -301.785
  21072522.775   112565663.637          34.325        1416.697
  22216636.120   118885768.362          28.316       -2898.035
  19722045.450                          23.905        1102.041
  21953781.411   117437975.988          25.010        4452.763
 19  1 15  9 25 58.0001326  0 14G06G07G13G15G17G19G28G30R02R11R12R21
  23415207.090                          13.987        2982.635
  25476991.793                          18.644       -2338.137
  20713620.348   108850785.219          35.583         -61.303
  22624411.941   118892083.455          34.981        1768.542
  20318650.772   106775181.997          35.779        -915.522
  20478902.193   107617311.526          32.812         612.759
  22224710.171   116791642.023          27.397       -1875.927
  22529876.967   118395283.217          28.145       -1503.812
  22043900.739   117630417.991          31.861       -1489.783
  21616348.843   115511205.667          29.052        -302.123
  21072257.659   112564246.748          33.813        1417.074
  22217170.568   118888666.964          28.373       -2898.759
  19721839.968                          22.684        1098.048
  21952948.676   117433522.210          24.501        4453.632
 19  1 15  9 25 59.0001326  0 14G06G07G13G15G17G19G28G30R02R11R12R21
  23414639.568                          13.582        2982.516
  25477436.454                          17.685       -2338.380
  20713632.074   108850846.675          34.515         -61.855
  22624075.367   118890315.111          33.803        1768.163
  20318825.022   106776097.853          34.359        -916.176
  20478785.644   107616698.781          31.449         612.272
  22225067.256   116793517.956          25.959       -1875.992
  22530163.011   118396787.222          26.524       -1504.195
  22044180.117   117631908.108          30.929       -1490.522
  21616399.941   115511507.516          28.603        -302.236
  21071992.381   112562829.953          32.980        1416.781
  22217719.569   118891566.207          27.480       -2899.430
  19721634.516                          21.814        1097.174
  21952115.567                          23.724        4456.743
 19  1 15  9 26  0.0001326  0 14G06G07G13G15G17G19G28G30R02R11R12R21
  23414072.036                          16.103        2983.892
  25477881.409                          17.865       -2338.345
  20713643.974   108850909.101          36.176         -63.217
  22623739.052   118888547.687          35.415        1766.579
  20318999.516   106777014.671          35.940        -917.763
  20478669.250   107616086.952          32.832         610.888
  22225424.296   116795394.204          27.134       -1876.476
  22530449.389   118398291.866          27.748       -1505.420
  22044459.568   117633399.070          31.451       -1491.758
  21616456.910   115511809.868          29.589        -303.120
  21071727.247   112561413.521          34.207        1415.799
  22218259.589   118894466.350          28.401       -2901.159
  19721429.271                          21.395        1097.795
  21951282.537   117424616.0001         24.289        4452.446
 19  1 15  9 26  1.0001326  0 14G06G07G13G15G17G19G28G30R02R11R12R21
  23413504.480                          14.931        2983.408
  25478326.513                          19.483       -2339.098
  20713656.002   108850972.455          36.196         -63.530
  22623402.900   118886781.005          35.481        1766.428
  20319174.170   106777932.357          36.087        -918.033
  20478553.041   107615475.956          33.003         610.855
  22225781.377   116797270.814          27.392       -1876.719
  22530735.702   118399796.948          28.085       -1504.859
  22044739.295   117634890.805          31.606       -1492.146
  21616514.148   115512112.679          29.700        -302.914
  21071462.324   112559997.296          34.455        1416.143
  22218808.475   118897367.268          28.430       -2900.922
  19721223.928                          21.891        1093.956
  21950449.994   117420163.758          24.363        4451.690
 19  1 15  9 26  2.0001326  0 14G06G07G13G15G17G19G28G30R02R11R12R21
  23412937.129                          16.975        2982.713
  25478771.520                          19.216       -2338.740
  20713668.128   108851036.226          36.100         -63.870
  22623066.750   118885014.687          35.061        1766.117
  20319348.950   106778850.502          35.997        -918.425
  20478436.891   107614865.476          32.803         610.184
  22226138.545   116799147.180          26.873       -1876.564
  22531021.979   118401302.341          27.961       -1505.605
  22045018.982   117636382.833          31.637       -1491.976
  21616577.064   115512415.404          29.761        -302.633
  21071197.414   112558580.940          34.445        1416.257
  22219357.106   118900268.612          28.563       -2901.213
  19721018.872                          20.864        1097.306
  21949618.037                          23.230        4450.171
 19  1 15  9 26  3.0001326  0 14G06G07G13G15G17G19G28G30R02R11R12R21
  23412370.101                          16.172        2980.655
  25479216.623                          19.986       -2338.833
  20713680.379   108851100.522          36.491         -64.624
  22622730.696   118883248.778          35.558        1765.555
  20319523.751   106779769.079          36.158        -918.794
  20478320.799   107614255.352          33.069         609.996
  22226495.593   116801023.362          27.292       -1876.164
  22531308.416   118402807.860          28.615       -1505.697
  22045298.784   117637875.314          31.762       -1492.936
  21616631.454   115512718.186          30.227        -303.009
  21070932.234   112557164.392          34.467        1416.628
  22219897.009   118903170.378          28.637       -2901.942
  19720813.264                          21.551        1097.855
  21948785.700                          23.435        4452.979
 19  1 15  9 26  4.0001326  0 14G06G07G13G15G17G19G28G30R02R11R12R21
  23411802.927                          17.230        2981.892
  25479662.056                          21.169       -2340.121
  20713692.756   108851165.339          36.449         -65.194
  22622394.756   118881483.322          35.653        1765.085
  20319698.669   106780688.226          36.357        -919.328
  20478204.776   107613645.778          33.296         609.341
  22226852.658   116802899.552          27.686       -1876.168
  22531594.905   118404313.528          28.882       -1506.040
  22045578.649   117639368.190          31.509       -1493.183
  21616690.373   115513020.979          30.510        -302.862
  21070667.124   112555747.820          34.473        1416.349
  22220438.059   118906072.644          29.047       -2902.575
  19720608.128                          21.500        1091.354
  21947953.091   117406807.2771         24.225        4452.251
 19  1 15  9 26  5.0001326  0 14G06G07G13G15G17G19G28G30R02R11R12R21
  23411235.813                          16.246        2981.829
  25480107.619                          21.935       -2340.502
  20713705.247   108851230.849          36.570         -65.915
  22622058.893   118879718.382          35.631        1764.573
  20319873.671   106781608.032          36.627        -920.232
  20478088.872   107613036.842          33.490         608.569
  22227209.704   116804775.696          27.931       -1876.399
  22531881.400   118405819.543          29.046       -1506.326
  22045858.643   117640861.597          31.681       -1493.749
  21616746.995   115513323.842          30.610        -302.844
  21070402.185   112554331.198          34.787        1416.286
  22220985.196   118908975.422          29.128       -2903.069
  19720403.903                          21.345        1088.374
  21947120.910   117402355.564          24.202        4451.382
 19  1 15  9 26  6.0001326  0 14G06G07G13G15G17G19G28G30R02R11R12R21
  23410668.690                          16.420        2982.264
  25480553.093                          22.608       -2337.947
  20713717.881   108851297.001          36.702         -66.661
  22621723.195   118877954.059          35.850        1763.952
  20320048.879   106782528.507          36.258        -920.873
  20477973.146   107612428.559          33.490         607.844
  22227566.770   116806651.920          27.732       -1876.234
  22532168.051   118407325.820          29.006       -1506.541
  22046138.653   117642355.691          31.352       -1494.566
  21616804.095   115513627.053          31.045        -303.395
  21070137.062   112552914.658          34.842        1416.451
  22221532.867   118911878.849          29.687       -2903.823
  19720199.510                          22.363        1094.334
  21946288.488   117397904.076          23.748        4451.277
 19  1 15  9 26  7.0001326  0 14G06G07G13G15G17G19G28G30R02R11R12R21
  23410101.634                          15.747        2981.718
  25480998.359                          21.172       -2341.432
  20713730.645   108851363.761          36.505         -67.016
  22621387.518   118876190.261          35.938        1763.696
  20320224.117   106783449.589          36.125        -921.425
  20477857.544   107611820.891          33.728         607.202
  22227923.875   116808528.168          27.580       -1876.240
  22532454.756   118408832.613          28.905       -1506.879
  22046418.847   117643850.274          31.096       -1494.948
  21616860.372   115513930.344          31.152        -303.542
  21069871.944   112551498.122          34.649        1416.568
  22222076.584   118914782.867          29.591       -2904.325
  19719994.503                          22.677        1091.656
  21945456.818   117393452.866          23.833        4451.087
 19  1 15  9 26  8.0001326  0 14G06G07G13G15G17G19G28G30R02R11R12R21
  23409534.664                          16.425        2980.726
  25481444.429                          20.831       -2340.925
  20713743.461   108851431.196          36.285         -67.744
  22621051.977   118874426.973          35.714        1763.072
  20320399.466   106784371.279          35.849        -922.128
  20477742.010   107611213.709          33.639         606.886
  22228280.895   116810404.389          27.893       -1876.540
  22532741.367   118410339.535          29.070       -1506.937
  22046699.139   117645345.335          31.134       -1495.542
  21616918.368   115514233.674          31.078        -303.534
  21069606.801   112550081.552          34.616        1416.314
  22222618.829   118917687.384          29.336       -2905.202
  19719790.700                          22.954        1088.139
  21944624.591   117389001.841          23.974        4450.700
 19  1 15  9 26  9.0001326  0 14G06G07G13G15G17G19G28G30R02R11R12R21
  23408967.884                          14.912        2979.639
  25481889.975                          20.820       -2339.593
  20713756.419   108851499.344          36.422         -68.715
  22620716.528   118872664.343          35.852        1762.095
  20320574.996   106785293.719          36.109        -922.898
  20477626.656   107610607.327          33.919         605.927
  22228638.121   116812280.714          27.973       -1876.491
  22533028.153   118411846.967          29.620       -1508.110
  22046979.450   117646841.062          31.026       -1496.255
  21616975.584   115514537.355          31.137        -304.084
  21069341.647   112548665.068          34.395        1416.309
  22223161.051   118920592.585          29.404       -2905.668
  19719587.109   105264710.1291         24.079        1089.357
  21943792.415   117384551.208          24.330        4450.234
 19  1 15  9 26 10.0001326  0 14G06G07G13G15G17G19G28G30R02R11R12R21
  23408401.513                          13.792        2978.508
  25482335.618                          20.833       -2340.651
  20713769.566   108851568.208          36.408         -69.235
  22620381.208   118870902.320          35.893        1761.799
  20320750.658   106786216.838          36.246        -923.386
  20477511.522   107610001.632          33.877         605.131
  22228995.216   116814157.144          27.915       -1876.656
  22533315.145   118413354.745          29.259       -1508.257
  22047259.783   117648337.347          30.710       -1496.423
  21617032.468   115514841.167          30.938        -303.652
  21069076.471   112547248.720          34.427        1416.104
  22223704.206   118923498.473          29.251       -2906.220
  19719383.160   105263621.592          24.703        1088.223
  21942960.587   117380100.905          24.503        4450.077
 19  1 15  9 26 11.0001326  0 14G06G07G13G15G17G19G28G30R02R11R12R21
  23407834.907                          13.478        2980.523
  25482781.131                          21.348       -2339.954
  20713782.788   108851637.601          36.308         -69.800
  22620046.029   118869140.762          36.090        1761.120
  20320926.450   106787140.523          36.275        -924.148
  20477396.456   107609396.414          33.928         604.948
  22229352.275   116816033.476          28.000       -1876.367
  22533602.144   118414862.675          29.504       -1508.287
  22047540.280   117649834.195          30.527       -1497.356
  21617089.400   115515145.130          30.918        -303.978
  21068811.326   112545832.263          34.596        1416.460
  22224247.240   118926404.830          29.176       -2906.818
  19719179.449   105262533.807          25.280        1087.387
  21942128.336   117375650.732          24.438        4449.979
 19  1 15  9 26 12.0001326  0 14G06G07G13G15G17G19G28G30R02R11R12R21
  23407268.074                          13.277        2980.336
  25483227.090                          20.701       -2343.953
  20713796.172   108851707.752          36.162         -70.729
  22619710.993   118867379.856          35.984        1760.274
  20321102.364   106788064.913          36.390        -925.022
  20477281.397   107608791.868          33.829         604.159
  22229709.445   116817909.878          28.078       -1876.383
  22533889.173   118416371.105          29.398       -1508.549
  22047820.964   117651331.575          30.508       -1498.038
  21617146.400   115515449.302          30.863        -304.455
  21068546.077   112544415.916          34.398        1416.225
  22224790.381   118929311.765          29.464       -2906.875
  19718975.928   105261447.012          25.621        1086.020
  21941296.164   117371200.828          25.021        4449.925
 19  1 15  9 26 13.0001326  0 14G06G07G13G15G17G19G28G30R02R11R12R21
  23406701.118                          12.630        2982.114
  25483673.440                          20.323       -2344.977
  20713809.658   108851778.558          36.101         -71.382
  22619376.029   118865619.454          36.009        1760.036
  20321278.464   106788989.914          36.583        -925.467
  20477166.460   107608188.066          33.538         603.415
  22230066.573   116819786.428          28.041       -1876.874
  22534176.274   118417879.863          29.367       -1509.006
  22048101.666   117652829.517          30.354       -1498.329
  21617203.542   115515753.694          30.888        -304.703
  21068280.940   112542999.598          34.307        1416.249
  22225333.655   118932219.434          29.216       -2908.176
  19718772.906                          25.541        1084.397
  21940463.907                          24.515        4449.154
 19  1 15  9 26 14.0001326  0 14G06G07G13G15G17G19G28G30R02R11R12R21
  23406133.686                          11.770        2980.228
  25484119.008                          19.893       -2337.050
  20713823.264   108851850.124          35.742         -71.976
  22619041.143   118863859.765          35.759        1759.388
  20321454.590   106789915.651          36.243        -925.984
  20477051.714   107607584.890          33.407         602.853
  22230423.760   116821662.976          28.052       -1876.483
  22534463.491   118419389.063          28.817       -1509.484
  22048382.446   117654328.128          30.061       -1498.987
  21617260.595   115516058.302          30.778        -304.879
  21068015.931   112541583.417          33.928        1416.094
  22225877.165   118935127.733          29.267       -2908.663
  19718569.996   105259276.1411         25.552        1084.081
  21939631.716   117361985.1401         24.147        4449.108
 19  1 15  9 26 15.0001326  0 14G06G07G13G15G17G19G28G30R02R11R12R21
  23405566.269                          11.242        2983.006
  25484564.324                          20.221       -2341.292
  20713837.004   108851922.429          35.664         -72.750
  22618706.422   118862100.709          35.868        1758.701
  20321630.917   106790842.259          36.283        -926.923
  20476937.072   107606982.472          33.148         601.790
  22230780.921   116823539.703          27.749       -1876.683
  22534750.669   118420898.669          28.745       -1509.802
  22048663.439   117655827.427          30.347       -1499.703
  21617317.613   115516363.192          30.548        -305.197
  21067750.889   112540167.330          33.997        1416.044
  22226420.812   118938036.710          29.591       -2909.352
  19718367.000   105258192.182          25.530        1083.150
  21938800.047                          24.505        4447.308
 19  1 15  9 26 16.0001326  0 13G07G13G15G17G19G28G30R02R11R12R21R22
  25485009.985                          20.103       -2341.648
  20713850.855   108851995.448          35.649         -73.344
  22618371.837   118860342.315          35.996        1758.148
  20321807.332   106791769.476          36.436        -927.575
  20476822.597   107606380.795          33.237         601.323
  22231138.049   116825416.573          28.021       -1876.800
  22535037.954   118422408.720          28.906       -1510.101
  22048944.471   117657327.337          30.339       -1500.393
  21617374.778   115516668.313          30.567        -305.312
  21067485.782   112538751.358          33.761        1416.033
  22226964.613   118940946.382          29.417       -2910.125
  19718163.916                          25.236        1084.422
  21937968.535   117353087.9401         24.434        4447.961
 19  1 15  9 26 17.0001326  0 13G07G13G15G17G19G28G30R02R11R12R21R22
  25485456.302                          19.567       -2347.735
  20713864.904   108852069.175          35.460         -74.241
  22618037.333   118858584.505          35.801        1757.303
  20321983.908   106792697.389          36.310        -928.664
  20476708.241   107605779.658          33.045         600.544
  22231495.302   116827293.466          27.894       -1877.194
  22535325.202   118423919.050          28.678       -1510.414
  22049225.750   117658827.816          30.367       -1500.921
  21617431.947   115516973.536          30.110        -305.202
  21067220.791   112537335.434          33.459        1415.636
  22227508.580   118943856.596          29.335       -2910.651
  19717961.110   105256027.1061         25.624        1081.516
  21937137.117   117348927.7121         24.435        4447.835
 19  1 15  9 26 18.0001326  0 13G07G13G15G17G19G28G30R02R11R12R21R22
  25485902.744                          19.141       -2342.425
  20713879.016   108852143.457          35.307         -74.718
  22617702.978   118856827.147          35.795        1757.008
  20322160.679   106793625.928          36.147        -928.909
  20476593.981   107605179.196          33.088         600.010
  22231852.438   116829170.262          27.509       -1876.826
  22535612.644   118425429.741          28.524       -1511.144
  22049507.045   117660328.860          30.204       -1501.346
  21617489.119   115517278.954          30.048        -305.134
  21066955.769   112535919.493          33.226        1415.818
  22228052.475   118946767.374          29.736       -2911.180
  19717758.622   105254945.872          25.510        1080.560
  21936305.558   117344479.660          25.200        4448.201
 19  1 15  9 26 19.0001326  0 13G07G13G15G17G19G28G30R02R11R12R21R22
  25486348.453                          18.890       -2340.825
  20713893.291   108852218.421          35.906         -75.496
  22617368.635   118855070.337          36.316        1756.604
  20322337.477   106794555.024          36.476        -929.408
  20476479.877   107604579.297          33.164         599.357
  22232209.543   116831047.166          28.013       -1877.118
  22535900.236   118426940.672          28.757       -1511.236
  22049788.421   117661830.463          30.641       -1502.065
  21617546.414   115517584.592          30.014        -305.788
  21066690.650   112534503.553          33.558        1415.735
  22228596.635   118949678.751          29.632       -2911.974
  19717556.447   105253865.533          25.915        1079.641
  21935473.944   117340031.881          25.239        4447.642
 19  1 15  9 26 20.0001326  0 13G07G13G15G17G19G28G30R02R11R12R21R22
  25486794.103                          18.391       -2341.400
  20713907.764   108852294.052          35.762         -76.080
  22617034.456   118853314.169          36.506        1755.724
  20322514.424   106795484.816          36.491        -930.173
  20476365.916   107603979.985          33.126         598.776
  22232566.772   116832924.042          27.490       -1876.666
  22536187.651   118428451.988          28.902       -1511.510
  22050070.015   117663332.569          30.736       -1502.198
  21617603.685   115517890.312          30.122        -305.935
  21066425.593   112533087.641          33.483        1416.008
  22229141.010   118952590.644          29.762       -2912.133
  19717354.263   105252786.099          26.363        1078.824
  21934642.644   117335584.430          25.687        4446.952
 19  1 15  9 26 21.0001326  0 13G07G13G15G17G19G28G30R02R11R12R21R22
  25487239.789                          17.532       -2341.354
  20713922.265   108852370.360          35.913         -76.658
  22616700.431   118851558.497          36.396        1755.119
  20322691.527   106796415.271          36.578        -930.814
  20476252.013   107603381.347          33.066         598.236
  22232923.920   116834801.027          27.821       -1877.247
  22536475.333   118429963.603          29.530       -1512.045
  22050351.588   117664835.268          30.762       -1502.954
  21617661.064   115518196.222          30.285        -306.567
  21066160.472   112531671.793          33.414        1415.853
  22229685.221   118955503.245          29.399       -2913.025
  19717152.418   105251707.546          25.945        1077.980
  21933811.240   117331137.220          25.442        4446.880
 19  1 15  9 26 22.0001326  0 13G07G13G15G17G19G28G30R02R11R12R21R22
  25487685.503                          17.837       -2342.189
  20713936.933   108852447.303          35.948         -77.288
  22616366.496   118849803.443          36.369        1754.683
  20322868.733   106797346.420          36.225        -931.483
  20476138.238   107602783.374          32.962         597.763
  22233281.075   116836678.013          27.659       -1877.110
  22536763.113   118431475.645          29.764       -1512.382
  22050633.253   117666338.633          30.814       -1503.674
  21617718.486   115518502.354          30.239        -306.353
  21065895.352   112530256.002          33.407        1415.810
  22230229.648   118958416.430          29.280       -2913.340
  19716950.792   105250629.943          26.213        1077.106
  21932980.175   117326690.313          25.135        4446.670
 19  1 15  9 26 23.0001326  0 13G07G13G15G17G19G28G30R02R11R12R21R22
  25488131.429                          16.977       -2342.169
  20713951.669   108852524.795          36.182         -77.958
  22616032.673   118848048.770          36.652        1754.403
  20323046.027   106798278.035          36.551        -932.091
  20476024.480   107602185.888          33.159         596.984
  22233638.126   116838554.871          27.530       -1877.052
  22537050.978   118432987.789          29.932       -1512.785
  22050915.038   117667842.326          30.912       -1504.197
  21617775.976   115518808.472          29.934        -306.509
  21065630.368   112528840.063          33.278        1415.820
  22230774.045   118961329.987          29.063       -2913.774
  19716749.527   105249553.075          26.736        1075.955
  21932148.742   117322243.532          24.931        4446.254
 19  1 15  9 26 24.0001326  0 13G07G13G15G17G19G28G30R02R11R12R21R22
  25488577.692                          17.549       -2343.806
  20713966.572   108852602.932          35.800         -78.801
  22615698.951   118846294.707          36.356        1753.560
  20323223.416   106799210.358          36.184        -932.832
  20475910.968   107601589.063          32.866         596.223
  22233995.336   116840431.787          27.687       -1876.974
  22537338.869   118434500.280          29.722       -1512.795
  22051196.940   117669346.558          31.098       -1504.449
  21617833.307   115519114.796          29.762        -306.658
  21065365.378   112527424.212          33.342        1415.548
  22231318.760   118964244.196          29.004       -2914.341
  19716548.131   105248477.085          26.743        1075.652
  21931317.436   117317797.069          25.123        4445.962
 19  1 15  9 26 25.0001326  0 13G07G13G15G17G19G28G30R02R11R12R21R22
  25489023.986                          16.861       -2344.274
  20713981.644   108852681.623          35.854         -79.083
  22615365.312   118844541.096          36.343        1753.469
  20323400.961   106800143.129          36.154        -933.131
  20475797.471   107600992.639          33.084         596.143
  22234352.457   116842308.610          27.801       -1876.413
  22537626.867   118436013.030          29.508       -1512.814
  22051478.969   117670851.326          30.915       -1505.253
  21617890.673   115519421.145          30.137        -306.615
  21065100.438   112526008.225          33.154        1415.888
  22231863.689   118967158.934          29.181       -2915.180
  19716346.947   105247401.911          26.501        1074.794
  21930486.297   117313350.692          24.599        4446.353
 19  1 15  9 26 26.0001326  0 13G07G13G15G17G19G28G30R02R11R12R21R22
  25489470.158                          17.885       -2344.500
  20713996.710   108852760.789          35.998         -79.343
  22615031.741   118842787.837          36.368        1753.145
  20323578.549   106801076.425          36.316        -933.584
  20475684.107   107600396.693          32.893         595.973
  22234709.557   116844185.330          27.927       -1876.720
  22537914.757   118437525.969          29.656       -1512.787
  22051761.274   117672356.323          30.985       -1505.163
  21617948.181   115519727.477          30.139        -306.450
  21064835.310   112524592.024          33.018        1416.256
  22232408.475   118970073.957          28.847       -2915.249
  19716145.685   105246327.496          26.308        1074.035
  21929655.139   117308904.361          24.919        4446.703
 19  1 15  9 26 27.0001326  0 13G07G13G15G17G19G28G30R02R11R12R21R22
  25489916.367                          16.826       -2344.193
  20714011.911   108852840.501          36.016         -80.055
  22614698.211   118841035.018          36.361        1752.523
  20323756.237   106802010.227          36.172        -934.147
  20475570.834   107599801.330          32.799         595.001
  22235066.669   116846061.877          27.733       -1876.462
  22538202.647   118439039.074          30.184       -1513.241
  22052043.577   117673861.847          31.211       -1506.054
  21618005.717   115520033.917          30.388        -306.718
  21064570.137   112523175.734          33.161        1416.110
  22232953.420   118972989.513          28.862       -2915.938
  19715944.854   105245253.742          26.277        1073.293
  21928823.902   117304458.296          24.717        4445.602
 19  1 15  9 26 28.0001326  0 13G07G13G15G17G19G28G30R02R11R12R21R22
  25490362.713                          17.018       -2343.555
  20714027.247   108852920.953          35.976         -80.831
  22614364.805   118839282.877          36.622        1751.618
  20323934.067   106802944.783          36.270        -935.003
  20475457.707   107599206.646          32.875         594.278
  22235423.849   116847938.623          28.094       -1876.932
  22538490.743   118440552.630          29.829       -1513.796
  22052325.890   117675367.989          31.644       -1506.680
  21618063.264   115520340.540          30.514        -306.723
  21064305.142   112521759.559          33.247        1415.818
  22233498.366   118975905.718          28.521       -2916.669
  19715744.059   105244180.990          26.574        1072.453
  21927992.791   117300012.512          25.330        4445.463
 19  1 15  9 26 29.0001326  0 13G07G13G15G17G19G28G30R02R11R12R21R22
  25490809.404                          17.221       -2345.721
  20714042.580   108853002.061          35.923         -80.849
  22614031.480   118837531.277          36.654        1751.946
  20324111.995   106803879.935          36.256        -934.917
  20475344.612   107598612.580          32.921         594.260
  22235781.033   116849815.328          28.324       -1876.193
