% program   : RTKPOST ver.2.4.2
% inp file  : D:\Google Drive\UERJ\_Projeto Final\Python\tcc-guilherme\20190115_Levantamento_8min_Original.19o
% inp file  : D:\Google Drive\UERJ\_Projeto Final\20190115_Marco 91500 IBGE\brdm0150.19p
% obs start : 2019/01/15 09:34:43.0 GPST (week2036 207283.0s)
% obs end   : 2019/01/15 09:52:37.0 GPST (week2036 208357.0s)
% pos mode  : single
% elev mask : 15.0 deg
% ionos opt : broadcast
% tropo opt : saastamoinen
% ephemeris : broadcast
% navi sys  : glonass
%
% (x/y/z-ecef=WGS84,Q=1:fix,2:float,3:sbas,4:dgps,5:single,6:ppp,ns=# of satellites)
%  GPST                      x-ecef(m)      y-ecef(m)      z-ecef(m)   Q  ns   sdx(m)   sdy(m)   sdz(m)  sdxy(m)  sdyz(m)  sdzx(m) age(s)  ratio
2019/01/15 09:34:44.000   4280213.2645  -4034400.6194  -2458277.8063   5   6   8.2281   9.9669   7.2613  -7.6680   7.6256  -5.7650   0.00    0.0
2019/01/15 09:34:46.000   4280232.9629  -4034408.3511  -2458267.0108   5   6   8.2258   9.9652   7.2622  -7.6651   7.6253  -5.7630   0.00    0.0
2019/01/15 09:34:47.000   4280222.0173  -4034403.4408  -2458262.6574   5   6   8.2246   9.9643   7.2626  -7.6636   7.6252  -5.7620   0.00    0.0
2019/01/15 09:34:49.000   4280232.4628  -4034452.2272  -2458295.1310   5   6   8.2222   9.9626   7.2635  -7.6606   7.6250  -5.7599   0.00    0.0
2019/01/15 09:34:51.000   4280195.8193  -4034389.2175  -2458268.1193   5   6   8.2199   9.9609   7.2644  -7.6576   7.6247  -5.7579   0.00    0.0
2019/01/15 09:34:52.000   4280206.8857  -4034395.8206  -2458264.1686   5   6   8.2187   9.9600   7.2648  -7.6561   7.6246  -5.7569   0.00    0.0
2019/01/15 09:34:53.000   4280198.9841  -4034408.8629  -2458275.3656   5   6   8.2175   9.9592   7.2652  -7.6546   7.6245  -5.7558   0.00    0.0
2019/01/15 09:34:54.000   4280191.1034  -4034392.6903  -2458263.4685   5   6   8.2164   9.9583   7.2657  -7.6531   7.6244  -5.7548   0.00    0.0
2019/01/15 09:34:55.000   4280203.1146  -4034411.3965  -2458280.0165   5   6   8.2152   9.9574   7.2661  -7.6516   7.6242  -5.7538   0.00    0.0
2019/01/15 09:34:56.000   4280222.3907  -4034434.7648  -2458274.5353   5   6   8.2140   9.9566   7.2665  -7.6501   7.6241  -5.7528   0.00    0.0
2019/01/15 09:34:57.000   4280205.5497  -4034411.2673  -2458259.7728   5   6   8.2128   9.9557   7.2670  -7.6486   7.6240  -5.7518   0.00    0.0
2019/01/15 09:34:58.000   4280168.1042  -4034380.1929  -2458250.3254   5   6   8.2117   9.9549   7.2674  -7.6471   7.6239  -5.7507   0.00    0.0
2019/01/15 09:34:59.000   4280217.3442  -4034424.1254  -2458281.8144   5   6   8.2105   9.9540   7.2678  -7.6456   7.6237  -5.7497   0.00    0.0
2019/01/15 09:35:00.000   4280220.1787  -4034429.1967  -2458266.0709   5   6   8.2093   9.9531   7.2682  -7.6441   7.6236  -5.7487   0.00    0.0
2019/01/15 09:35:01.000   4280201.6111  -4034421.4707  -2458257.4176   5   6   8.2081   9.9523   7.2687  -7.6426   7.6235  -5.7476   0.00    0.0
2019/01/15 09:35:02.000   4280197.0337  -4034397.4245  -2458238.0225   5   6   8.2070   9.9514   7.2691  -7.6411   7.6233  -5.7466   0.00    0.0
2019/01/15 09:35:06.000   4280211.5327  -4034423.8665  -2458267.7696   5   6   8.2022   9.9480   7.2708  -7.6351   7.6228  -5.7425   0.00    0.0
2019/01/15 09:35:07.000   4280228.0674  -4034429.4056  -2458263.6830   5   6   8.2011   9.9471   7.2712  -7.6336   7.6227  -5.7415   0.00    0.0
2019/01/15 09:35:08.000   4280236.8563  -4034444.1391  -2458276.3376   5   6   8.1999   9.9462   7.2716  -7.6321   7.6225  -5.7404   0.00    0.0
2019/01/15 09:35:09.000   4280210.2167  -4034436.2865  -2458262.7438   5   6   8.1987   9.9454   7.2721  -7.6306   7.6224  -5.7394   0.00    0.0
2019/01/15 09:35:10.000   4280168.9640  -4034406.2847  -2458254.2980   5   6   8.1976   9.9445   7.2725  -7.6291   7.6223  -5.7384   0.00    0.0
2019/01/15 09:35:11.000   4280199.8589  -4034409.1347  -2458248.0228   5   6   8.1964   9.9437   7.2729  -7.6276   7.6221  -5.7373   0.00    0.0
2019/01/15 09:35:12.000   4280242.4090  -4034438.8184  -2458272.5075   5   6   8.1952   9.9428   7.2733  -7.6260   7.6220  -5.7363   0.00    0.0
2019/01/15 09:35:13.000   4280205.1864  -4034389.3620  -2458215.4106   5   6   8.1940   9.9419   7.2738  -7.6246   7.6219  -5.7353   0.00    0.0
2019/01/15 09:35:15.000   4280221.2043  -4034407.8973  -2458220.6082   5   6   8.1917   9.9402   7.2746  -7.6215   7.6216  -5.7332   0.00    0.0
2019/01/15 09:35:16.000   4280216.4901  -4034430.9060  -2458250.3696   5   6   8.1905   9.9393   7.2750  -7.6200   7.6215  -5.7321   0.00    0.0
2019/01/15 09:35:17.000   4280200.9512  -4034424.6491  -2458242.3273   5   6   8.1893   9.9385   7.2755  -7.6185   7.6213  -5.7311   0.00    0.0
2019/01/15 09:35:21.000   4280239.9323  -4034444.5394  -2458275.8454   5   6   8.1846   9.9350   7.2771  -7.6125   7.6208  -5.7269   0.00    0.0
2019/01/15 09:35:24.000   4280231.9958  -4034431.6344  -2458271.9789   5   6   8.1810   9.9324   7.2784  -7.6080   7.6204  -5.7238   0.00    0.0
2019/01/15 09:35:26.000   4280228.9424  -4034419.7186  -2458270.9566   5   6   8.1787   9.9307   7.2792  -7.6049   7.6201  -5.7217   0.00    0.0
2019/01/15 09:35:28.000   4280240.8835  -4034459.3214  -2458285.9128   5   6   8.1763   9.9289   7.2801  -7.6019   7.6198  -5.7196   0.00    0.0
2019/01/15 09:35:29.000   4280249.5056  -4034465.8359  -2458300.7665   5   6   8.1752   9.9280   7.2805  -7.6004   7.6196  -5.7185   0.00    0.0
2019/01/15 09:35:30.000   4280245.2218  -4034449.8015  -2458287.5006   5   6   8.1740   9.9272   7.2809  -7.5989   7.6195  -5.7175   0.00    0.0
2019/01/15 09:35:31.000   4280217.4677  -4034410.8618  -2458266.0521   5   6   8.1728   9.9263   7.2813  -7.5974   7.6194  -5.7165   0.00    0.0
2019/01/15 09:35:36.000   4280204.0209  -4034425.6193  -2458281.5173   5   6   8.1669   9.9220   7.2834  -7.5898   7.6187  -5.7112   0.00    0.0
2019/01/15 09:35:39.000   4280227.1304  -4034429.7376  -2458279.8612   5   6   8.1634   9.9194   7.2847  -7.5853   7.6182  -5.7080   0.00    0.0
2019/01/15 09:35:40.000   4280248.2050  -4034466.2487  -2458301.8318   5   6   8.1622   9.9185   7.2851  -7.5837   7.6181  -5.7070   0.00    0.0
2019/01/15 09:35:41.000   4280225.3870  -4034449.6820  -2458289.8113   5   6   8.1610   9.9176   7.2855  -7.5822   7.6179  -5.7059   0.00    0.0
2019/01/15 09:35:42.000   4280228.1402  -4034454.3033  -2458287.7444   5   6   8.1599   9.9168   7.2859  -7.5807   7.6178  -5.7049   0.00    0.0
2019/01/15 09:35:43.000   4280238.7516  -4034439.3479  -2458292.0339   5   6   8.1587   9.9159   7.2863  -7.5792   7.6176  -5.7038   0.00    0.0
2019/01/15 09:35:44.000   4280253.0431  -4034464.2798  -2458309.4622   5   6   8.1575   9.9150   7.2867  -7.5776   7.6175  -5.7027   0.00    0.0
2019/01/15 09:35:45.000   4280264.1752  -4034505.3519  -2458330.7436   5   6   8.1563   9.9141   7.2871  -7.5761   7.6173  -5.7016   0.00    0.0
2019/01/15 09:35:46.000   4280232.1072  -4034432.5908  -2458285.5437   5   6   8.1552   9.9133   7.2876  -7.5746   7.6172  -5.7006   0.00    0.0
2019/01/15 09:35:47.000   4280230.3918  -4034447.7519  -2458299.0221   5   6   8.1540   9.9124   7.2880  -7.5731   7.6170  -5.6995   0.00    0.0
2019/01/15 09:35:48.000   4280230.6889  -4034435.3591  -2458288.1820   5   6   8.1528   9.9115   7.2884  -7.5716   7.6169  -5.6985   0.00    0.0
2019/01/15 09:35:49.000   4280248.7125  -4034457.2245  -2458314.7969   5   6   8.1516   9.9107   7.2888  -7.5700   7.6167  -5.6974   0.00    0.0
2019/01/15 09:35:53.000   4280248.4625  -4034477.9165  -2458288.0744   5   6   8.1469   9.9072   7.2904  -7.5640   7.6161  -5.6932   0.00    0.0
2019/01/15 09:35:54.000   4280256.3859  -4034451.8552  -2458272.2171   5   6   8.1457   9.9063   7.2909  -7.5625   7.6160  -5.6921   0.00    0.0
2019/01/15 09:35:59.000   4280229.1304  -4034448.1770  -2458267.0960   5   6   8.1399   9.9020   7.2929  -7.5548   7.6152  -5.6868   0.00    0.0
2019/01/15 09:36:00.000   4280259.7820  -4034454.7221  -2458264.2039   5   6   8.1387   9.9011   7.2933  -7.5533   7.6151  -5.6857   0.00    0.0
2019/01/15 09:36:04.000   4280225.3958  -4034455.6986  -2458276.5411   5   6   8.1340   9.8976   7.2949  -7.5472   7.6145  -5.6814   0.00    0.0
2019/01/15 09:36:05.000   4280250.1065  -4034479.1721  -2458290.3850   5   6   8.1328   9.8967   7.2953  -7.5457   7.6143  -5.6803   0.00    0.0
2019/01/15 09:36:08.000   4280244.4762  -4034471.7610  -2458291.3851   5   6   8.1292   9.8941   7.2966  -7.5411   7.6138  -5.6771   0.00    0.0
2019/01/15 09:36:09.000   4280226.6510  -4034445.3714  -2458280.8005   5   6   8.1281   9.8932   7.2970  -7.5396   7.6137  -5.6760   0.00    0.0
2019/01/15 09:36:10.000   4280207.8813  -4034423.3484  -2458280.5000   5   6   8.1269   9.8923   7.2974  -7.5381   7.6135  -5.6749   0.00    0.0
2019/01/15 09:36:11.000   4280226.3173  -4034456.7165  -2458301.6330   5   6   8.1257   9.8915   7.2978  -7.5365   7.6134  -5.6738   0.00    0.0
2019/01/15 09:36:13.000   4280252.3537  -4034468.2823  -2458294.0053   5   6   8.1234   9.8897   7.2986  -7.5335   7.6131  -5.6717   0.00    0.0
2019/01/15 09:36:14.000   4280262.7702  -4034459.9150  -2458294.8983   5   6   8.1222   9.8888   7.2990  -7.5319   7.6129  -5.6706   0.00    0.0
2019/01/15 09:36:15.000   4280213.4740  -4034424.5457  -2458279.2054   5   6   8.1210   9.8880   7.2994  -7.5304   7.6127  -5.6695   0.00    0.0
2019/01/15 09:36:16.000   4280186.3701  -4034421.3181  -2458289.7781   5   6   8.1199   9.8871   7.2998  -7.5289   7.6126  -5.6684   0.00    0.0
2019/01/15 09:36:17.000   4280204.3082  -4034421.6390  -2458267.8762   5   6   8.1187   9.8862   7.3002  -7.5274   7.6124  -5.6674   0.00    0.0
2019/01/15 09:36:19.000   4280221.9612  -4034443.6534  -2458289.4405   5   6   8.1163   9.8845   7.3010  -7.5243   7.6121  -5.6652   0.00    0.0
2019/01/15 09:36:20.000   4280224.2690  -4034441.0313  -2458281.8387   5   6   8.1151   9.8836   7.3014  -7.5227   7.6119  -5.6641   0.00    0.0
2019/01/15 09:36:21.000   4280231.1748  -4034428.0255  -2458266.8547   5   6   8.1140   9.8827   7.3018  -7.5212   7.6118  -5.6630   0.00    0.0
2019/01/15 09:36:22.000   4280247.5180  -4034454.3322  -2458296.2300   5   6   8.1128   9.8818   7.3022  -7.5197   7.6116  -5.6619   0.00    0.0
2019/01/15 09:36:23.000   4280237.2590  -4034456.2204  -2458282.7546   5   6   8.1116   9.8809   7.3026  -7.5181   7.6115  -5.6608   0.00    0.0
2019/01/15 09:36:25.000   4280235.8496  -4034442.9322  -2458295.1148   5   6   8.1092   9.8792   7.3034  -7.5151   7.6111  -5.6586   0.00    0.0
2019/01/15 09:36:26.000   4280203.6892  -4034385.0816  -2458248.6452   5   6   8.1081   9.8783   7.3039  -7.5136   7.6110  -5.6576   0.00    0.0
2019/01/15 09:36:27.000   4280194.4028  -4034398.4047  -2458253.1781   5   6   8.1069   9.8775   7.3043  -7.5120   7.6108  -5.6565   0.00    0.0
2019/01/15 09:36:30.000   4280202.6368  -4034423.0445  -2458275.3178   5   6   8.1034   9.8748   7.3054  -7.5074   7.6103  -5.6532   0.00    0.0
2019/01/15 09:36:33.000   4280191.9180  -4034424.6183  -2458276.5058   5   6   8.0999   9.8722   7.3066  -7.5028   7.6098  -5.6499   0.00    0.0
2019/01/15 09:36:34.000   4280188.4674  -4034397.1115  -2458260.9510   5   6   8.0987   9.8713   7.3070  -7.5013   7.6097  -5.6488   0.00    0.0
2019/01/15 09:36:36.000   4280198.8516  -4034405.0396  -2458266.7447   5   6   8.0963   9.8696   7.3078  -7.4982   7.6093  -5.6466   0.00    0.0
2019/01/15 09:36:37.000   4280195.7406  -4034383.9396  -2458252.1510   5   6   8.0952   9.8687   7.3082  -7.4967   7.6092  -5.6455   0.00    0.0
2019/01/15 09:36:38.000   4280223.6584  -4034414.7859  -2458268.3664   5   6   8.0940   9.8678   7.3086  -7.4951   7.6090  -5.6444   0.00    0.0
2019/01/15 09:36:42.000   4280246.9468  -4034450.0621  -2458267.4953   5   6   8.0893   9.8643   7.3102  -7.4889   7.6083  -5.6400   0.00    0.0
2019/01/15 09:36:43.000   4280239.1399  -4034451.1791  -2458284.8617   5   6   8.0881   9.8634   7.3106  -7.4874   7.6081  -5.6389   0.00    0.0
2019/01/15 09:36:47.000   4280226.0688  -4034409.7208  -2458265.4788   5   6   8.0834   9.8599   7.3122  -7.4812   7.6075  -5.6345   0.00    0.0
2019/01/15 09:36:48.000   4280167.5344  -4034363.5381  -2458239.9000   5   6   8.0822   9.8590   7.3126  -7.4797   7.6073  -5.6334   0.00    0.0
2019/01/15 09:36:51.000   4280204.8042  -4034390.9749  -2458268.1060   5   6   8.0787   9.8563   7.3138  -7.4751   7.6068  -5.6300   0.00    0.0
2019/01/15 09:36:53.000   4280186.1767  -4034381.5654  -2458259.1457   5   6   8.0764   9.8546   7.3146  -7.4720   7.6064  -5.6278   0.00    0.0
2019/01/15 09:36:56.000   4280197.9481  -4034402.8448  -2458272.2422   5   6   8.0728   9.8519   7.3157  -7.4674   7.6059  -5.6245   0.00    0.0
2019/01/15 09:36:58.000   4280198.8165  -4034411.7080  -2458259.6360   5   6   8.0705   9.8502   7.3165  -7.4643   7.6055  -5.6222   0.00    0.0
2019/01/15 09:37:01.000   4280196.4089  -4034405.4574  -2458264.9169   5   6   8.0669   9.8475   7.3177  -7.4596   7.6050  -5.6189   0.00    0.0
2019/01/15 09:37:09.000   4280194.3689  -4034409.3489  -2458255.5764   5   6   8.0575   9.8404   7.3208  -7.4472   7.6036  -5.6099   0.00    0.0
2019/01/15 09:37:10.000   4280173.7986  -4034400.0196  -2458270.6622   5   6   8.0564   9.8396   7.3212  -7.4457   7.6034  -5.6088   0.00    0.0
2019/01/15 09:37:11.000   4280166.5304  -4034384.6779  -2458253.7888   5   6   8.0552   9.8387   7.3216  -7.4441   7.6032  -5.6077   0.00    0.0
2019/01/15 09:37:12.000   4280182.3112  -4034382.2233  -2458239.0948   5   6   8.0540   9.8378   7.3219  -7.4426   7.6031  -5.6066   0.00    0.0
2019/01/15 09:37:13.000   4280191.5699  -4034382.3248  -2458240.0996   5   6   8.0529   9.8369   7.3223  -7.4410   7.6029  -5.6054   0.00    0.0
2019/01/15 09:37:16.000   4280208.8943  -4034405.4284  -2458273.8771   5   6   8.0493   9.8342   7.3235  -7.4364   7.6023  -5.6020   0.00    0.0
2019/01/15 09:37:17.000   4280194.4964  -4034398.7631  -2458261.8981   5   6   8.0482   9.8334   7.3239  -7.4348   7.6021  -5.6009   0.00    0.0
2019/01/15 09:37:18.000   4280203.2297  -4034394.5499  -2458263.5052   5   6   8.0470   9.8325   7.3242  -7.4333   7.6019  -5.5998   0.00    0.0
2019/01/15 09:37:19.000   4280215.9114  -4034380.9858  -2458258.9080   5   6   8.0458   9.8316   7.3246  -7.4317   7.6018  -5.5986   0.00    0.0
2019/01/15 09:37:22.000   4280186.7437  -4034369.4964  -2458237.9349   5   6   8.0423   9.8289   7.3258  -7.4270   7.6012  -5.5953   0.00    0.0
2019/01/15 09:37:24.000   4280232.8332  -4034427.8373  -2458267.6552   5   6   8.0399   9.8271   7.3265  -7.4239   7.6008  -5.5930   0.00    0.0
2019/01/15 09:37:25.000   4280232.6284  -4034440.2075  -2458284.9148   5   6   8.0387   9.8262   7.3269  -7.4223   7.6006  -5.5918   0.00    0.0
2019/01/15 09:37:27.000   4280233.0513  -4034408.9067  -2458270.0457   5   6   8.0364   9.8245   7.3277  -7.4192   7.6003  -5.5896   0.00    0.0
2019/01/15 09:37:28.000   4280262.4832  -4034427.5519  -2458284.7266   5   6   8.0352   9.8236   7.3280  -7.4177   7.6001  -5.5884   0.00    0.0
2019/01/15 09:37:29.000   4280257.1893  -4034439.0267  -2458292.2379   5   6   8.0340   9.8227   7.3284  -7.4161   7.5999  -5.5873   0.00    0.0
2019/01/15 09:37:32.000   4280221.2655  -4034448.5614  -2458289.0317   5   6   8.0305   9.8200   7.3296  -7.4115   7.5993  -5.5839   0.00    0.0
2019/01/15 09:37:33.000   4280238.7310  -4034430.9521  -2458263.6202   5   6   8.0294   9.8191   7.3300  -7.4099   7.5991  -5.5827   0.00    0.0
2019/01/15 09:37:34.000   4280229.2870  -4034427.1854  -2458273.1267   5   6   8.0282   9.8182   7.3303  -7.4083   7.5989  -5.5816   0.00    0.0
2019/01/15 09:37:35.000   4280226.8926  -4034411.1945  -2458262.5287   5   6   8.0270   9.8174   7.3307  -7.4068   7.5988  -5.5804   0.00    0.0
2019/01/15 09:37:36.000   4280232.4015  -4034417.4446  -2458271.4489   5   6   8.0258   9.8165   7.3311  -7.4052   7.5986  -5.5793   0.00    0.0
2019/01/15 09:37:37.000   4280243.0368  -4034443.6764  -2458281.3345   5   6   8.0247   9.8156   7.3315  -7.4036   7.5984  -5.5781   0.00    0.0
2019/01/15 09:37:40.000   4280261.7491  -4034450.9103  -2458275.8838   5   6   8.0211   9.8129   7.3326  -7.3990   7.5978  -5.5747   0.00    0.0
2019/01/15 09:37:41.000   4280244.0527  -4034425.9302  -2458274.8117   5   6   8.0200   9.8120   7.3330  -7.3974   7.5976  -5.5736   0.00    0.0
2019/01/15 09:37:42.000   4280218.7283  -4034407.2861  -2458258.8986   5   6   8.0188   9.8111   7.3334  -7.3959   7.5974  -5.5724   0.00    0.0
2019/01/15 09:37:43.000   4280214.9452  -4034437.2966  -2458266.7146   5   6   8.0176   9.8102   7.3337  -7.3943   7.5972  -5.5713   0.00    0.0
2019/01/15 09:37:45.000   4280212.3431  -4034407.0988  -2458252.3355   5   6   8.0153   9.8085   7.3345  -7.3912   7.5968  -5.5690   0.00    0.0
2019/01/15 09:37:47.000   4280226.2067  -4034423.2175  -2458273.7681   5   6   8.0129   9.8067   7.3352  -7.3880   7.5964  -5.5667   0.00    0.0
2019/01/15 09:37:48.000   4280214.1046  -4034430.2930  -2458286.5235   5   6   8.0118   9.8058   7.3356  -7.3865   7.5962  -5.5655   0.00    0.0
2019/01/15 09:37:50.000   4280236.3719  -4034443.6963  -2458260.5501   5   6   8.0094   9.8040   7.3364  -7.3833   7.5958  -5.5632   0.00    0.0
2019/01/15 09:37:51.000   4280202.3829  -4034408.2413  -2458258.6459   5   6   8.0083   9.8031   7.3367  -7.3818   7.5957  -5.5621   0.00    0.0
2019/01/15 09:37:52.000   4280224.7127  -4034428.1823  -2458270.2508   5   6   8.0071   9.8022   7.3371  -7.3802   7.5955  -5.5609   0.00    0.0
2019/01/15 09:37:53.000   4280222.1567  -4034429.9631  -2458281.3383   5   6   8.0059   9.8013   7.3375  -7.3786   7.5952  -5.5597   0.00    0.0
2019/01/15 09:37:54.000   4280217.0643  -4034396.5543  -2458265.3827   5   6   8.0048   9.8004   7.3379  -7.3771   7.5951  -5.5586   0.00    0.0
2019/01/15 09:38:14.000   4280204.2036  -4034396.4809  -2458242.9737   5   6   7.9814   9.7826   7.3452  -7.3457   7.5910  -5.5353   0.00    0.0
2019/01/15 09:38:17.000   4280219.9570  -4034408.2095  -2458255.9630   5   6   7.9778   9.7799   7.3463  -7.3410   7.5904  -5.5318   0.00    0.0
2019/01/15 09:38:18.000   4280236.0472  -4034427.3048  -2458248.0404   5   6   7.9767   9.7790   7.3467  -7.3394   7.5902  -5.5306   0.00    0.0
2019/01/15 09:38:20.000   4280231.4799  -4034439.1571  -2458274.5761   5   6   7.9743   9.7772   7.3474  -7.3362   7.5898  -5.5282   0.00    0.0
2019/01/15 09:38:21.000   4280260.4844  -4034473.1968  -2458311.8993   5   6   7.9731   9.7762   7.3478  -7.3346   7.5895  -5.5270   0.00    0.0
2019/01/15 09:38:22.000   4280234.5732  -4034432.7442  -2458276.0448   5   6   7.9720   9.7754   7.3481  -7.3331   7.5893  -5.5259   0.00    0.0
2019/01/15 09:38:23.000   4280208.7551  -4034422.9350  -2458267.8618   5   6   7.9708   9.7745   7.3485  -7.3315   7.5891  -5.5247   0.00    0.0
2019/01/15 09:38:28.000   4280219.7567  -4034430.7936  -2458263.8949   5   6   7.9650   9.7700   7.3503  -7.3236   7.5881  -5.5188   0.00    0.0
2019/01/15 09:38:29.000   4280227.8682  -4034454.3450  -2458262.1586   5   6   7.9638   9.7691   7.3507  -7.3220   7.5879  -5.5176   0.00    0.0
2019/01/15 09:38:30.000   4280238.7677  -4034463.8659  -2458278.9699   5   6   7.9626   9.7682   7.3510  -7.3204   7.5877  -5.5164   0.00    0.0
2019/01/15 09:38:31.000   4280194.5201  -4034418.1851  -2458272.2801   5   6   7.9615   9.7673   7.3514  -7.3189   7.5875  -5.5153   0.00    0.0
2019/01/15 09:38:32.000   4280212.3815  -4034449.0000  -2458279.1719   5   6   7.9603   9.7664   7.3518  -7.3173   7.5872  -5.5141   0.00    0.0
2019/01/15 09:38:33.000   4280216.3517  -4034438.8078  -2458268.4233   5   6   7.9592   9.7655   7.3521  -7.3157   7.5870  -5.5129   0.00    0.0
2019/01/15 09:38:35.000   4280227.0866  -4034432.2659  -2458275.0791   5   6   7.9568   9.7637   7.3528  -7.3126   7.5866  -5.5105   0.00    0.0
2019/01/15 09:38:36.000   4280233.2435  -4034430.0556  -2458273.6537   5   6   7.9557   9.7628   7.3532  -7.3110   7.5864  -5.5093   0.00    0.0
2019/01/15 09:38:37.000   4280231.1785  -4034454.5322  -2458289.8900   5   6   7.9545   9.7619   7.3536  -7.3094   7.5862  -5.5081   0.00    0.0
2019/01/15 09:38:38.000   4280244.6489  -4034469.4968  -2458304.9157   5   6   7.9533   9.7610   7.3539  -7.3078   7.5859  -5.5069   0.00    0.0
2019/01/15 09:38:39.000   4280214.2182  -4034425.4330  -2458284.9758   5   6   7.9522   9.7601   7.3543  -7.3062   7.5857  -5.5057   0.00    0.0
2019/01/15 09:38:40.000   4280187.3335  -4034406.0561  -2458284.1149   5   6   7.9510   9.7592   7.3546  -7.3047   7.5855  -5.5046   0.00    0.0
2019/01/15 09:38:42.000   4280235.5009  -4034432.3194  -2458287.2593   5   6   7.9487   9.7574   7.3553  -7.3015   7.5851  -5.5022   0.00    0.0
2019/01/15 09:38:43.000   4280209.2626  -4034403.9074  -2458271.8636   5   6   7.9475   9.7565   7.3557  -7.2999   7.5849  -5.5010   0.00    0.0
2019/01/15 09:38:44.000   4280236.6756  -4034429.2305  -2458281.9658   5   6   7.9463   9.7556   7.3561  -7.2983   7.5846  -5.4998   0.00    0.0
2019/01/15 09:38:48.000   4280204.7498  -4034394.3053  -2458251.4541   5   6   7.9417   9.7520   7.3575  -7.2920   7.5838  -5.4950   0.00    0.0
2019/01/15 09:38:55.000   4280234.2694  -4034449.5155  -2458307.3085   5   6   7.9335   9.7457   7.3599  -7.2809   7.5822  -5.4866   0.00    0.0
2019/01/15 09:38:58.000   4280198.5787  -4034408.1252  -2458271.3469   5   6   7.9300   9.7430   7.3610  -7.2761   7.5816  -5.4830   0.00    0.0
2019/01/15 09:38:59.000   4280201.6535  -4034419.2710  -2458284.0926   5   6   7.9289   9.7421   7.3614  -7.2745   7.5813  -5.4818   0.00    0.0
2019/01/15 09:39:00.000   4280232.9136  -4034448.1162  -2458291.8524   5   6   7.9277   9.7412   7.3617  -7.2729   7.5811  -5.4806   0.00    0.0
2019/01/15 09:39:01.000   4280230.2183  -4034443.8142  -2458278.6994   5   6   7.9265   9.7403   7.3621  -7.2713   7.5809  -5.4794   0.00    0.0
2019/01/15 09:39:02.000   4280221.1283  -4034434.6798  -2458274.1386   5   6   7.9254   9.7394   7.3624  -7.2698   7.5807  -5.4782   0.00    0.0
2019/01/15 09:39:03.000   4280224.7931  -4034444.6336  -2458280.7727   5   6   7.9242   9.7385   7.3628  -7.2682   7.5804  -5.4769   0.00    0.0
2019/01/15 09:39:04.000   4280223.6498  -4034459.2448  -2458292.7917   5   6   7.9230   9.7375   7.3631  -7.2666   7.5802  -5.4757   0.00    0.0
2019/01/15 09:39:05.000   4280246.2645  -4034496.6349  -2458306.2462   5   6   7.9219   9.7366   7.3634  -7.2650   7.5800  -5.4745   0.00    0.0
2019/01/15 09:39:06.000   4280244.6277  -4034478.6404  -2458297.7844   5   6   7.9207   9.7357   7.3638  -7.2634   7.5798  -5.4733   0.00    0.0
2019/01/15 09:39:07.000   4280244.3313  -4034449.3258  -2458261.4836   5   6   7.9196   9.7348   7.3642  -7.2618   7.5795  -5.4721   0.00    0.0
2019/01/15 09:39:08.000   4280251.9587  -4034473.3136  -2458288.0393   5   6   7.9184   9.7339   7.3645  -7.2602   7.5793  -5.4709   0.00    0.0
2019/01/15 09:39:09.000   4280243.9626  -4034458.2752  -2458296.8362   5   6   7.9172   9.7330   7.3648  -7.2586   7.5791  -5.4697   0.00    0.0
2019/01/15 09:39:11.000   4280237.1712  -4034403.4415  -2458256.1939   5   6   7.9149   9.7312   7.3656  -7.2554   7.5786  -5.4673   0.00    0.0
2019/01/15 09:39:13.000   4280226.3378  -4034402.3963  -2458255.4623   5   6   7.9126   9.7294   7.3663  -7.2523   7.5782  -5.4648   0.00    0.0
2019/01/15 09:39:15.000   4280220.6628  -4034388.0198  -2458245.3004   5   6   7.9103   9.7276   7.3670  -7.2491   7.5777  -5.4624   0.00    0.0
2019/01/15 09:39:17.000   4280213.9537  -4034429.9057  -2458284.4804   5   6   7.9080   9.7258   7.3676  -7.2459   7.5773  -5.4600   0.00    0.0
2019/01/15 09:39:18.000   4280205.7433  -4034380.3554  -2458224.1656   5   6   7.9068   9.7249   7.3680  -7.2443   7.5770  -5.4588   0.00    0.0
2019/01/15 09:39:19.000   4280234.5353  -4034413.0343  -2458257.8580   5   6   7.9056   9.7240   7.3683  -7.2427   7.5768  -5.4575   0.00    0.0
2019/01/15 09:39:21.000   4280212.3400  -4034432.7141  -2458276.3389   5   6   7.9033   9.7222   7.3690  -7.2395   7.5763  -5.4551   0.00    0.0
2019/01/15 09:39:27.000   4280188.7801  -4034375.4667  -2458248.4808   5   6   7.8964   9.7167   7.3711  -7.2300   7.5749  -5.4478   0.00    0.0
2019/01/15 09:39:28.000   4280195.5137  -4034349.2820  -2458236.2331   5   6   7.8952   9.7158   7.3714  -7.2284   7.5747  -5.4465   0.00    0.0
2019/01/15 09:39:29.000   4280216.8952  -4034373.6337  -2458259.5806   5   6   7.8940   9.7149   7.3718  -7.2267   7.5745  -5.4453   0.00    0.0
2019/01/15 09:39:30.000   4280225.6125  -4034400.6247  -2458277.3005   5   6   7.8929   9.7140   7.3721  -7.2251   7.5742  -5.4441   0.00    0.0
2019/01/15 09:39:31.000   4280194.1161  -4034361.0496  -2458261.3898   5   6   7.8917   9.7131   7.3725  -7.2236   7.5740  -5.4428   0.00    0.0
2019/01/15 09:39:34.000   4280222.7935  -4034414.2996  -2458261.4994   5   6   7.8882   9.7104   7.3735  -7.2188   7.5733  -5.4391   0.00    0.0
2019/01/15 09:39:35.000   4280204.4772  -4034394.6365  -2458264.4904   5   6   7.8871   9.7095   7.3738  -7.2172   7.5730  -5.4379   0.00    0.0
2019/01/15 09:39:36.000   4280193.4625  -4034398.1371  -2458266.9213   5   6   7.8859   9.7086   7.3741  -7.2156   7.5728  -5.4367   0.00    0.0
2019/01/15 09:39:38.000   4280209.6725  -4034365.8031  -2458262.1597   5   6   7.8836   9.7067   7.3748  -7.2124   7.5723  -5.4342   0.00    0.0
2019/01/15 09:39:39.000   4280180.4338  -4034349.0767  -2458241.8360   5   6   7.8825   9.7058   7.3752  -7.2108   7.5721  -5.4330   0.00    0.0
2019/01/15 09:39:41.000   4280172.3229  -4034376.5595  -2458236.6969   5   6   7.8802   9.7040   7.3759  -7.2076   7.5716  -5.4305   0.00    0.0
2019/01/15 09:39:42.000   4280187.5117  -4034396.7131  -2458253.6767   5   6   7.8790   9.7031   7.3762  -7.2060   7.5714  -5.4293   0.00    0.0
2019/01/15 09:39:43.000   4280213.2990  -4034419.7460  -2458276.8250   5   6   7.8778   9.7022   7.3765  -7.2043   7.5711  -5.4280   0.00    0.0
2019/01/15 09:39:44.000   4280251.7283  -4034457.3150  -2458307.8400   5   6   7.8767   9.7013   7.3768  -7.2027   7.5709  -5.4268   0.00    0.0
2019/01/15 09:39:45.000   4280221.4805  -4034397.4694  -2458254.9637   5   6   7.8755   9.7004   7.3772  -7.2011   7.5707  -5.4256   0.00    0.0
2019/01/15 09:39:47.000   4280276.0177  -4034492.4870  -2458313.1298   5   5   9.7509  12.4927   7.6515  -9.8544   8.5603  -6.4092   0.00    0.0
2019/01/15 09:39:48.000   4280278.9618  -4034516.3322  -2458309.1565   5   5   9.7504  12.4919   7.6518  -9.8534   8.5599  -6.4081   0.00    0.0
2019/01/15 09:39:49.000   4280213.1915  -4034441.0303  -2458284.0352   5   5   9.7499  12.4912   7.6521  -9.8525   8.5597  -6.4071   0.00    0.0
2019/01/15 09:39:51.000   4280168.2958  -4034379.5017  -2458259.7407   5   6   7.8686   9.6949   7.3792  -7.1915   7.5692  -5.4181   0.00    0.0
2019/01/15 09:40:01.000   4280202.7768  -4034433.1749  -2458279.0421   5   6   7.8571   9.6858   7.3825  -7.1755   7.5667  -5.4056   0.00    0.0
2019/01/15 09:40:02.000   4280190.7416  -4034404.9262  -2458270.5068   5   6   7.8559   9.6849   7.3828  -7.1739   7.5665  -5.4044   0.00    0.0
2019/01/15 09:40:06.000   4280166.9722  -4034364.6113  -2458242.3458   5   6   7.8513   9.6812   7.3842  -7.1674   7.5655  -5.3994   0.00    0.0
2019/01/15 09:40:07.000   4280179.2956  -4034362.2371  -2458224.8516   5   6   7.8502   9.6803   7.3845  -7.1658   7.5653  -5.3981   0.00    0.0
2019/01/15 09:40:08.000   4280197.8393  -4034382.8072  -2458243.5701   5   6   7.8490   9.6794   7.3848  -7.1642   7.5650  -5.3969   0.00    0.0
2019/01/15 09:40:18.000   4280203.5475  -4034384.7071  -2458255.1720   5   6   7.8375   9.6703   7.3881  -7.1481   7.5625  -5.3843   0.00    0.0
2019/01/15 09:40:35.000   4280197.1590  -4034410.2103  -2458249.3354   5   6   7.8180   9.6547   7.3936  -7.1207   7.5581  -5.3627   0.00    0.0
2019/01/15 09:40:36.000   4280223.0137  -4034440.8752  -2458281.0429   5   6   7.8168   9.6537   7.3939  -7.1190   7.5578  -5.3614   0.00    0.0
2019/01/15 09:40:43.000   4280221.8540  -4034398.5263  -2458246.0544   5   6   7.8088   9.6473   7.3961  -7.1077   7.5560  -5.3525   0.00    0.0
2019/01/15 09:40:44.000   4280212.4024  -4034407.2470  -2458257.9771   5   6   7.8077   9.6464   7.3964  -7.1061   7.5557  -5.3512   0.00    0.0
2019/01/15 09:40:47.000   4280231.8190  -4034411.1056  -2458261.5788   5   6   7.8042   9.6436   7.3974  -7.1012   7.5549  -5.3473   0.00    0.0
2019/01/15 09:40:48.000   4280219.5350  -4034377.7463  -2458235.3219   5   6   7.8031   9.6427   7.3977  -7.0996   7.5547  -5.3460   0.00    0.0
2019/01/15 09:40:53.000   4280202.9884  -4034414.5720  -2458261.7846   5   6   7.7974   9.6381   7.3993  -7.0915   7.5533  -5.3396   0.00    0.0
2019/01/15 09:40:54.000   4280197.5341  -4034418.3926  -2458267.0782   5   6   7.7962   9.6372   7.3996  -7.0899   7.5531  -5.3383   0.00    0.0
2019/01/15 09:40:55.000   4280232.4806  -4034418.5051  -2458258.3678   5   6   7.7951   9.6363   7.3999  -7.0882   7.5528  -5.3370   0.00    0.0
2019/01/15 09:40:56.000   4280234.0929  -4034414.3279  -2458270.6854   5   6   7.7939   9.6354   7.4002  -7.0866   7.5525  -5.3357   0.00    0.0
2019/01/15 09:40:57.000   4280185.7501  -4034414.7339  -2458273.4438   5   6   7.7928   9.6344   7.4005  -7.0850   7.5523  -5.3344   0.00    0.0
2019/01/15 09:40:58.000   4280202.5396  -4034428.3200  -2458276.3936   5   6   7.7917   9.6335   7.4008  -7.0834   7.5520  -5.3331   0.00    0.0
2019/01/15 09:41:00.000   4280208.9612  -4034385.0042  -2458241.1329   5   6   7.7894   9.6317   7.4015  -7.0801   7.5514  -5.3306   0.00    0.0
2019/01/15 09:41:01.000   4280200.4946  -4034394.2263  -2458240.1693   5   6   7.7882   9.6308   7.4018  -7.0785   7.5512  -5.3293   0.00    0.0
2019/01/15 09:41:02.000   4280206.9595  -4034411.9623  -2458276.4652   5   6   7.7871   9.6298   7.4021  -7.0769   7.5509  -5.3280   0.00    0.0
2019/01/15 09:41:04.000   4280174.6649  -4034380.5308  -2458281.3881   5   6   7.7848   9.6280   7.4027  -7.0736   7.5504  -5.3254   0.00    0.0
2019/01/15 09:41:05.000   4280175.4576  -4034363.7781  -2458259.0441   5   6   7.7837   9.6271   7.4030  -7.0720   7.5501  -5.3241   0.00    0.0
2019/01/15 09:41:06.000   4280177.6298  -4034364.4775  -2458258.1301   5   6   7.7826   9.6262   7.4033  -7.0704   7.5498  -5.3228   0.00    0.0
2019/01/15 09:41:08.000   4280180.9085  -4034388.1614  -2458261.6507   5   6   7.7803   9.6243   7.4039  -7.0671   7.5493  -5.3202   0.00    0.0
2019/01/15 09:41:09.000   4280200.4271  -4034414.8073  -2458289.7754   5   6   7.7791   9.6234   7.4042  -7.0655   7.5490  -5.3189   0.00    0.0
2019/01/15 09:41:11.000   4280240.5106  -4034419.8854  -2458268.9131   5   6   7.7768   9.6215   7.4049  -7.0622   7.5484  -5.3163   0.00    0.0
2019/01/15 09:41:12.000   4280221.6368  -4034429.8415  -2458260.3120   5   6   7.7757   9.6206   7.4052  -7.0606   7.5482  -5.3150   0.00    0.0
2019/01/15 09:41:13.000   4280225.8154  -4034462.7680  -2458285.0125   5   6   7.7746   9.6197   7.4055  -7.0590   7.5479  -5.3137   0.00    0.0
2019/01/15 09:41:15.000   4280198.9121  -4034388.5097  -2458260.3131   5   6   7.7723   9.6179   7.4061  -7.0557   7.5473  -5.3111   0.00    0.0
2019/01/15 09:41:16.000   4280217.5448  -4034430.3748  -2458280.5452   5   6   7.7711   9.6169   7.4064  -7.0541   7.5470  -5.3098   0.00    0.0
2019/01/15 09:41:17.000   4280227.5339  -4034436.0170  -2458286.6304   5   6   7.7700   9.6160   7.4067  -7.0525   7.5468  -5.3084   0.00    0.0
2019/01/15 09:41:18.000   4280223.9526  -4034414.0087  -2458268.5330   5   6   7.7689   9.6151   7.4070  -7.0509   7.5465  -5.3071   0.00    0.0
2019/01/15 09:41:19.000   4280218.0372  -4034429.8188  -2458269.2821   5   6   7.7677   9.6141   7.4073  -7.0492   7.5462  -5.3058   0.00    0.0
2019/01/15 09:41:20.000   4280229.5393  -4034443.9935  -2458282.7327   5   6   7.7666   9.6132   7.4076  -7.0476   7.5459  -5.3045   0.00    0.0
2019/01/15 09:41:22.000   4280187.2091  -4034382.7606  -2458257.6794   5   6   7.7643   9.6114   7.4082  -7.0443   7.5454  -5.3019   0.00    0.0
2019/01/15 09:41:23.000   4280181.1776  -4034395.5357  -2458254.9836   5   6   7.7632   9.6105   7.4085  -7.0427   7.5451  -5.3006   0.00    0.0
2019/01/15 09:41:24.000   4280195.7723  -4034406.3339  -2458236.5551   5   6   7.7621   9.6095   7.4088  -7.0411   7.5448  -5.2993   0.00    0.0
2019/01/15 09:41:27.000   4280207.0088  -4034396.0248  -2458264.2561   5   6   7.7587   9.6068   7.4097  -7.0362   7.5440  -5.2954   0.00    0.0
2019/01/15 09:41:28.000   4280194.6615  -4034380.3164  -2458253.1075   5   6   7.7575   9.6058   7.4101  -7.0346   7.5437  -5.2941   0.00    0.0
2019/01/15 09:41:31.000   4280226.0832  -4034416.7958  -2458267.9634   5   6   7.7541   9.6030   7.4109  -7.0297   7.5429  -5.2901   0.00    0.0
2019/01/15 09:41:32.000   4280236.5928  -4034425.5656  -2458284.5679   5   6   7.7530   9.6021   7.4112  -7.0280   7.5426  -5.2888   0.00    0.0
2019/01/15 09:41:35.000   4280223.4581  -4034470.0958  -2458315.5674   5   6   7.7496   9.5993   7.4121  -7.0231   7.5417  -5.2848   0.00    0.0
2019/01/15 09:41:38.000   4280225.9825  -4034406.8497  -2458270.5572   5   6   7.7462   9.5966   7.4130  -7.0182   7.5409  -5.2809   0.00    0.0
2019/01/15 09:41:40.000   4280193.1099  -4034396.4270  -2458267.7531   5   6   7.7439   9.5947   7.4136  -7.0150   7.5403  -5.2782   0.00    0.0
2019/01/15 09:41:41.000   4280220.7477  -4034395.0186  -2458263.4301   5   6   7.7428   9.5938   7.4139  -7.0133   7.5400  -5.2769   0.00    0.0
2019/01/15 09:41:42.000   4280242.0603  -4034451.3095  -2458296.7284   5   6   7.7417   9.5928   7.4142  -7.0117   7.5397  -5.2756   0.00    0.0
2019/01/15 09:41:43.000   4280221.7484  -4034435.5329  -2458277.7522   5   6   7.7405   9.5919   7.4145  -7.0100   7.5394  -5.2742   0.00    0.0
2019/01/15 09:41:45.000   4280205.6663  -4034426.1691  -2458287.3625   5   6   7.7383   9.5901   7.4151  -7.0068   7.5389  -5.2716   0.00    0.0
2019/01/15 09:41:46.000   4280229.6686  -4034456.0415  -2458282.7653   5   6   7.7371   9.5891   7.4154  -7.0051   7.5386  -5.2703   0.00    0.0
2019/01/15 09:41:47.000   4280225.2068  -4034435.0717  -2458250.9507   5   6   7.7360   9.5882   7.4157  -7.0035   7.5383  -5.2689   0.00    0.0
2019/01/15 09:41:49.000   4280224.4710  -4034419.5002  -2458281.2700   5   6   7.7338   9.5864   7.4163  -7.0002   7.5377  -5.2663   0.00    0.0
2019/01/15 09:41:50.000   4280217.2381  -4034430.0482  -2458277.7936   5   6   7.7326   9.5854   7.4166  -6.9986   7.5374  -5.2649   0.00    0.0
2019/01/15 09:41:51.000   4280229.0538  -4034431.9567  -2458261.8557   5   6   7.7315   9.5845   7.4169  -6.9970   7.5371  -5.2636   0.00    0.0
2019/01/15 09:41:52.000   4280263.9096  -4034469.6198  -2458308.9278   5   6   7.7304   9.5835   7.4172  -6.9953   7.5368  -5.2623   0.00    0.0
2019/01/15 09:41:54.000   4280203.9618  -4034408.3851  -2458262.2008   5   6   7.7281   9.5817   7.4178  -6.9921   7.5363  -5.2596   0.00    0.0
2019/01/15 09:41:55.000   4280229.9882  -4034408.3161  -2458265.4542   5   6   7.7270   9.5808   7.4181  -6.9904   7.5360  -5.2583   0.00    0.0
2019/01/15 09:42:00.000   4280224.4183  -4034393.1735  -2458256.7462   5   6   7.7214   9.5761   7.4195  -6.9822   7.5345  -5.2516   0.00    0.0
2019/01/15 09:42:01.000   4280204.6284  -4034413.8326  -2458271.9335   5   6   7.7202   9.5752   7.4198  -6.9806   7.5342  -5.2503   0.00    0.0
2019/01/15 09:42:03.000   4280197.2467  -4034332.0602  -2458203.8761   5   6   7.7180   9.5734   7.4204  -6.9773   7.5336  -5.2476   0.00    0.0
2019/01/15 09:42:05.000   4280208.1569  -4034415.3137  -2458269.2975   5   6   7.7157   9.5715   7.4210  -6.9740   7.5330  -5.2449   0.00    0.0
2019/01/15 09:42:06.000   4280194.9116  -4034388.2707  -2458254.7992   5   6   7.7146   9.5706   7.4213  -6.9724   7.5327  -5.2436   0.00    0.0
2019/01/15 09:42:07.000   4280183.7451  -4034389.8589  -2458249.5737   5   6   7.7135   9.5696   7.4216  -6.9707   7.5324  -5.2422   0.00    0.0
2019/01/15 09:42:08.000   4280196.6858  -4034414.5461  -2458273.2964   5   6   7.7124   9.5687   7.4219  -6.9691   7.5321  -5.2409   0.00    0.0
2019/01/15 09:42:13.000   4280201.7506  -4034387.9048  -2458261.0177   5   6   7.7068   9.5640   7.4233  -6.9609   7.5307  -5.2342   0.00    0.0
2019/01/15 09:42:14.000   4280221.3214  -4034403.3014  -2458258.3016   5   6   7.7056   9.5631   7.4236  -6.9592   7.5303  -5.2328   0.00    0.0
2019/01/15 09:42:15.000   4280234.5109  -4034407.2406  -2458261.7697   5   6   7.7045   9.5622   7.4239  -6.9576   7.5300  -5.2315   0.00    0.0
2019/01/15 09:42:18.000   4280228.3552  -4034462.6919  -2458301.4227   5   6   7.7011   9.5594   7.4247  -6.9526   7.5291  -5.2274   0.00    0.0
2019/01/15 09:42:22.000   4280242.5049  -4034465.2686  -2458285.2582   5   6   7.6966   9.5556   7.4258  -6.9461   7.5279  -5.2220   0.00    0.0
2019/01/15 09:42:23.000   4280193.4594  -4034448.6763  -2458268.4181   5   6   7.6955   9.5547   7.4261  -6.9444   7.5276  -5.2207   0.00    0.0
2019/01/15 09:42:24.000   4280198.2697  -4034444.8586  -2458261.4691   5   6   7.6944   9.5538   7.4264  -6.9428   7.5273  -5.2193   0.00    0.0
2019/01/15 09:42:26.000   4280216.7647  -4034415.4572  -2458275.8594   5   6   7.6922   9.5519   7.4270  -6.9395   7.5267  -5.2166   0.00    0.0
2019/01/15 09:42:28.000   4280230.1294  -4034396.1378  -2458256.0358   5   6   7.6899   9.5501   7.4276  -6.9362   7.5261  -5.2139   0.00    0.0
2019/01/15 09:42:29.000   4280241.9457  -4034423.9982  -2458261.1550   5   6   7.6888   9.5491   7.4278  -6.9346   7.5258  -5.2125   0.00    0.0
2019/01/15 09:42:30.000   4280232.3475  -4034442.8781  -2458290.3216   5   6   7.6877   9.5482   7.4281  -6.9329   7.5255  -5.2111   0.00    0.0
2019/01/15 09:42:31.000   4280226.9583  -4034416.8925  -2458266.8997   5   6   7.6866   9.5472   7.4284  -6.9313   7.5252  -5.2098   0.00    0.0
2019/01/15 09:42:34.000   4280212.0978  -4034444.7110  -2458281.2912   5   6   7.6832   9.5444   7.4292  -6.9263   7.5243  -5.2057   0.00    0.0
2019/01/15 09:42:35.000   4280188.3763  -4034416.0582  -2458257.1914   5   6   7.6821   9.5435   7.4295  -6.9247   7.5240  -5.2044   0.00    0.0
2019/01/15 09:42:36.000   4280196.9696  -4034395.4651  -2458247.4176   5   6   7.6810   9.5426   7.4298  -6.9230   7.5237  -5.2030   0.00    0.0
2019/01/15 09:42:37.000   4280227.7365  -4034431.7431  -2458284.1328   5   6   7.6799   9.5416   7.4301  -6.9214   7.5233  -5.2016   0.00    0.0
2019/01/15 09:42:38.000   4280219.7124  -4034408.4683  -2458263.0955   5   6   7.6788   9.5407   7.4303  -6.9197   7.5231  -5.2003   0.00    0.0
2019/01/15 09:42:40.000   4280227.4778  -4034383.1393  -2458257.6316   5   6   7.6766   9.5388   7.4309  -6.9164   7.5224  -5.1975   0.00    0.0
2019/01/15 09:42:41.000   4280207.2590  -4034404.2705  -2458283.8883   5   6   7.6754   9.5379   7.4312  -6.9148   7.5221  -5.1962   0.00    0.0
2019/01/15 09:42:42.000   4280185.1274  -4034387.6162  -2458256.0785   5   6   7.6743   9.5370   7.4315  -6.9131   7.5218  -5.1948   0.00    0.0
2019/01/15 09:42:43.000   4280209.1231  -4034428.8491  -2458275.1059   5   6   7.6732   9.5360   7.4317  -6.9115   7.5215  -5.1934   0.00    0.0
2019/01/15 09:42:46.000   4280218.1468  -4034415.4481  -2458268.8400   5   6   7.6699   9.5332   7.4326  -6.9065   7.5206  -5.1893   0.00    0.0
2019/01/15 09:42:47.000   4280237.9883  -4034450.7515  -2458285.9263   5   6   7.6687   9.5323   7.4328  -6.9049   7.5202  -5.1879   0.00    0.0
2019/01/15 09:42:50.000   4280228.0326  -4034403.3520  -2458261.5340   5   6   7.6654   9.5295   7.4337  -6.8999   7.5193  -5.1838   0.00    0.0
2019/01/15 09:42:51.000   4280212.9994  -4034398.8703  -2458273.6790   5   6   7.6643   9.5285   7.4339  -6.8983   7.5190  -5.1825   0.00    0.0
2019/01/15 09:42:52.000   4280207.8085  -4034394.7516  -2458257.0949   5   6   7.6632   9.5276   7.4342  -6.8966   7.5187  -5.1811   0.00    0.0
2019/01/15 09:42:55.000   4280221.9112  -4034398.9461  -2458246.1773   5   6   7.6599   9.5248   7.4350  -6.8917   7.5178  -5.1770   0.00    0.0
2019/01/15 09:42:56.000   4280190.7623  -4034395.5442  -2458246.4599   5   6   7.6588   9.5239   7.4353  -6.8900   7.5174  -5.1756   0.00    0.0
2019/01/15 09:42:58.000   4280226.6117  -4034429.6310  -2458287.9074   5   6   7.6565   9.5220   7.4358  -6.8867   7.5168  -5.1728   0.00    0.0
2019/01/15 09:42:59.000   4280231.2037  -4034405.9048  -2458267.3414   5   6   7.6554   9.5210   7.4361  -6.8851   7.5165  -5.1714   0.00    0.0
2019/01/15 09:43:00.000   4280231.0166  -4034415.1185  -2458274.4775   5   6   7.6543   9.5201   7.4364  -6.8834   7.5162  -5.1700   0.00    0.0
2019/01/15 09:43:01.000   4280184.2375  -4034397.7207  -2458258.4180   5   6   7.6532   9.5192   7.4367  -6.8818   7.5159  -5.1687   0.00    0.0
2019/01/15 09:43:02.000   4280169.0296  -4034385.8709  -2458251.8349   5   6   7.6521   9.5182   7.4369  -6.8801   7.5155  -5.1673   0.00    0.0
2019/01/15 09:43:05.000   4280216.0964  -4034437.2154  -2458285.5617   5   6   7.6488   9.5154   7.4377  -6.8751   7.5146  -5.1631   0.00    0.0
2019/01/15 09:43:06.000   4280229.7420  -4034429.9590  -2458281.3966   5   6   7.6477   9.5145   7.4380  -6.8735   7.5142  -5.1617   0.00    0.0
2019/01/15 09:43:08.000   4280226.2438  -4034442.7168  -2458292.8557   5   6   7.6455   9.5126   7.4385  -6.8702   7.5136  -5.1590   0.00    0.0
2019/01/15 09:43:09.000   4280233.7703  -4034443.0671  -2458284.0321   5   6   7.6444   9.5116   7.4388  -6.8685   7.5133  -5.1576   0.00    0.0
2019/01/15 09:43:10.000   4280238.6994  -4034413.2026  -2458259.3117   5   6   7.6433   9.5107   7.4391  -6.8668   7.5130  -5.1562   0.00    0.0
2019/01/15 09:43:12.000   4280231.7935  -4034426.4260  -2458279.1112   5   6   7.6410   9.5088   7.4396  -6.8635   7.5123  -5.1534   0.00    0.0
2019/01/15 09:43:13.000   4280233.8785  -4034420.5815  -2458255.7284   5   6   7.6399   9.5079   7.4399  -6.8619   7.5120  -5.1520   0.00    0.0
2019/01/15 09:43:14.000   4280223.5736  -4034431.0891  -2458274.9651   5   6   7.6388   9.5070   7.4401  -6.8602   7.5117  -5.1506   0.00    0.0
2019/01/15 09:43:16.000   4280218.0733  -4034451.8258  -2458292.0696   5   6   7.6366   9.5051   7.4407  -6.8569   7.5110  -5.1479   0.00    0.0
2019/01/15 09:43:22.000   4280228.5635  -4034434.7246  -2458281.6231   5   6   7.6300   9.4994   7.4422  -6.8470   7.5091  -5.1395   0.00    0.0
2019/01/15 09:43:24.000   4280197.3267  -4034383.7325  -2458239.3094   5   6   7.6278   9.4976   7.4428  -6.8437   7.5085  -5.1367   0.00    0.0
2019/01/15 09:43:25.000   4280212.8652  -4034422.2493  -2458263.2463   5   6   7.6267   9.4966   7.4430  -6.8420   7.5081  -5.1353   0.00    0.0
2019/01/15 09:43:26.000   4280245.5733  -4034444.2988  -2458267.6920   5   6   7.6256   9.4957   7.4433  -6.8403   7.5078  -5.1339   0.00    0.0
2019/01/15 09:43:28.000   4280220.8360  -4034420.6721  -2458262.0199   5   6   7.6234   9.4938   7.4438  -6.8370   7.5071  -5.1311   0.00    0.0
2019/01/15 09:43:30.000   4280204.7402  -4034402.4350  -2458249.0602   5   6   7.6212   9.4919   7.4444  -6.8337   7.5065  -5.1283   0.00    0.0
2019/01/15 09:43:31.000   4280218.2340  -4034422.0428  -2458258.6310   5   6   7.6201   9.4910   7.4446  -6.8320   7.5062  -5.1269   0.00    0.0
2019/01/15 09:43:32.000   4280236.3243  -4034420.6030  -2458260.4761   5   6   7.6190   9.4900   7.4449  -6.8304   7.5058  -5.1255   0.00    0.0
2019/01/15 09:43:33.000   4280227.0713  -4034391.0277  -2458248.3630   5   6   7.6179   9.4891   7.4451  -6.8287   7.5055  -5.1241   0.00    0.0
2019/01/15 09:43:34.000   4280202.5158  -4034403.3234  -2458273.8588   5   6   7.6168   9.4881   7.4454  -6.8271   7.5052  -5.1227   0.00    0.0
2019/01/15 09:43:35.000   4280212.3808  -4034435.7145  -2458284.9293   5   6   7.6157   9.4872   7.4456  -6.8254   7.5048  -5.1213   0.00    0.0
2019/01/15 09:43:37.000   4280203.5643  -4034380.9053  -2458232.7349   5   6   7.6135   9.4853   7.4462  -6.8221   7.5042  -5.1185   0.00    0.0
2019/01/15 09:43:38.000   4280221.9289  -4034393.8996  -2458254.2267   5   6   7.6124   9.4844   7.4464  -6.8204   7.5038  -5.1171   0.00    0.0
2019/01/15 09:43:39.000   4280206.6770  -4034409.9613  -2458267.3801   5   6   7.6113   9.4834   7.4467  -6.8187   7.5035  -5.1157   0.00    0.0
2019/01/15 09:43:40.000   4280190.4844  -4034399.7006  -2458259.1643   5   6   7.6103   9.4825   7.4469  -6.8171   7.5032  -5.1143   0.00    0.0
2019/01/15 09:43:41.000   4280214.6516  -4034390.9441  -2458247.2325   5   6   7.6092   9.4815   7.4472  -6.8154   7.5028  -5.1128   0.00    0.0
2019/01/15 09:43:44.000   4280230.1314  -4034384.6024  -2458234.1291   5   6   7.6059   9.4787   7.4480  -6.8104   7.5018  -5.1086   0.00    0.0
2019/01/15 09:43:45.000   4280239.4009  -4034412.4999  -2458247.6266   5   6   7.6048   9.4778   7.4482  -6.8088   7.5015  -5.1072   0.00    0.0
2019/01/15 09:43:46.000   4280206.4269  -4034397.8205  -2458262.6155   5   6   7.6037   9.4768   7.4485  -6.8071   7.5012  -5.1058   0.00    0.0
2019/01/15 09:43:48.000   4280229.0761  -4034403.9705  -2458260.1075   5   6   7.6015   9.4749   7.4490  -6.8038   7.5005  -5.1029   0.00    0.0
2019/01/15 09:43:49.000   4280242.4834  -4034445.0978  -2458286.8102   5   6   7.6004   9.4740   7.4492  -6.8021   7.5001  -5.1015   0.00    0.0
2019/01/15 09:43:50.000   4280235.4437  -4034448.3292  -2458287.8456   5   6   7.5993   9.4730   7.4495  -6.8004   7.4998  -5.1001   0.00    0.0
2019/01/15 09:43:51.000   4280219.4876  -4034412.9562  -2458256.2027   5   6   7.5982   9.4721   7.4497  -6.7988   7.4995  -5.0987   0.00    0.0
2019/01/15 09:43:52.000   4280211.0242  -4034415.1521  -2458256.3687   5   6   7.5971   9.4712   7.4500  -6.7971   7.4992  -5.0973   0.00    0.0
2019/01/15 09:43:54.000   4280210.5672  -4034394.9560  -2458244.0498   5   6   7.5949   9.4693   7.4505  -6.7938   7.4985  -5.0944   0.00    0.0
2019/01/15 09:43:55.000   4280193.4746  -4034384.3271  -2458251.4085   5   6   7.5939   9.4683   7.4508  -6.7921   7.4982  -5.0930   0.00    0.0
2019/01/15 09:43:56.000   4280208.6020  -4034409.4074  -2458268.8066   5   6   7.5928   9.4674   7.4510  -6.7905   7.4978  -5.0916   0.00    0.0
2019/01/15 09:43:58.000   4280213.6005  -4034421.4973  -2458264.5697   5   6   7.5906   9.4655   7.4515  -6.7871   7.4971  -5.0888   0.00    0.0
2019/01/15 09:44:00.000   4280253.3052  -4034471.5750  -2458306.3208   5   6   7.5884   9.4636   7.4520  -6.7838   7.4964  -5.0859   0.00    0.0
2019/01/15 09:44:02.000   4280248.6793  -4034482.3716  -2458305.4632   5   6   7.5862   9.4617   7.4525  -6.7804   7.4957  -5.0830   0.00    0.0
2019/01/15 09:44:03.000   4280243.0666  -4034452.3508  -2458292.0216   5   6   7.5851   9.4607   7.4527  -6.7788   7.4954  -5.0816   0.00    0.0
2019/01/15 09:44:05.000   4280241.2811  -4034434.4706  -2458268.4791   5   5   7.6067  11.9833   8.5964  -7.0941   9.3640  -5.3260   0.00    0.0
2019/01/15 09:44:06.000   4280228.1241  -4034394.5906  -2458243.1707   5   5   7.6056  11.9841   8.5981  -7.0921   9.3655  -5.3245   0.00    0.0
2019/01/15 09:44:07.000   4280215.7135  -4034426.4875  -2458271.9924   5   5   7.6044  11.9849   8.5998  -7.0902   9.3670  -5.3229   0.00    0.0
2019/01/15 09:44:09.000   4280215.1651  -4034410.6018  -2458256.0451   5   6   7.5786   9.4551   7.4542  -6.7688   7.4934  -5.0731   0.00    0.0
2019/01/15 09:44:13.000   4280194.9945  -4034391.4082  -2458239.5102   5   6   7.5743   9.4513   7.4552  -6.7621   7.4920  -5.0673   0.00    0.0
2019/01/15 09:44:19.000   4280217.2613  -4034409.9088  -2458274.0656   5   6   7.5678   9.4456   7.4567  -6.7521   7.4899  -5.0587   0.00    0.0
2019/01/15 09:44:20.000   4280236.3368  -4034435.3707  -2458263.3969   5   6   7.5667   9.4447   7.4569  -6.7504   7.4896  -5.0573   0.00    0.0
2019/01/15 09:44:21.000   4280231.0253  -4034431.0597  -2458265.8439   5   6   7.5656   9.4437   7.4572  -6.7488   7.4892  -5.0558   0.00    0.0
2019/01/15 09:44:22.000   4280218.2046  -4034406.7103  -2458260.2946   5   6   7.5645   9.4428   7.4574  -6.7471   7.4889  -5.0544   0.00    0.0
2019/01/15 09:44:24.000   4280225.1725  -4034421.6829  -2458280.9156   5   6   7.5624   9.4409   7.4579  -6.7437   7.4882  -5.0515   0.00    0.0
2019/01/15 09:44:25.000   4280238.0601  -4034436.7012  -2458275.4554   5   6   7.5613   9.4399   7.4581  -6.7421   7.4878  -5.0501   0.00    0.0
2019/01/15 09:44:26.000   4280215.3208  -4034441.4282  -2458281.5964   5   6   7.5602   9.4390   7.4584  -6.7404   7.4875  -5.0486   0.00    0.0
2019/01/15 09:44:28.000   4280174.6357  -4034385.4924  -2458238.8716   5   6   7.5581   9.4371   7.4589  -6.7371   7.4868  -5.0458   0.00    0.0
2019/01/15 09:44:30.000   4280188.9074  -4034385.7968  -2458233.6215   5   6   7.5559   9.4352   7.4594  -6.7337   7.4861  -5.0429   0.00    0.0
2019/01/15 09:44:31.000   4280216.9004  -4034431.5311  -2458265.2478   5   6   7.5548   9.4342   7.4596  -6.7320   7.4857  -5.0414   0.00    0.0
2019/01/15 09:44:35.000   4280225.2226  -4034411.7597  -2458259.0821   5   6   7.5505   9.4304   7.4605  -6.7253   7.4843  -5.0356   0.00    0.0
2019/01/15 09:44:36.000   4280225.8496  -4034436.9849  -2458262.8836   5   6   7.5494   9.4295   7.4608  -6.7237   7.4839  -5.0342   0.00    0.0
2019/01/15 09:44:38.000   4280183.5621  -4034376.6519  -2458237.3759   5   6   7.5473   9.4276   7.4613  -6.7203   7.4832  -5.0313   0.00    0.0
2019/01/15 09:44:39.000   4280194.6042  -4034394.9520  -2458243.7380   5   6   7.5462   9.4266   7.4615  -6.7187   7.4829  -5.0298   0.00    0.0
2019/01/15 09:44:41.000   4280212.0005  -4034400.1407  -2458248.6101   5   6   7.5441   9.4247   7.4620  -6.7153   7.4822  -5.0269   0.00    0.0
2019/01/15 09:44:46.000   4280218.7914  -4034386.2027  -2458241.0852   5   6   7.5387   9.4200   7.4631  -6.7069   7.4804  -5.0196   0.00    0.0
2019/01/15 09:44:48.000   4280247.3863  -4034427.1014  -2458275.3267   5   6   7.5365   9.4180   7.4636  -6.7036   7.4797  -5.0167   0.00    0.0
2019/01/15 09:44:51.000   4280232.5406  -4034431.7982  -2458269.9065   5   6   7.5333   9.4152   7.4643  -6.6986   7.4786  -5.0123   0.00    0.0
2019/01/15 09:44:53.000   4280200.8766  -4034414.6253  -2458263.9223   5   6   7.5312   9.4133   7.4648  -6.6952   7.4779  -5.0094   0.00    0.0
2019/01/15 09:44:59.000   4280203.5007  -4034408.9589  -2458259.9305   5   6   7.5248   9.4076   7.4661  -6.6852   7.4757  -5.0006   0.00    0.0
2019/01/15 09:45:00.000   4280221.2858  -4034385.6027  -2458259.0985   5   6   7.5237   9.4066   7.4664  -6.6835   7.4753  -4.9992   0.00    0.0
2019/01/15 09:45:01.000   4280234.7646  -4034396.3740  -2458273.3870   5   6   7.5227   9.4057   7.4666  -6.6818   7.4750  -4.9977   0.00    0.0
2019/01/15 09:45:02.000   4280223.3341  -4034410.0656  -2458270.1916   5   6   7.5216   9.4047   7.4668  -6.6801   7.4746  -4.9962   0.00    0.0
2019/01/15 09:45:07.000   4280215.1292  -4034406.6362  -2458255.3855   5   6   7.5163   9.4000   7.4680  -6.6717   7.4728  -4.9889   0.00    0.0
2019/01/15 09:45:09.000   4280196.0222  -4034414.4443  -2458260.3079   5   6   7.5142   9.3981   7.4684  -6.6684   7.4720  -4.9859   0.00    0.0
2019/01/15 09:45:10.000   4280197.2073  -4034425.4626  -2458294.5162   5   6   7.5131   9.3971   7.4686  -6.6667   7.4717  -4.9844   0.00    0.0
2019/01/15 09:45:12.000   4280220.0666  -4034417.6947  -2458266.1555   5   6   7.5110   9.3952   7.4691  -6.6633   7.4709  -4.9815   0.00    0.0
2019/01/15 09:45:13.000   4280216.6768  -4034386.4534  -2458239.0146   5   6   7.5099   9.3942   7.4693  -6.6617   7.4706  -4.9800   0.00    0.0
2019/01/15 09:45:17.000   4280223.1203  -4034371.3228  -2458237.2887   5   6   7.5057   9.3904   7.4702  -6.6549   7.4691  -4.9741   0.00    0.0
2019/01/15 09:45:22.000   4280221.9694  -4034370.4780  -2458237.2901   5   6   7.5004   9.3856   7.4713  -6.6465   7.4672  -4.9667   0.00    0.0
2019/01/15 09:45:24.000   4280199.0593  -4034367.1770  -2458240.2086   5   6   7.4983   9.3837   7.4718  -6.6432   7.4665  -4.9638   0.00    0.0
2019/01/15 09:45:25.000   4280225.2953  -4034381.4069  -2458250.7343   5   6   7.4972   9.3828   7.4720  -6.6415   7.4661  -4.9623   0.00    0.0
2019/01/15 09:45:26.000   4280228.1885  -4034399.5389  -2458251.8775   5   6   7.4961   9.3818   7.4722  -6.6398   7.4657  -4.9608   0.00    0.0
2019/01/15 09:45:27.000   4280217.8976  -4034421.8264  -2458283.4829   5   6   7.4951   9.3808   7.4724  -6.6381   7.4654  -4.9593   0.00    0.0
2019/01/15 09:45:28.000   4280232.2941  -4034426.6742  -2458292.8806   5   6   7.4940   9.3799   7.4726  -6.6364   7.4650  -4.9578   0.00    0.0
2019/01/15 09:45:31.000   4280225.5772  -4034395.2297  -2458239.7061   5   6   7.4909   9.3770   7.4733  -6.6314   7.4639  -4.9533   0.00    0.0
2019/01/15 09:45:32.000   4280212.8185  -4034407.1757  -2458252.7283   5   6   7.4898   9.3761   7.4735  -6.6297   7.4635  -4.9518   0.00    0.0
2019/01/15 09:45:34.000   4280223.2209  -4034436.0698  -2458275.5199   5   6   7.4877   9.3741   7.4739  -6.6263   7.4627  -4.9489   0.00    0.0
2019/01/15 09:45:37.000   4280251.7515  -4034397.3355  -2458246.2129   5   6   7.4845   9.3713   7.4746  -6.6213   7.4616  -4.9444   0.00    0.0
2019/01/15 09:45:38.000   4280202.3880  -4034363.4845  -2458232.6520   5   6   7.4835   9.3703   7.4748  -6.6196   7.4612  -4.9429   0.00    0.0
2019/01/15 09:45:39.000   4280192.3281  -4034364.3834  -2458230.2573   5   6   7.4824   9.3694   7.4750  -6.6179   7.4609  -4.9414   0.00    0.0
2019/01/15 09:45:40.000   4280192.8202  -4034409.2978  -2458256.9427   5   6   7.4814   9.3684   7.4752  -6.6162   7.4605  -4.9399   0.00    0.0
2019/01/15 09:45:41.000   4280212.7666  -4034431.2861  -2458284.6000   5   6   7.4803   9.3674   7.4754  -6.6145   7.4601  -4.9384   0.00    0.0
2019/01/15 09:45:42.000   4280193.3302  -4034381.8983  -2458255.5752   5   6   7.4793   9.3665   7.4757  -6.6129   7.4597  -4.9369   0.00    0.0
2019/01/15 09:45:43.000   4280199.2818  -4034375.5255  -2458249.5735   5   6   7.4782   9.3655   7.4759  -6.6112   7.4593  -4.9354   0.00    0.0
2019/01/15 09:45:44.000   4280206.3292  -4034371.6173  -2458236.5689   5   6   7.4772   9.3646   7.4761  -6.6095   7.4590  -4.9339   0.00    0.0
2019/01/15 09:45:45.000   4280209.7708  -4034382.9961  -2458250.4446   5   6   7.4761   9.3636   7.4763  -6.6078   7.4586  -4.9324   0.00    0.0
2019/01/15 09:45:46.000   4280181.5438  -4034387.2821  -2458260.0506   5   6   7.4751   9.3627   7.4765  -6.6061   7.4582  -4.9309   0.00    0.0
2019/01/15 09:45:47.000   4280200.1788  -4034403.3780  -2458262.2766   5   6   7.4740   9.3617   7.4767  -6.6044   7.4578  -4.9294   0.00    0.0
2019/01/15 09:45:48.000   4280209.7667  -4034372.3366  -2458247.0369   5   6   7.4730   9.3608   7.4769  -6.6028   7.4574  -4.9279   0.00    0.0
2019/01/15 09:45:49.000   4280199.0279  -4034359.1319  -2458227.7462   5   6   7.4720   9.3598   7.4772  -6.6011   7.4571  -4.9264   0.00    0.0
2019/01/15 09:45:50.000   4280184.5863  -4034381.7160  -2458246.8547   5   6   7.4709   9.3588   7.4774  -6.5994   7.4567  -4.9249   0.00    0.0
2019/01/15 09:45:51.000   4280196.4442  -4034393.9074  -2458236.4575   5   6   7.4699   9.3579   7.4776  -6.5977   7.4563  -4.9234   0.00    0.0
2019/01/15 09:45:54.000   4280190.1255  -4034378.3529  -2458250.4481   5   6   7.4667   9.3550   7.4782  -6.5926   7.4551  -4.9189   0.00    0.0
2019/01/15 09:45:55.000   4280204.4517  -4034381.0697  -2458263.4571   5   6   7.4657   9.3540   7.4784  -6.5910   7.4547  -4.9174   0.00    0.0
2019/01/15 09:45:57.000   4280164.6482  -4034363.6976  -2458243.9168   5   6   7.4636   9.3521   7.4788  -6.5876   7.4540  -4.9144   0.00    0.0
2019/01/15 09:46:01.000   4280172.1429  -4034369.5611  -2458259.8107   5   6   7.4594   9.3483   7.4797  -6.5808   7.4524  -4.9083   0.00    0.0
2019/01/15 09:46:03.000   4280177.3047  -4034385.2281  -2458272.3037   5   6   7.4573   9.3464   7.4801  -6.5775   7.4517  -4.9053   0.00    0.0
2019/01/15 09:46:04.000   4280183.0252  -4034369.8201  -2458261.6263   5   6   7.4563   9.3454   7.4803  -6.5758   7.4513  -4.9038   0.00    0.0
2019/01/15 09:46:05.000   4280173.1836  -4034330.5471  -2458226.3588   5   6   7.4553   9.3445   7.4805  -6.5741   7.4509  -4.9023   0.00    0.0
2019/01/15 09:46:06.000   4280178.5347  -4034374.7544  -2458258.8810   5   6   7.4542   9.3435   7.4807  -6.5724   7.4505  -4.9008   0.00    0.0
2019/01/15 09:46:17.000   4280216.2890  -4034414.9848  -2458279.7621   5   6   7.4428   9.3329   7.4829  -6.5538   7.4462  -4.8840   0.00    0.0
2019/01/15 09:46:32.000   4280192.9160  -4034375.3117  -2458225.8837   5   6   7.4273   9.3185   7.4859  -6.5285   7.4403  -4.8611   0.00    0.0
2019/01/15 09:46:33.000   4280199.3859  -4034377.6498  -2458238.5483   5   6   7.4263   9.3175   7.4861  -6.5268   7.4399  -4.8596   0.00    0.0
2019/01/15 09:46:36.000   4280231.4592  -4034443.2109  -2458305.8451   5   6   7.4232   9.3146   7.4867  -6.5217   7.4386  -4.8550   0.00    0.0
2019/01/15 09:46:37.000   4280205.6690  -4034423.4490  -2458291.6509   5   6   7.4222   9.3136   7.4869  -6.5200   7.4382  -4.8534   0.00    0.0
2019/01/15 09:46:38.000   4280203.3679  -4034417.2449  -2458276.1020   5   6   7.4211   9.3127   7.4871  -6.5183   7.4378  -4.8519   0.00    0.0
2019/01/15 09:46:39.000   4280230.3395  -4034426.2091  -2458268.4489   5   6   7.4201   9.3117   7.4873  -6.5166   7.4374  -4.8504   0.00    0.0
2019/01/15 09:46:40.000   4280237.3183  -4034428.9050  -2458276.7464   5   6   7.4191   9.3107   7.4875  -6.5149   7.4370  -4.8488   0.00    0.0
2019/01/15 09:46:41.000   4280216.6972  -4034424.6912  -2458274.3565   5   6   7.4181   9.3098   7.4877  -6.5132   7.4366  -4.8473   0.00    0.0
2019/01/15 09:46:42.000   4280203.0671  -4034428.2350  -2458274.3008   5   6   7.4170   9.3088   7.4878  -6.5115   7.4362  -4.8458   0.00    0.0
2019/01/15 09:46:44.000   4280241.3138  -4034448.2206  -2458275.7640   5   6   7.4150   9.3069   7.4882  -6.5081   7.4354  -4.8427   0.00    0.0
2019/01/15 09:46:46.000   4280198.7196  -4034390.5420  -2458235.4149   5   6   7.4130   9.3050   7.4886  -6.5048   7.4346  -4.8396   0.00    0.0
2019/01/15 09:46:50.000   4280205.0592  -4034403.2934  -2458262.0285   5   6   7.4089   9.3011   7.4894  -6.4980   7.4330  -4.8334   0.00    0.0
2019/01/15 09:46:51.000   4280211.6405  -4034416.3077  -2458267.9129   5   6   7.4078   9.3001   7.4896  -6.4963   7.4326  -4.8319   0.00    0.0
2019/01/15 09:46:52.000   4280226.0038  -4034422.3521  -2458280.9395   5   6   7.4068   9.2991   7.4897  -6.4946   7.4322  -4.8303   0.00    0.0
2019/01/15 09:46:54.000   4280215.1424  -4034410.3083  -2458262.3166   5   6   7.4048   9.2972   7.4901  -6.4912   7.4314  -4.8272   0.00    0.0
2019/01/15 09:46:55.000   4280222.4869  -4034426.2836  -2458263.1325   5   6   7.4038   9.2962   7.4903  -6.4895   7.4310  -4.8257   0.00    0.0
2019/01/15 09:46:56.000   4280229.9698  -4034428.6244  -2458265.5538   5   6   7.4027   9.2953   7.4905  -6.4878   7.4305  -4.8241   0.00    0.0
2019/01/15 09:47:00.000   4280223.2009  -4034426.0016  -2458279.4519   5   6   7.3987   9.2914   7.4912  -6.4810   7.4289  -4.8179   0.00    0.0
2019/01/15 09:47:02.000   4280232.3541  -4034428.7965  -2458258.9790   5   6   7.3966   9.2895   7.4916  -6.4776   7.4281  -4.8148   0.00    0.0
2019/01/15 09:47:04.000   4280213.3650  -4034423.1250  -2458273.6458   5   6   7.3946   9.2875   7.4920  -6.4743   7.4273  -4.8117   0.00    0.0
2019/01/15 09:47:05.000   4280243.9444  -4034451.2649  -2458286.4849   5   6   7.3936   9.2866   7.4922  -6.4725   7.4268  -4.8101   0.00    0.0
2019/01/15 09:47:06.000   4280227.0570  -4034446.0559  -2458281.5659   5   6   7.3926   9.2856   7.4923  -6.4709   7.4264  -4.8086   0.00    0.0
2019/01/15 09:47:09.000   4280243.2368  -4034456.9264  -2458297.2699   5   6   7.3895   9.2827   7.4929  -6.4658   7.4252  -4.8039   0.00    0.0
2019/01/15 09:47:10.000   4280230.6180  -4034464.0757  -2458282.5373   5   6   7.3885   9.2817   7.4931  -6.4641   7.4248  -4.8023   0.00    0.0
2019/01/15 09:47:11.000   4280242.7185  -4034472.9126  -2458299.8790   5   6   7.3875   9.2808   7.4933  -6.4624   7.4244  -4.8008   0.00    0.0
