% program   : RTKPOST ver.2.4.2
% inp file  : D:\Google Drive\UERJ\_Projeto Final\Python\tcc-guilherme\20190115_LevantamentoCompletodoppleravg_Smoothed.19o
% inp file  : D:\Google Drive\UERJ\_Projeto Final\20190115_Marco 91500 IBGE\brdm0150.19p
% obs start : 2019/01/15 09:25:22.0 GPST (week2036 206722.0s)
% obs end   : 2019/01/15 10:25:42.0 GPST (week2036 210342.0s)
% pos mode  : single
% elev mask : 15.0 deg
% ionos opt : broadcast
% tropo opt : saastamoinen
% ephemeris : broadcast
% navi sys  : gps glonass
%
% (x/y/z-ecef=WGS84,Q=1:fix,2:float,3:sbas,4:dgps,5:single,6:ppp,ns=# of satellites)
%  GPST                      x-ecef(m)      y-ecef(m)      z-ecef(m)   Q  ns   sdx(m)   sdy(m)   sdz(m)  sdxy(m)  sdyz(m)  sdzx(m) age(s)  ratio
2019/01/15 09:25:24.000   4280229.4209  -4034435.6480  -2458274.0793   5   9   4.2600   4.6656   3.5373  -3.6960  -0.9731  -1.9165   0.00    0.0
2019/01/15 09:25:25.000   4280223.3626  -4034430.0347  -2458266.0995   5  10   4.2572   4.5978   3.0893  -3.6784   0.6496  -1.9908   0.00    0.0
2019/01/15 09:25:26.000   4280215.5432  -4034416.1256  -2458266.1030   5  10   4.2577   4.5981   3.0893  -3.6790   0.6504  -1.9907   0.00    0.0
2019/01/15 09:25:29.000   4280213.8742  -4034415.7757  -2458276.7673   5   9   4.5381   4.9874   4.4097  -4.0706   2.5494  -2.9818   0.00    0.0
2019/01/15 09:25:30.000   4280227.5463  -4034426.4734  -2458287.9374   5   9   4.5383   4.9875   4.4092  -4.0708   2.5492  -2.9812   0.00    0.0
2019/01/15 09:25:31.000   4280217.5657  -4034418.5246  -2458261.7365   5   9   4.5385   4.9876   4.4088  -4.0711   2.5490  -2.9806   0.00    0.0
2019/01/15 09:25:32.000   4280209.4423  -4034410.4908  -2458264.5774   5   9   4.5388   4.9877   4.4083  -4.0714   2.5488  -2.9800   0.00    0.0
2019/01/15 09:25:33.000   4280214.3188  -4034417.6042  -2458271.9354   5   9   4.5390   4.9879   4.4079  -4.0717   2.5486  -2.9794   0.00    0.0
2019/01/15 09:25:34.000   4280212.7471  -4034413.2715  -2458271.6803   5   9   4.5392   4.9880   4.4074  -4.0719   2.5484  -2.9788   0.00    0.0
2019/01/15 09:25:35.000   4280215.3626  -4034416.9773  -2458274.5119   5   9   4.5395   4.9881   4.4069  -4.0722   2.5483  -2.9782   0.00    0.0
2019/01/15 09:25:36.000   4280219.1779  -4034419.8785  -2458271.2827   5   9   4.5397   4.9882   4.4065  -4.0725   2.5481  -2.9776   0.00    0.0
2019/01/15 09:25:37.000   4280221.4863  -4034421.6709  -2458277.0155   5   9   4.5399   4.9884   4.4060  -4.0727   2.5479  -2.9771   0.00    0.0
2019/01/15 09:25:38.000   4280223.0257  -4034419.6786  -2458278.3810   5  10   4.2313   3.8964   4.3426  -3.3856   2.9667  -3.1750   0.00    0.0
2019/01/15 09:25:39.000   4280224.8729  -4034420.6042  -2458277.7577   5  10   4.2313   3.8962   4.3422  -3.3855   2.9664  -3.1744   0.00    0.0
2019/01/15 09:25:40.000   4280224.6610  -4034420.8995  -2458278.0687   5  10   4.2312   3.8960   4.3419  -3.3854   2.9660  -3.1738   0.00    0.0
2019/01/15 09:25:41.000   4280226.4211  -4034423.8451  -2458278.1945   5  10   4.2312   3.8958   4.3415  -3.3853   2.9656  -3.1732   0.00    0.0
2019/01/15 09:25:42.000   4280227.0802  -4034425.2545  -2458277.5136   5  10   4.2312   3.8956   4.3411  -3.3852   2.9652  -3.1726   0.00    0.0
2019/01/15 09:25:43.000   4280225.3104  -4034422.1371  -2458277.9559   5  10   4.2311   3.8955   4.3407  -3.3850   2.9648  -3.1720   0.00    0.0
2019/01/15 09:25:44.000   4280226.1428  -4034423.6135  -2458277.8041   5  10   4.2311   3.8953   4.3403  -3.3849   2.9645  -3.1714   0.00    0.0
2019/01/15 09:25:45.000   4280226.9524  -4034425.2650  -2458277.1917   5  10   4.2310   3.8951   4.3399  -3.3848   2.9641  -3.1708   0.00    0.0
2019/01/15 09:25:46.000   4280226.1176  -4034424.0019  -2458277.2399   5  10   4.2310   3.8949   4.3396  -3.3847   2.9637  -3.1702   0.00    0.0
2019/01/15 09:25:47.000   4280224.7907  -4034421.8571  -2458277.4983   5  10   4.2310   3.8947   4.3392  -3.3846   2.9633  -3.1696   0.00    0.0
2019/01/15 09:25:48.000   4280224.6821  -4034421.4732  -2458277.8534   5  10   4.2309   3.8946   4.3388  -3.3845   2.9630  -3.1690   0.00    0.0
2019/01/15 09:25:49.000   4280225.4216  -4034422.5901  -2458277.7873   5  10   4.2309   3.8944   4.3384  -3.3843   2.9626  -3.1684   0.00    0.0
2019/01/15 09:27:31.000   4280219.6853  -4034417.5077  -2458270.9255   5  12   4.2082   3.7742   4.1843  -3.3666   3.0690  -3.1156   0.00    0.0
2019/01/15 09:27:32.000   4280219.6306  -4034417.4982  -2458270.8179   5  12   4.2081   3.7740   4.1840  -3.3664   3.0686  -3.1151   0.00    0.0
2019/01/15 09:27:33.000   4280219.7264  -4034417.5988  -2458270.9588   5  12   4.2081   3.7737   4.1837  -3.3662   3.0682  -3.1146   0.00    0.0
2019/01/15 09:27:34.000   4280219.6181  -4034417.5851  -2458270.7809   5  12   4.2080   3.7734   4.1835  -3.3660   3.0679  -3.1141   0.00    0.0
2019/01/15 09:27:35.000   4280219.5785  -4034417.5430  -2458270.6616   5  12   4.2080   3.7731   4.1832  -3.3658   3.0675  -3.1136   0.00    0.0
2019/01/15 09:27:36.000   4280219.7101  -4034417.6015  -2458270.8998   5  12   4.2079   3.7729   4.1829  -3.3656   3.0671  -3.1131   0.00    0.0
2019/01/15 09:27:37.000   4280219.7958  -4034417.5687  -2458271.0229   5  12   4.2079   3.7726   4.1826  -3.3654   3.0667  -3.1126   0.00    0.0
2019/01/15 09:27:38.000   4280219.7710  -4034417.3625  -2458271.1387   5  12   4.2078   3.7723   4.1823  -3.3652   3.0663  -3.1122   0.00    0.0
2019/01/15 09:27:39.000   4280219.9184  -4034416.9497  -2458271.3625   5  11   4.2215   3.7935   4.2036  -3.3446   3.0379  -3.1348   0.00    0.0
2019/01/15 09:27:40.000   4280219.7468  -4034417.0059  -2458271.2958   5  12   4.2078   3.7718   4.1817  -3.3647   3.0656  -3.1112   0.00    0.0
2019/01/15 09:27:41.000   4280219.9262  -4034416.7553  -2458271.5664   5  11   4.2214   3.7930   4.2029  -3.3441   3.0372  -3.1338   0.00    0.0
2019/01/15 09:27:42.000   4280219.8932  -4034416.6474  -2458271.5918   5  11   4.2214   3.7927   4.2026  -3.3439   3.0368  -3.1333   0.00    0.0
2019/01/15 09:27:43.000   4280219.9771  -4034416.5607  -2458271.7014   5  11   4.2213   3.7925   4.2023  -3.3437   3.0365  -3.1328   0.00    0.0
2019/01/15 09:27:44.000   4280220.1134  -4034416.6217  -2458271.7557   5  11   4.2212   3.7922   4.2019  -3.3435   3.0361  -3.1323   0.00    0.0
2019/01/15 09:27:45.000   4280220.1998  -4034416.5762  -2458271.8835   5  11   4.2212   3.7920   4.2016  -3.3433   3.0358  -3.1317   0.00    0.0
2019/01/15 09:27:46.000   4280220.2643  -4034416.4893  -2458272.0379   5  12   4.2075   3.7702   4.1800  -3.3635   3.0633  -3.1083   0.00    0.0
2019/01/15 09:27:47.000   4280220.3557  -4034416.4603  -2458272.2049   5  12   4.2074   3.7699   4.1797  -3.3633   3.0630  -3.1078   0.00    0.0
2019/01/15 09:27:48.000   4280220.2178  -4034416.3543  -2458272.0424   5  11   4.2210   3.7912   4.2006  -3.3427   3.0347  -3.1302   0.00    0.0
2019/01/15 09:27:49.000   4280220.3307  -4034416.4516  -2458272.1636   5  11   4.2210   3.7910   4.2003  -3.3425   3.0343  -3.1297   0.00    0.0
2019/01/15 09:27:50.000   4280220.3238  -4034416.4111  -2458272.1170   5  11   4.2209   3.7907   4.1999  -3.3423   3.0339  -3.1292   0.00    0.0
2019/01/15 09:27:51.000   4280220.4445  -4034416.4274  -2458272.1017   5  11   4.2209   3.7905   4.1996  -3.3421   3.0336  -3.1286   0.00    0.0
2019/01/15 09:27:52.000   4280220.4850  -4034416.4356  -2458272.1941   5  11   4.2208   3.7902   4.1993  -3.3419   3.0332  -3.1281   0.00    0.0
2019/01/15 09:27:53.000   4280220.6874  -4034416.5711  -2458272.2462   5  11   4.2207   3.7900   4.1989  -3.3417   3.0329  -3.1276   0.00    0.0
2019/01/15 09:27:54.000   4280220.7883  -4034416.5997  -2458272.2631   5  11   4.2207   3.7897   4.1986  -3.3415   3.0325  -3.1271   0.00    0.0
2019/01/15 09:27:55.000   4280220.7073  -4034416.5390  -2458272.2669   5  11   4.2206   3.7895   4.1983  -3.3413   3.0321  -3.1266   0.00    0.0
2019/01/15 09:27:56.000   4280220.6110  -4034416.4342  -2458272.2178   5  11   4.2206   3.7892   4.1979  -3.3411   3.0318  -3.1261   0.00    0.0
2019/01/15 09:27:57.000   4280220.5543  -4034416.4354  -2458272.2292   5  11   4.2205   3.7890   4.1976  -3.3409   3.0314  -3.1255   0.00    0.0
2019/01/15 09:27:58.000   4280220.5509  -4034416.4640  -2458272.2696   5  11   4.2205   3.7887   4.1973  -3.3407   3.0311  -3.1250   0.00    0.0
2019/01/15 09:27:59.000   4280220.5294  -4034416.4373  -2458272.3673   5  11   4.2204   3.7885   4.1969  -3.3404   3.0307  -3.1245   0.00    0.0
2019/01/15 09:28:00.000   4280220.4281  -4034416.3564  -2458272.3510   5  11   4.2204   3.7882   4.1966  -3.3402   3.0303  -3.1240   0.00    0.0
2019/01/15 09:28:01.000   4280220.3637  -4034416.2542  -2458272.3544   5  11   4.2203   3.7880   4.1963  -3.3400   3.0300  -3.1235   0.00    0.0
2019/01/15 09:28:02.000   4280220.4192  -4034416.2996  -2458272.3849   5  11   4.2203   3.7877   4.1959  -3.3398   3.0296  -3.1229   0.00    0.0
2019/01/15 09:28:03.000   4280220.5966  -4034416.3841  -2458272.5227   5  11   4.2202   3.7875   4.1956  -3.3396   3.0292  -3.1224   0.00    0.0
2019/01/15 09:28:04.000   4280220.7279  -4034416.5561  -2458272.6850   5  11   4.2201   3.7872   4.1952  -3.3394   3.0289  -3.1219   0.00    0.0
2019/01/15 09:28:05.000   4280220.6759  -4034416.4905  -2458272.9975   5  12   4.2066   3.7651   4.1744  -3.3596   3.0562  -3.0990   0.00    0.0
2019/01/15 09:28:06.000   4280220.4573  -4034416.5615  -2458273.0997   5  12   4.2066   3.7649   4.1741  -3.3594   3.0558  -3.0985   0.00    0.0
2019/01/15 09:28:07.000   4280220.4739  -4034416.7116  -2458273.1687   5  12   4.2066   3.7646   4.1738  -3.3592   3.0554  -3.0980   0.00    0.0
2019/01/15 09:28:08.000   4280220.6718  -4034417.0594  -2458273.2177   5  12   4.2065   3.7643   4.1735  -3.3590   3.0550  -3.0975   0.00    0.0
2019/01/15 09:28:09.000   4280221.0413  -4034417.4852  -2458273.2717   5  12   4.2065   3.7641   4.1732  -3.3588   3.0546  -3.0970   0.00    0.0
2019/01/15 09:28:10.000   4280221.4019  -4034417.8914  -2458273.3625   5  12   4.2064   3.7638   4.1730  -3.3586   3.0543  -3.0965   0.00    0.0
2019/01/15 09:28:11.000   4280221.8078  -4034418.0662  -2458273.3678   5  12   4.2064   3.7635   4.1727  -3.3584   3.0539  -3.0960   0.00    0.0
2019/01/15 09:28:12.000   4280221.9981  -4034418.1639  -2458273.2323   5  12   4.2063   3.7633   4.1724  -3.3582   3.0535  -3.0955   0.00    0.0
2019/01/15 09:28:13.000   4280221.8550  -4034418.0849  -2458273.0948   5  12   4.2063   3.7630   4.1721  -3.3580   3.0531  -3.0951   0.00    0.0
2019/01/15 09:28:14.000   4280221.6916  -4034418.2028  -2458273.1152   5  12   4.2063   3.7628   4.1718  -3.3578   3.0527  -3.0946   0.00    0.0
2019/01/15 09:28:15.000   4280221.9134  -4034418.7169  -2458273.2693   5  12   4.2062   3.7625   4.1715  -3.3576   3.0524  -3.0941   0.00    0.0
2019/01/15 09:28:16.000   4280222.2939  -4034419.1876  -2458273.2843   5  12   4.2062   3.7622   4.1712  -3.3574   3.0520  -3.0936   0.00    0.0
2019/01/15 09:28:17.000   4280222.8538  -4034419.4722  -2458273.3842   5  12   4.2061   3.7620   4.1709  -3.3572   3.0516  -3.0931   0.00    0.0
2019/01/15 09:28:18.000   4280223.1175  -4034419.5610  -2458273.2452   5  12   4.2061   3.7617   4.1706  -3.3570   3.0512  -3.0926   0.00    0.0
2019/01/15 09:28:19.000   4280223.2477  -4034419.7170  -2458273.1329   5  12   4.2060   3.7614   4.1703  -3.3568   3.0508  -3.0921   0.00    0.0
2019/01/15 09:28:20.000   4280223.0720  -4034419.7730  -2458273.0455   5  12   4.2060   3.7612   4.1700  -3.3566   3.0505  -3.0916   0.00    0.0
2019/01/15 09:28:21.000   4280222.5980  -4034419.6327  -2458272.9035   5  12   4.2060   3.7609   4.1697  -3.3564   3.0501  -3.0911   0.00    0.0
2019/01/15 09:28:22.000   4280222.0449  -4034419.4749  -2458272.8336   5  12   4.2059   3.7606   4.1694  -3.3562   3.0497  -3.0906   0.00    0.0
2019/01/15 09:28:23.000   4280221.7612  -4034419.2987  -2458272.7728   5  12   4.2059   3.7604   4.1691  -3.3560   3.0493  -3.0901   0.00    0.0
2019/01/15 09:28:24.000   4280221.9672  -4034419.3201  -2458273.0315   5  12   4.2058   3.7601   4.1688  -3.3558   3.0489  -3.0896   0.00    0.0
2019/01/15 09:28:25.000   4280222.5692  -4034419.5376  -2458273.4079   5  12   4.2058   3.7598   4.1685  -3.3556   3.0486  -3.0891   0.00    0.0
2019/01/15 09:28:26.000   4280223.0637  -4034419.7548  -2458273.7484   5  12   4.2058   3.7596   4.1682  -3.3554   3.0482  -3.0886   0.00    0.0
2019/01/15 09:28:27.000   4280223.3239  -4034419.9243  -2458273.9472   5  12   4.2057   3.7593   4.1679  -3.3552   3.0478  -3.0881   0.00    0.0
2019/01/15 09:28:28.000   4280223.3613  -4034420.0724  -2458273.9774   5  12   4.2057   3.7591   4.1676  -3.3550   3.0474  -3.0877   0.00    0.0
2019/01/15 09:28:29.000   4280223.3653  -4034420.1200  -2458274.0004   5  12   4.2056   3.7588   4.1673  -3.3548   3.0470  -3.0872   0.00    0.0
2019/01/15 09:28:30.000   4280223.5904  -4034420.4526  -2458274.1662   5  12   4.2056   3.7585   4.1670  -3.3546   3.0467  -3.0867   0.00    0.0
2019/01/15 09:28:31.000   4280223.8940  -4034420.6877  -2458274.1978   5  12   4.2055   3.7583   4.1667  -3.3544   3.0463  -3.0862   0.00    0.0
2019/01/15 09:28:32.000   4280223.8316  -4034420.4786  -2458274.1127   5  12   4.2055   3.7580   4.1664  -3.3542   3.0459  -3.0857   0.00    0.0
2019/01/15 09:28:33.000   4280223.7939  -4034420.3219  -2458274.0846   5  12   4.2055   3.7577   4.1661  -3.3540   3.0455  -3.0852   0.00    0.0
2019/01/15 09:28:34.000   4280223.5661  -4034420.0531  -2458273.9961   5  12   4.2054   3.7575   4.1658  -3.3538   3.0451  -3.0847   0.00    0.0
2019/01/15 09:28:35.000   4280223.4611  -4034419.8503  -2458273.9183   5  12   4.2054   3.7572   4.1655  -3.3536   3.0448  -3.0842   0.00    0.0
2019/01/15 09:28:36.000   4280223.7460  -4034419.8931  -2458273.9106   5  12   4.2053   3.7570   4.1652  -3.3534   3.0444  -3.0837   0.00    0.0
2019/01/15 09:28:37.000   4280224.0495  -4034419.9667  -2458273.8421   5  12   4.2053   3.7567   4.1649  -3.3532   3.0440  -3.0832   0.00    0.0
2019/01/15 09:28:38.000   4280224.0994  -4034419.9111  -2458273.7220   5  12   4.2053   3.7564   4.1646  -3.3530   3.0436  -3.0827   0.00    0.0
2019/01/15 09:28:39.000   4280224.0663  -4034419.9050  -2458273.6245   5  12   4.2052   3.7562   4.1643  -3.3528   3.0432  -3.0822   0.00    0.0
2019/01/15 09:28:40.000   4280224.0912  -4034420.0397  -2458273.5922   5  12   4.2052   3.7559   4.1640  -3.3526   3.0429  -3.0817   0.00    0.0
2019/01/15 09:28:41.000   4280224.2092  -4034420.1900  -2458273.5363   5  12   4.2051   3.7556   4.1637  -3.3524   3.0425  -3.0812   0.00    0.0
2019/01/15 09:28:42.000   4280224.4544  -4034420.3079  -2458273.5392   5  12   4.2051   3.7554   4.1633  -3.3522   3.0421  -3.0807   0.00    0.0
2019/01/15 09:28:43.000   4280224.4690  -4034420.1549  -2458273.5189   5  12   4.2051   3.7551   4.1630  -3.3520   3.0417  -3.0802   0.00    0.0
2019/01/15 09:28:44.000   4280224.2216  -4034419.8678  -2458273.5665   5  12   4.2050   3.7549   4.1627  -3.3518   3.0413  -3.0797   0.00    0.0
2019/01/15 09:28:45.000   4280223.8025  -4034419.5083  -2458273.4981   5  12   4.2050   3.7546   4.1624  -3.3516   3.0409  -3.0792   0.00    0.0
2019/01/15 09:28:46.000   4280223.4740  -4034419.1280  -2458273.4725   5  12   4.2049   3.7543   4.1621  -3.3514   3.0406  -3.0787   0.00    0.0
2019/01/15 09:28:47.000   4280223.1713  -4034418.7714  -2458273.2607   5  12   4.2049   3.7541   4.1618  -3.3512   3.0402  -3.0782   0.00    0.0
2019/01/15 09:28:48.000   4280223.1351  -4034418.6255  -2458272.9708   5  12   4.2049   3.7538   4.1615  -3.3510   3.0398  -3.0777   0.00    0.0
2019/01/15 09:28:49.000   4280223.1640  -4034418.6405  -2458272.8233   5  12   4.2048   3.7536   4.1612  -3.3508   3.0394  -3.0772   0.00    0.0
2019/01/15 09:28:50.000   4280222.9067  -4034418.5080  -2458272.8389   5  12   4.2048   3.7533   4.1609  -3.3506   3.0390  -3.0767   0.00    0.0
2019/01/15 09:28:51.000   4280222.7615  -4034418.3369  -2458272.7889   5  12   4.2047   3.7530   4.1606  -3.3504   3.0387  -3.0762   0.00    0.0
2019/01/15 09:28:52.000   4280222.8688  -4034418.3186  -2458272.9066   5  12   4.2047   3.7528   4.1603  -3.3502   3.0383  -3.0757   0.00    0.0
2019/01/15 09:28:53.000   4280223.2586  -4034418.5930  -2458273.3690   5  12   4.2047   3.7525   4.1600  -3.3500   3.0379  -3.0752   0.00    0.0
2019/01/15 09:28:54.000   4280223.7207  -4034418.9205  -2458273.8191   5  12   4.2046   3.7523   4.1597  -3.3498   3.0375  -3.0747   0.00    0.0
2019/01/15 09:28:55.000   4280223.7361  -4034418.9525  -2458273.9584   5  12   4.2046   3.7520   4.1594  -3.3496   3.0371  -3.0742   0.00    0.0
2019/01/15 09:28:56.000   4280223.6059  -4034419.0103  -2458273.8885   5  12   4.2045   3.7517   4.1591  -3.3494   3.0367  -3.0737   0.00    0.0
2019/01/15 09:28:57.000   4280223.1498  -4034418.9483  -2458273.6659   5  12   4.2045   3.7515   4.1588  -3.3492   3.0364  -3.0732   0.00    0.0
2019/01/15 09:28:58.000   4280222.7455  -4034418.9323  -2458273.6148   5  12   4.2045   3.7512   4.1585  -3.3490   3.0360  -3.0727   0.00    0.0
2019/01/15 09:28:59.000   4280222.3163  -4034418.7630  -2458273.5693   5  12   4.2044   3.7510   4.1581  -3.3488   3.0356  -3.0722   0.00    0.0
2019/01/15 09:29:00.000   4280221.9432  -4034418.6490  -2458273.5880   5  12   4.2044   3.7507   4.1578  -3.3486   3.0352  -3.0717   0.00    0.0
2019/01/15 09:29:01.000   4280221.9768  -4034418.5173  -2458273.7521   5  12   4.2043   3.7504   4.1575  -3.3484   3.0348  -3.0712   0.00    0.0
2019/01/15 09:29:02.000   4280222.2410  -4034418.4233  -2458273.8848   5  12   4.2043   3.7502   4.1572  -3.3482   3.0345  -3.0707   0.00    0.0
2019/01/15 09:29:03.000   4280222.8640  -4034418.6007  -2458273.9745   5  12   4.2043   3.7499   4.1569  -3.3480   3.0341  -3.0702   0.00    0.0
2019/01/15 09:29:04.000   4280223.3042  -4034418.9560  -2458274.0628   5  12   4.2042   3.7497   4.1566  -3.3478   3.0337  -3.0697   0.00    0.0
2019/01/15 09:29:05.000   4280223.3966  -4034419.1438  -2458273.9439   5  12   4.2042   3.7494   4.1563  -3.3476   3.0333  -3.0692   0.00    0.0
2019/01/15 09:29:06.000   4280223.1227  -4034419.0907  -2458273.5995   5  12   4.2042   3.7491   4.1560  -3.3474   3.0329  -3.0687   0.00    0.0
2019/01/15 09:29:07.000   4280222.8718  -4034419.1590  -2458273.3488   5  12   4.2041   3.7489   4.1557  -3.3472   3.0325  -3.0682   0.00    0.0
2019/01/15 09:29:08.000   4280222.6317  -4034419.0694  -2458273.0960   5  12   4.2041   3.7486   4.1554  -3.3470   3.0322  -3.0677   0.00    0.0
2019/01/15 09:29:09.000   4280222.5575  -4034419.0874  -2458273.0023   5  12   4.2040   3.7484   4.1551  -3.3468   3.0318  -3.0672   0.00    0.0
2019/01/15 09:29:10.000   4280222.4743  -4034419.0334  -2458272.9352   5  12   4.2040   3.7481   4.1547  -3.3466   3.0314  -3.0667   0.00    0.0
2019/01/15 09:29:11.000   4280222.2442  -4034418.8373  -2458272.6900   5  12   4.2040   3.7478   4.1544  -3.3464   3.0310  -3.0662   0.00    0.0
2019/01/15 09:29:12.000   4280222.0947  -4034418.6875  -2458272.5385   5  12   4.2039   3.7476   4.1541  -3.3462   3.0306  -3.0657   0.00    0.0
2019/01/15 09:29:13.000   4280221.8467  -4034418.4341  -2458272.3409   5  12   4.2039   3.7473   4.1538  -3.3460   3.0302  -3.0652   0.00    0.0
2019/01/15 09:29:14.000   4280221.4882  -4034418.1817  -2458272.0866   5  12   4.2039   3.7471   4.1535  -3.3458   3.0299  -3.0647   0.00    0.0
2019/01/15 09:29:15.000   4280221.3412  -4034417.9731  -2458271.8409   5  12   4.2038   3.7468   4.1532  -3.3456   3.0295  -3.0642   0.00    0.0
2019/01/15 09:29:16.000   4280221.5870  -4034418.0935  -2458271.6828   5  12   4.2038   3.7466   4.1529  -3.3454   3.0291  -3.0637   0.00    0.0
2019/01/15 09:29:17.000   4280221.9423  -4034418.3136  -2458271.5958   5  12   4.2037   3.7463   4.1526  -3.3452   3.0287  -3.0632   0.00    0.0
2019/01/15 09:29:18.000   4280221.8591  -4034418.3063  -2458271.4103   5  12   4.2037   3.7460   4.1522  -3.3450   3.0283  -3.0627   0.00    0.0
2019/01/15 09:29:19.000   4280221.5623  -4034418.0785  -2458271.0091   5  12   4.2037   3.7458   4.1519  -3.3448   3.0279  -3.0622   0.00    0.0
2019/01/15 09:29:20.000   4280221.5344  -4034418.0642  -2458270.6808   5  12   4.2036   3.7455   4.1516  -3.3446   3.0276  -3.0617   0.00    0.0
2019/01/15 09:29:21.000   4280221.7076  -4034418.1095  -2458270.5020   5  12   4.2036   3.7453   4.1513  -3.3444   3.0272  -3.0612   0.00    0.0
2019/01/15 09:29:22.000   4280221.5161  -4034417.6763  -2458270.1817   5  12   4.2036   3.7450   4.1510  -3.3442   3.0268  -3.0607   0.00    0.0
2019/01/15 09:29:23.000   4280220.9708  -4034416.9564  -2458269.7265   5  12   4.2035   3.7448   4.1507  -3.3440   3.0264  -3.0602   0.00    0.0
2019/01/15 09:29:24.000   4280220.7386  -4034416.5966  -2458269.5413   5  12   4.2035   3.7445   4.1504  -3.3438   3.0260  -3.0596   0.00    0.0
2019/01/15 09:29:25.000   4280220.7159  -4034416.6148  -2458269.5169   5  12   4.2035   3.7442   4.1501  -3.3436   3.0256  -3.0591   0.00    0.0
2019/01/15 09:29:26.000   4280220.8279  -4034416.8786  -2458269.7059   5  12   4.2034   3.7440   4.1497  -3.3434   3.0252  -3.0586   0.00    0.0
2019/01/15 09:29:27.000   4280220.9147  -4034417.2025  -2458269.8948   5  12   4.2034   3.7437   4.1494  -3.3432   3.0249  -3.0581   0.00    0.0
2019/01/15 09:29:28.000   4280220.8731  -4034417.3067  -2458269.7977   5  12   4.2033   3.7435   4.1491  -3.3430   3.0245  -3.0576   0.00    0.0
2019/01/15 09:29:29.000   4280220.7870  -4034417.4520  -2458269.6575   5  12   4.2033   3.7432   4.1488  -3.3428   3.0241  -3.0571   0.00    0.0
2019/01/15 09:29:30.000   4280220.6226  -4034417.5102  -2458269.4063   5  12   4.2033   3.7430   4.1485  -3.3426   3.0237  -3.0566   0.00    0.0
2019/01/15 09:29:31.000   4280220.4137  -4034417.3819  -2458269.2156   5  12   4.2032   3.7427   4.1482  -3.3424   3.0233  -3.0561   0.00    0.0
2019/01/15 09:29:32.000   4280220.0884  -4034416.9837  -2458268.8212   5  12   4.2032   3.7424   4.1479  -3.3422   3.0229  -3.0556   0.00    0.0
2019/01/15 09:29:33.000   4280219.9373  -4034416.6508  -2458268.4853   5  12   4.2032   3.7422   4.1475  -3.3420   3.0226  -3.0551   0.00    0.0
2019/01/15 09:29:34.000   4280219.8249  -4034416.4320  -2458268.3448   5  12   4.2031   3.7419   4.1472  -3.3418   3.0222  -3.0546   0.00    0.0
2019/01/15 09:29:35.000   4280219.3652  -4034416.1064  -2458268.1326   5  12   4.2031   3.7417   4.1469  -3.3416   3.0218  -3.0541   0.00    0.0
2019/01/15 09:29:36.000   4280218.8614  -4034415.8536  -2458267.9564   5  12   4.2031   3.7414   4.1466  -3.3414   3.0214  -3.0536   0.00    0.0
2019/01/15 09:29:37.000   4280218.5579  -4034415.7621  -2458267.8361   5  12   4.2030   3.7412   4.1463  -3.3412   3.0210  -3.0531   0.00    0.0
2019/01/15 09:29:38.000   4280218.4180  -4034415.8288  -2458267.8177   5  12   4.2030   3.7409   4.1460  -3.3410   3.0206  -3.0526   0.00    0.0
2019/01/15 09:29:39.000   4280218.4630  -4034416.0875  -2458267.8603   5  12   4.2030   3.7407   4.1456  -3.3408   3.0202  -3.0521   0.00    0.0
2019/01/15 09:29:40.000   4280218.8231  -4034416.3988  -2458267.9008   5  12   4.2029   3.7404   4.1453  -3.3406   3.0199  -3.0515   0.00    0.0
2019/01/15 09:29:41.000   4280219.0898  -4034416.4653  -2458267.6083   5  12   4.2029   3.7401   4.1450  -3.3405   3.0195  -3.0510   0.00    0.0
2019/01/15 09:29:42.000   4280219.3650  -4034416.4530  -2458267.5759   5  12   4.2028   3.7399   4.1447  -3.3403   3.0191  -3.0505   0.00    0.0
2019/01/15 09:29:43.000   4280219.3544  -4034416.4137  -2458267.7684   5  12   4.2028   3.7396   4.1444  -3.3401   3.0187  -3.0500   0.00    0.0
2019/01/15 09:29:44.000   4280219.3253  -4034416.4850  -2458268.0166   5  12   4.2028   3.7394   4.1440  -3.3399   3.0183  -3.0495   0.00    0.0
2019/01/15 09:29:45.000   4280219.3861  -4034416.9580  -2458268.4910   5  12   4.2027   3.7391   4.1437  -3.3397   3.0179  -3.0490   0.00    0.0
2019/01/15 09:29:46.000   4280219.4945  -4034417.4560  -2458268.8417   5  12   4.2027   3.7389   4.1434  -3.3395   3.0175  -3.0485   0.00    0.0
2019/01/15 09:29:47.000   4280219.8313  -4034417.8594  -2458268.9280   5  12   4.2027   3.7386   4.1431  -3.3393   3.0172  -3.0480   0.00    0.0
2019/01/15 09:29:48.000   4280220.0401  -4034418.0061  -2458268.6963   5  12   4.2026   3.7384   4.1428  -3.3391   3.0168  -3.0475   0.00    0.0
2019/01/15 09:29:49.000   4280220.2167  -4034418.1395  -2458268.3810   5  12   4.2026   3.7381   4.1425  -3.3389   3.0164  -3.0470   0.00    0.0
2019/01/15 09:29:50.000   4280220.0535  -4034418.0240  -2458268.0188   5  12   4.2026   3.7379   4.1421  -3.3387   3.0160  -3.0465   0.00    0.0
2019/01/15 09:29:51.000   4280220.0790  -4034417.9454  -2458268.0210   5  12   4.2025   3.7376   4.1418  -3.3385   3.0156  -3.0460   0.00    0.0
2019/01/15 09:29:52.000   4280220.2172  -4034417.7292  -2458267.8746   5  12   4.2025   3.7373   4.1415  -3.3383   3.0152  -3.0454   0.00    0.0
2019/01/15 09:29:53.000   4280220.2862  -4034417.5725  -2458267.5486   5  12   4.2025   3.7371   4.1412  -3.3381   3.0148  -3.0449   0.00    0.0
2019/01/15 09:29:54.000   4280219.9984  -4034417.2296  -2458267.1591   5  12   4.2024   3.7368   4.1409  -3.3379   3.0145  -3.0444   0.00    0.0
2019/01/15 09:29:55.000   4280219.5966  -4034416.8286  -2458266.7229   5  12   4.2024   3.7366   4.1405  -3.3377   3.0141  -3.0439   0.00    0.0
2019/01/15 09:29:56.000   4280219.5203  -4034416.8449  -2458266.7065   5  12   4.2024   3.7363   4.1402  -3.3375   3.0137  -3.0434   0.00    0.0
2019/01/15 09:29:57.000   4280219.5945  -4034417.0561  -2458266.9404   5  12   4.2023   3.7361   4.1399  -3.3373   3.0133  -3.0429   0.00    0.0
2019/01/15 09:29:58.000   4280219.6497  -4034417.2829  -2458267.0749   5  12   4.2023   3.7358   4.1396  -3.3371   3.0129  -3.0424   0.00    0.0
2019/01/15 09:29:59.000   4280219.9214  -4034417.6588  -2458267.2904   5  12   4.2023   3.7356   4.1392  -3.3369   3.0125  -3.0419   0.00    0.0
2019/01/15 09:30:00.000   4280220.2692  -4034418.0577  -2458267.4656   5  12   4.2022   3.7353   4.1389  -3.3367   3.0121  -3.0414   0.00    0.0
2019/01/15 09:30:01.000   4280220.5883  -4034418.2632  -2458267.5040   5  12   4.2022   3.7351   4.1386  -3.3365   3.0118  -3.0408   0.00    0.0
2019/01/15 09:30:02.000   4280220.6288  -4034418.1883  -2458267.5443   5  12   4.2022   3.7348   4.1383  -3.3363   3.0114  -3.0403   0.00    0.0
2019/01/15 09:30:03.000   4280220.4983  -4034417.8774  -2458267.5426   5  12   4.2021   3.7346   4.1380  -3.3362   3.0110  -3.0398   0.00    0.0
2019/01/15 09:30:04.000   4280220.4897  -4034417.5954  -2458267.3837   5  12   4.2021   3.7343   4.1376  -3.3360   3.0106  -3.0393   0.00    0.0
2019/01/15 09:30:05.000   4280220.7467  -4034417.7502  -2458267.4197   5  12   4.2021   3.7341   4.1373  -3.3358   3.0102  -3.0388   0.00    0.0
2019/01/15 09:30:06.000   4280221.1839  -4034418.0817  -2458267.5561   5  12   4.2020   3.7338   4.1370  -3.3356   3.0098  -3.0383   0.00    0.0
2019/01/15 09:30:07.000   4280221.4777  -4034418.3531  -2458267.6132   5  12   4.2020   3.7335   4.1367  -3.3354   3.0094  -3.0378   0.00    0.0
2019/01/15 09:30:08.000   4280221.5386  -4034418.3975  -2458267.4525   5  12   4.2020   3.7333   4.1363  -3.3352   3.0090  -3.0373   0.00    0.0
2019/01/15 09:30:09.000   4280221.5966  -4034418.3635  -2458267.3389   5  12   4.2020   3.7330   4.1360  -3.3350   3.0087  -3.0368   0.00    0.0
2019/01/15 09:30:10.000   4280221.5159  -4034418.2920  -2458267.1167   5  12   4.2019   3.7328   4.1357  -3.3348   3.0083  -3.0362   0.00    0.0
2019/01/15 09:30:11.000   4280221.5548  -4034418.4673  -2458266.8738   5  11   4.6600   3.9597   4.2449  -3.7126   3.2115  -3.3386   0.00    0.0
2019/01/15 09:30:12.000   4280221.7364  -4034418.6049  -2458266.7337   5  11   4.6600   3.9595   4.2446  -3.7124   3.2112  -3.3382   0.00    0.0
2019/01/15 09:30:13.000   4280222.1682  -4034418.9213  -2458266.7051   5  11   4.6600   3.9592   4.2443  -3.7122   3.2109  -3.3378   0.00    0.0
2019/01/15 09:30:14.000   4280222.4013  -4034419.1552  -2458266.5629   5  11   4.6600   3.9590   4.2441  -3.7121   3.2105  -3.3374   0.00    0.0
2019/01/15 09:30:15.000   4280222.6035  -4034419.5253  -2458266.6088   5  11   4.6600   3.9588   4.2438  -3.7119   3.2102  -3.3370   0.00    0.0
2019/01/15 09:30:16.000   4280222.9369  -4034420.0457  -2458266.8364   5  11   4.6600   3.9586   4.2435  -3.7118   3.2099  -3.3366   0.00    0.0
2019/01/15 09:30:17.000   4280223.2299  -4034420.4018  -2458266.9387   5  11   4.6600   3.9583   4.2433  -3.7116   3.2096  -3.3362   0.00    0.0
2019/01/15 09:30:18.000   4280225.4546  -4034421.8510  -2458267.9532   5  12   4.2017   3.7308   4.1331  -3.3332   3.0052  -3.0321   0.00    0.0
2019/01/15 09:30:19.000   4280225.6389  -4034421.8471  -2458267.8699   5  12   4.2016   3.7305   4.1328  -3.3330   3.0048  -3.0316   0.00    0.0
2019/01/15 09:30:20.000   4280225.9020  -4034421.8282  -2458267.6985   5  12   4.2016   3.7303   4.1324  -3.3329   3.0044  -3.0311   0.00    0.0
2019/01/15 09:30:21.000   4280226.2473  -4034421.9026  -2458267.6677   5  12   4.2016   3.7300   4.1321  -3.3327   3.0040  -3.0306   0.00    0.0
2019/01/15 09:30:22.000   4280226.2896  -4034421.8217  -2458267.6158   5  12   4.2015   3.7298   4.1318  -3.3325   3.0036  -3.0301   0.00    0.0
2019/01/15 09:30:23.000   4280226.0800  -4034421.6998  -2458267.3735   5  12   4.2015   3.7295   4.1315  -3.3323   3.0032  -3.0296   0.00    0.0
2019/01/15 09:30:24.000   4280225.9074  -4034421.6822  -2458267.1582   5  12   4.2015   3.7293   4.1311  -3.3321   3.0028  -3.0290   0.00    0.0
2019/01/15 09:30:25.000   4280225.8115  -4034421.6479  -2458267.0723   5  12   4.2015   3.7290   4.1308  -3.3319   3.0025  -3.0285   0.00    0.0
2019/01/15 09:30:26.000   4280225.6588  -4034421.6121  -2458266.8926   5  12   4.2014   3.7288   4.1305  -3.3317   3.0021  -3.0280   0.00    0.0
2019/01/15 09:30:27.000   4280225.3346  -4034421.4380  -2458266.6258   5  12   4.2014   3.7285   4.1302  -3.3315   3.0017  -3.0275   0.00    0.0
2019/01/15 09:30:28.000   4280225.0580  -4034421.2519  -2458266.2937   5  12   4.2014   3.7283   4.1298  -3.3313   3.0013  -3.0270   0.00    0.0
2019/01/15 09:30:29.000   4280224.5893  -4034420.8027  -2458265.9025   5  12   4.2013   3.7280   4.1295  -3.3311   3.0009  -3.0265   0.00    0.0
2019/01/15 09:30:30.000   4280224.0885  -4034420.4033  -2458265.6056   5  12   4.2013   3.7278   4.1292  -3.3309   3.0005  -3.0260   0.00    0.0
2019/01/15 09:30:31.000   4280223.9046  -4034420.1781  -2458265.5849   5  12   4.2013   3.7275   4.1288  -3.3307   3.0001  -3.0254   0.00    0.0
2019/01/15 09:30:32.000   4280223.8642  -4034419.8919  -2458265.6399   5  12   4.2012   3.7273   4.1285  -3.3305   2.9997  -3.0249   0.00    0.0
2019/01/15 09:30:33.000   4280223.7909  -4034419.6568  -2458265.4879   5  12   4.2012   3.7270   4.1282  -3.3303   2.9994  -3.0244   0.00    0.0
2019/01/15 09:30:34.000   4280223.7723  -4034419.6620  -2458265.4709   5  12   4.2012   3.7268   4.1279  -3.3302   2.9990  -3.0239   0.00    0.0
2019/01/15 09:30:35.000   4280223.6786  -4034419.5610  -2458265.3709   5  12   4.2012   3.7265   4.1275  -3.3300   2.9986  -3.0234   0.00    0.0
2019/01/15 09:30:36.000   4280223.6120  -4034419.5488  -2458265.4335   5  12   4.2011   3.7263   4.1272  -3.3298   2.9982  -3.0229   0.00    0.0
2019/01/15 09:30:37.000   4280223.7021  -4034419.7267  -2458265.5578   5  12   4.2011   3.7260   4.1269  -3.3296   2.9978  -3.0223   0.00    0.0
2019/01/15 09:30:38.000   4280224.0107  -4034420.0520  -2458265.9062   5  12   4.2011   3.7258   4.1265  -3.3294   2.9974  -3.0218   0.00    0.0
2019/01/15 09:30:39.000   4280224.2507  -4034420.2843  -2458266.0644   5  12   4.2010   3.7255   4.1262  -3.3292   2.9970  -3.0213   0.00    0.0
2019/01/15 09:30:40.000   4280224.4371  -4034420.3884  -2458266.0577   5  12   4.2010   3.7253   4.1259  -3.3290   2.9966  -3.0208   0.00    0.0
2019/01/15 09:30:41.000   4280224.2287  -4034420.2896  -2458265.7986   5  12   4.2010   3.7250   4.1255  -3.3288   2.9963  -3.0203   0.00    0.0
2019/01/15 09:30:42.000   4280223.5211  -4034419.9578  -2458265.3008   5  12   4.2010   3.7248   4.1252  -3.3286   2.9959  -3.0198   0.00    0.0
2019/01/15 09:30:43.000   4280223.1493  -4034419.7279  -2458264.9238   5  12   4.2009   3.7245   4.1249  -3.3284   2.9955  -3.0192   0.00    0.0
2019/01/15 09:30:44.000   4280223.1186  -4034419.6157  -2458264.7977   5  12   4.2009   3.7243   4.1246  -3.3282   2.9951  -3.0187   0.00    0.0
2019/01/15 09:30:45.000   4280223.1570  -4034419.7014  -2458264.9469   5  12   4.2009   3.7240   4.1242  -3.3280   2.9947  -3.0182   0.00    0.0
2019/01/15 09:30:46.000   4280223.0971  -4034419.7648  -2458265.2681   5  12   4.2008   3.7238   4.1239  -3.3279   2.9943  -3.0177   0.00    0.0
2019/01/15 09:30:47.000   4280222.8177  -4034419.6952  -2458265.5576   5  12   4.2008   3.7236   4.1236  -3.3277   2.9939  -3.0172   0.00    0.0
2019/01/15 09:30:48.000   4280222.5142  -4034419.5480  -2458265.7753   5  12   4.2008   3.7233   4.1232  -3.3275   2.9935  -3.0166   0.00    0.0
2019/01/15 09:30:49.000   4280222.4884  -4034419.5406  -2458265.9564   5  12   4.2008   3.7231   4.1229  -3.3273   2.9931  -3.0161   0.00    0.0
2019/01/15 09:30:50.000   4280222.6126  -4034419.6826  -2458266.1686   5  12   4.2007   3.7228   4.1226  -3.3271   2.9928  -3.0156   0.00    0.0
2019/01/15 09:30:51.000   4280222.7974  -4034419.9503  -2458266.2171   5  12   4.2007   3.7226   4.1222  -3.3269   2.9924  -3.0151   0.00    0.0
2019/01/15 09:30:52.000   4280222.8857  -4034420.1333  -2458266.2307   5  12   4.2007   3.7223   4.1219  -3.3267   2.9920  -3.0146   0.00    0.0
2019/01/15 09:30:53.000   4280222.9398  -4034420.2336  -2458266.3853   5  12   4.2007   3.7221   4.1216  -3.3265   2.9916  -3.0141   0.00    0.0
2019/01/15 09:30:54.000   4280222.9213  -4034420.2567  -2458266.5404   5  12   4.2006   3.7218   4.1212  -3.3263   2.9912  -3.0135   0.00    0.0
2019/01/15 09:30:55.000   4280222.5563  -4034420.1145  -2458266.6052   5  12   4.2006   3.7216   4.1209  -3.3261   2.9908  -3.0130   0.00    0.0
2019/01/15 09:30:56.000   4280222.3666  -4034420.1096  -2458266.6469   5  12   4.2006   3.7213   4.1206  -3.3260   2.9904  -3.0125   0.00    0.0
2019/01/15 09:30:57.000   4280222.3894  -4034420.1650  -2458266.7731   5  12   4.2005   3.7211   4.1202  -3.3258   2.9900  -3.0120   0.00    0.0
2019/01/15 09:30:58.000   4280222.3132  -4034420.1628  -2458266.6893   5  12   4.2005   3.7208   4.1199  -3.3256   2.9896  -3.0115   0.00    0.0
2019/01/15 09:30:59.000   4280222.4709  -4034420.3607  -2458266.6902   5  12   4.2005   3.7206   4.1196  -3.3254   2.9893  -3.0109   0.00    0.0
2019/01/15 09:31:00.000   4280222.7463  -4034420.6986  -2458266.9363   5  12   4.2005   3.7203   4.1192  -3.3252   2.9889  -3.0104   0.00    0.0
2019/01/15 09:31:01.000   4280222.9445  -4034420.9122  -2458267.2218   5  12   4.2004   3.7201   4.1189  -3.3250   2.9885  -3.0099   0.00    0.0
2019/01/15 09:31:02.000   4280222.7836  -4034420.7045  -2458267.1692   5  12   4.2004   3.7199   4.1186  -3.3248   2.9881  -3.0094   0.00    0.0
2019/01/15 09:31:03.000   4280222.4277  -4034420.2370  -2458267.0219   5  12   4.2004   3.7196   4.1182  -3.3246   2.9877  -3.0089   0.00    0.0
2019/01/15 09:31:04.000   4280222.1256  -4034419.9458  -2458266.8602   5  12   4.2004   3.7194   4.1179  -3.3244   2.9873  -3.0083   0.00    0.0
2019/01/15 09:31:05.000   4280222.1716  -4034420.0274  -2458266.6218   5  12   4.2003   3.7191   4.1176  -3.3242   2.9869  -3.0078   0.00    0.0
2019/01/15 09:31:06.000   4280222.5783  -4034420.4542  -2458266.8444   5  12   4.2003   3.7189   4.1172  -3.3241   2.9865  -3.0073   0.00    0.0
2019/01/15 09:31:07.000   4280222.9392  -4034420.8891  -2458267.2089   5  12   4.2003   3.7186   4.1169  -3.3239   2.9861  -3.0068   0.00    0.0
2019/01/15 09:31:08.000   4280223.1404  -4034421.1154  -2458267.4545   5  12   4.2003   3.7184   4.1165  -3.3237   2.9857  -3.0062   0.00    0.0
2019/01/15 09:31:09.000   4280223.1891  -4034421.0277  -2458267.3693   5  12   4.2002   3.7181   4.1162  -3.3235   2.9854  -3.0057   0.00    0.0
2019/01/15 09:31:10.000   4280223.2042  -4034421.0057  -2458267.2513   5  12   4.2002   3.7179   4.1159  -3.3233   2.9850  -3.0052   0.00    0.0
2019/01/15 09:31:11.000   4280223.2788  -4034421.1128  -2458267.2377   5  12   4.2002   3.7176   4.1155  -3.3231   2.9846  -3.0047   0.00    0.0
2019/01/15 09:31:12.000   4280223.4117  -4034421.1365  -2458267.1546   5  12   4.2002   3.7174   4.1152  -3.3229   2.9842  -3.0042   0.00    0.0
2019/01/15 09:31:13.000   4280223.5686  -4034421.1039  -2458267.1543   5  12   4.2001   3.7172   4.1149  -3.3227   2.9838  -3.0036   0.00    0.0
2019/01/15 09:31:14.000   4280223.5505  -4034421.0176  -2458267.1672   5  12   4.2001   3.7169   4.1145  -3.3225   2.9834  -3.0031   0.00    0.0
2019/01/15 09:31:15.000   4280223.6183  -4034420.9912  -2458267.2700   5  12   4.2001   3.7167   4.1142  -3.3224   2.9830  -3.0026   0.00    0.0
2019/01/15 09:31:16.000   4280223.7760  -4034421.0181  -2458267.5181   5  12   4.2001   3.7164   4.1138  -3.3222   2.9826  -3.0021   0.00    0.0
2019/01/15 09:31:17.000   4280223.9733  -4034421.0799  -2458267.8092   5  12   4.2000   3.7162   4.1135  -3.3220   2.9822  -3.0016   0.00    0.0
2019/01/15 09:31:18.000   4280224.3644  -4034421.4393  -2458268.1839   5  12   4.2000   3.7159   4.1132  -3.3218   2.9818  -3.0010   0.00    0.0
2019/01/15 09:31:19.000   4280224.8264  -4034421.9429  -2458268.6451   5  12   4.2000   3.7157   4.1128  -3.3216   2.9815  -3.0005   0.00    0.0
2019/01/15 09:31:20.000   4280225.1735  -4034422.3004  -2458268.9587   5  12   4.2000   3.7154   4.1125  -3.3214   2.9811  -3.0000   0.00    0.0
2019/01/15 09:31:21.000   4280225.0901  -4034422.3904  -2458268.9716   5  12   4.1999   3.7152   4.1122  -3.3212   2.9807  -2.9995   0.00    0.0
2019/01/15 09:31:22.000   4280225.0391  -4034422.2856  -2458268.6035   5  12   4.1999   3.7150   4.1118  -3.3210   2.9803  -2.9989   0.00    0.0
2019/01/15 09:31:23.000   4280225.2110  -4034422.4703  -2458268.4280   5  12   4.1999   3.7147   4.1115  -3.3208   2.9799  -2.9984   0.00    0.0
2019/01/15 09:31:24.000   4280225.3783  -4034422.6313  -2458268.1704   5  12   4.1999   3.7145   4.1111  -3.3207   2.9795  -2.9979   0.00    0.0
2019/01/15 09:31:25.000   4280225.4691  -4034422.6465  -2458268.0463   5  12   4.1998   3.7142   4.1108  -3.3205   2.9791  -2.9974   0.00    0.0
2019/01/15 09:31:26.000   4280225.5363  -4034422.6349  -2458268.2879   5  12   4.1998   3.7140   4.1105  -3.3203   2.9787  -2.9968   0.00    0.0
2019/01/15 09:31:27.000   4280225.4649  -4034422.4473  -2458268.5991   5  12   4.1998   3.7137   4.1101  -3.3201   2.9783  -2.9963   0.00    0.0
2019/01/15 09:31:28.000   4280225.3919  -4034422.4130  -2458269.0060   5  12   4.1998   3.7135   4.1098  -3.3199   2.9779  -2.9958   0.00    0.0
2019/01/15 09:31:29.000   4280225.2246  -4034422.4806  -2458269.3219   5  12   4.1997   3.7133   4.1094  -3.3197   2.9776  -2.9953   0.00    0.0
2019/01/15 09:31:30.000   4280224.8482  -4034422.4206  -2458269.5242   5  12   4.1997   3.7130   4.1091  -3.3195   2.9772  -2.9947   0.00    0.0
2019/01/15 09:31:31.000   4280224.5037  -4034422.2054  -2458269.7161   5  12   4.1997   3.7128   4.1088  -3.3193   2.9768  -2.9942   0.00    0.0
2019/01/15 09:31:32.000   4280224.1623  -4034422.1124  -2458269.7605   5  12   4.1997   3.7125   4.1084  -3.3192   2.9764  -2.9937   0.00    0.0
2019/01/15 09:31:33.000   4280224.1245  -4034422.3146  -2458269.9511   5  12   4.1997   3.7123   4.1081  -3.3190   2.9760  -2.9932   0.00    0.0
2019/01/15 09:31:34.000   4280224.3013  -4034422.5916  -2458270.1687   5  12   4.1996   3.7120   4.1077  -3.3188   2.9756  -2.9926   0.00    0.0
2019/01/15 09:31:35.000   4280224.4450  -4034422.7014  -2458270.3151   5  12   4.1996   3.7118   4.1074  -3.3186   2.9752  -2.9921   0.00    0.0
2019/01/15 09:31:36.000   4280224.5724  -4034422.8541  -2458270.5069   5  12   4.1996   3.7116   4.1071  -3.3184   2.9748  -2.9916   0.00    0.0
2019/01/15 09:31:37.000   4280224.5214  -4034422.7692  -2458270.3727   5  12   4.1996   3.7113   4.1067  -3.3182   2.9744  -2.9911   0.00    0.0
2019/01/15 09:31:38.000   4280224.4616  -4034422.7427  -2458270.2693   5  12   4.1995   3.7111   4.1064  -3.3180   2.9740  -2.9905   0.00    0.0
2019/01/15 09:31:39.000   4280224.3138  -4034422.6187  -2458270.1711   5  12   4.1995   3.7108   4.1060  -3.3179   2.9736  -2.9900   0.00    0.0
2019/01/15 09:31:40.000   4280224.0506  -4034422.3422  -2458270.1952   5  12   4.1995   3.7106   4.1057  -3.3177   2.9733  -2.9895   0.00    0.0
2019/01/15 09:31:41.000   4280223.7544  -4034422.0600  -2458270.1623   5  12   4.1995   3.7103   4.1053  -3.3175   2.9729  -2.9890   0.00    0.0
2019/01/15 09:31:42.000   4280223.7242  -4034422.2017  -2458270.1582   5  12   4.1995   3.7101   4.1050  -3.3173   2.9725  -2.9884   0.00    0.0
2019/01/15 09:31:43.000   4280223.5541  -4034422.1972  -2458269.9366   5  12   4.1994   3.7099   4.1047  -3.3171   2.9721  -2.9879   0.00    0.0
2019/01/15 09:31:44.000   4280223.2811  -4034422.0207  -2458269.8045   5  12   4.1994   3.7096   4.1043  -3.3169   2.9717  -2.9874   0.00    0.0
2019/01/15 09:31:45.000   4280223.1546  -4034421.8089  -2458269.8347   5  12   4.1994   3.7094   4.1040  -3.3167   2.9713  -2.9869   0.00    0.0
2019/01/15 09:31:46.000   4280223.1193  -4034421.6589  -2458270.0754   5  12   4.1994   3.7091   4.1036  -3.3166   2.9709  -2.9863   0.00    0.0
2019/01/15 09:31:47.000   4280223.1470  -4034421.5099  -2458270.3996   5  12   4.1994   3.7089   4.1033  -3.3164   2.9705  -2.9858   0.00    0.0
2019/01/15 09:31:48.000   4280223.2125  -4034421.5276  -2458270.6943   5  12   4.1993   3.7087   4.1029  -3.3162   2.9701  -2.9853   0.00    0.0
2019/01/15 09:31:49.000   4280223.2343  -4034421.5916  -2458270.8042   5  12   4.1993   3.7084   4.1026  -3.3160   2.9697  -2.9848   0.00    0.0
2019/01/15 09:31:50.000   4280223.2900  -4034421.6890  -2458270.7689   5  12   4.1993   3.7082   4.1023  -3.3158   2.9693  -2.9842   0.00    0.0
2019/01/15 09:31:51.000   4280222.8754  -4034421.3656  -2458270.2384   5  12   4.1993   3.7079   4.1019  -3.3156   2.9689  -2.9837   0.00    0.0
2019/01/15 09:31:52.000   4280222.5875  -4034421.0368  -2458269.8190   5  12   4.1992   3.7077   4.1016  -3.3154   2.9686  -2.9832   0.00    0.0
2019/01/15 09:31:53.000   4280222.4638  -4034420.7483  -2458269.6175   5  12   4.1992   3.7075   4.1012  -3.3153   2.9682  -2.9826   0.00    0.0
2019/01/15 09:31:54.000   4280222.4839  -4034420.5549  -2458269.6010   5  12   4.1992   3.7072   4.1009  -3.3151   2.9678  -2.9821   0.00    0.0
2019/01/15 09:31:55.000   4280222.4425  -4034420.5001  -2458269.6822   5  12   4.1992   3.7070   4.1005  -3.3149   2.9674  -2.9816   0.00    0.0
2019/01/15 09:31:56.000   4280222.1329  -4034420.4800  -2458269.6458   5  12   4.1992   3.7067   4.1002  -3.3147   2.9670  -2.9811   0.00    0.0
2019/01/15 09:31:57.000   4280222.0823  -4034420.6782  -2458269.7153   5  12   4.1991   3.7065   4.0998  -3.3145   2.9666  -2.9805   0.00    0.0
2019/01/15 09:31:58.000   4280222.1411  -4034420.8796  -2458269.9847   5  12   4.1991   3.7063   4.0995  -3.3143   2.9662  -2.9800   0.00    0.0
2019/01/15 09:31:59.000   4280222.0282  -4034420.9643  -2458270.0173   5  12   4.1991   3.7060   4.0992  -3.3141   2.9658  -2.9795   0.00    0.0
2019/01/15 09:32:00.000   4280221.9025  -4034420.8876  -2458269.8544   5  12   4.1991   3.7058   4.0988  -3.3140   2.9654  -2.9789   0.00    0.0
2019/01/15 09:32:01.000   4280221.5415  -4034420.5130  -2458269.5596   5  12   4.1991   3.7055   4.0985  -3.3138   2.9650  -2.9784   0.00    0.0
2019/01/15 09:32:02.000   4280221.2009  -4034420.1328  -2458269.3093   5  12   4.1991   3.7053   4.0981  -3.3136   2.9646  -2.9779   0.00    0.0
2019/01/15 09:32:03.000   4280221.1462  -4034420.0763  -2458269.1442   5  12   4.1990   3.7051   4.0978  -3.3134   2.9643  -2.9774   0.00    0.0
2019/01/15 09:32:04.000   4280220.9690  -4034419.9830  -2458268.8671   5  12   4.1990   3.7048   4.0974  -3.3132   2.9639  -2.9768   0.00    0.0
2019/01/15 09:32:05.000   4280220.8748  -4034419.9338  -2458268.7203   5  12   4.1990   3.7046   4.0971  -3.3130   2.9635  -2.9763   0.00    0.0
2019/01/15 09:32:06.000   4280220.5276  -4034419.6757  -2458268.6531   5  12   4.1990   3.7044   4.0967  -3.3129   2.9631  -2.9758   0.00    0.0
2019/01/15 09:32:07.000   4280220.3823  -4034419.6156  -2458268.8824   5  12   4.1990   3.7041   4.0964  -3.3127   2.9627  -2.9752   0.00    0.0
2019/01/15 09:32:08.000   4280220.5083  -4034419.6148  -2458268.9526   5  12   4.1989   3.7039   4.0960  -3.3125   2.9623  -2.9747   0.00    0.0
2019/01/15 09:32:09.000   4280220.6449  -4034419.6537  -2458268.8975   5  12   4.1989   3.7036   4.0957  -3.3123   2.9619  -2.9742   0.00    0.0
2019/01/15 09:32:10.000   4280220.6964  -4034419.7253  -2458269.0459   5  12   4.1989   3.7034   4.0953  -3.3121   2.9615  -2.9737   0.00    0.0
2019/01/15 09:32:11.000   4280220.6567  -4034419.8012  -2458269.1923   5  12   4.1989   3.7032   4.0950  -3.3119   2.9611  -2.9731   0.00    0.0
2019/01/15 09:32:12.000   4280220.7012  -4034419.8062  -2458269.2487   5  12   4.1989   3.7029   4.0946  -3.3118   2.9607  -2.9726   0.00    0.0
2019/01/15 09:32:13.000   4280220.9742  -4034420.0161  -2458269.3838   5  12   4.1988   3.7027   4.0943  -3.3116   2.9603  -2.9721   0.00    0.0
2019/01/15 09:32:14.000   4280221.3568  -4034420.3341  -2458269.5121   5  12   4.1988   3.7024   4.0939  -3.3114   2.9599  -2.9715   0.00    0.0
2019/01/15 09:32:15.000   4280221.7137  -4034420.6447  -2458269.5683   5  12   4.1988   3.7022   4.0936  -3.3112   2.9595  -2.9710   0.00    0.0
2019/01/15 09:32:16.000   4280221.8670  -4034420.7560  -2458269.3526   5  12   4.1988   3.7020   4.0932  -3.3110   2.9592  -2.9705   0.00    0.0
2019/01/15 09:32:17.000   4280221.6433  -4034420.6017  -2458268.9605   5  12   4.1988   3.7017   4.0929  -3.3108   2.9588  -2.9699   0.00    0.0
2019/01/15 09:32:18.000   4280221.4427  -4034420.4166  -2458268.4952   5  12   4.1988   3.7015   4.0926  -3.3107   2.9584  -2.9694   0.00    0.0
2019/01/15 09:32:19.000   4280221.1973  -4034420.1662  -2458268.2039   5  12   4.1987   3.7013   4.0922  -3.3105   2.9580  -2.9689   0.00    0.0
2019/01/15 09:32:20.000   4280221.1823  -4034420.2905  -2458268.1587   5  12   4.1987   3.7010   4.0919  -3.3103   2.9576  -2.9684   0.00    0.0
2019/01/15 09:32:21.000   4280221.5856  -4034420.8347  -2458268.3566   5  12   4.1987   3.7008   4.0915  -3.3101   2.9572  -2.9678   0.00    0.0
2019/01/15 09:32:22.000   4280222.2628  -4034421.3757  -2458268.8187   5  12   4.1987   3.7006   4.0912  -3.3099   2.9568  -2.9673   0.00    0.0
2019/01/15 09:32:23.000   4280222.8443  -4034421.6478  -2458269.2995   5  12   4.1987   3.7003   4.0908  -3.3097   2.9564  -2.9668   0.00    0.0
2019/01/15 09:32:24.000   4280223.2205  -4034421.5465  -2458269.5019   5  12   4.1987   3.7001   4.0905  -3.3096   2.9560  -2.9662   0.00    0.0
2019/01/15 09:32:25.000   4280223.5285  -4034421.5169  -2458269.6486   5  12   4.1986   3.6998   4.0901  -3.3094   2.9556  -2.9657   0.00    0.0
2019/01/15 09:32:26.000   4280223.4414  -4034421.4747  -2458269.5890   5  12   4.1986   3.6996   4.0898  -3.3092   2.9552  -2.9652   0.00    0.0
2019/01/15 09:32:27.000   4280223.1357  -4034421.3834  -2458269.5069   5  12   4.1986   3.6994   4.0894  -3.3090   2.9548  -2.9646   0.00    0.0
2019/01/15 09:32:28.000   4280222.7862  -4034421.3757  -2458269.3825   5  12   4.1986   3.6991   4.0891  -3.3088   2.9544  -2.9641   0.00    0.0
2019/01/15 09:32:29.000   4280222.3563  -4034421.1217  -2458267.6194   5  11   4.2426   3.7420   5.0654  -3.3604   3.2281  -3.2566   0.00    0.0
2019/01/15 09:32:30.000   4280222.4584  -4034421.2630  -2458267.4904   5  11   4.2424   3.7416   5.0642  -3.3600   3.2271  -3.2553   0.00    0.0
2019/01/15 09:32:31.000   4280222.6415  -4034421.4237  -2458267.5627   5  11   4.2422   3.7412   5.0630  -3.3596   3.2260  -3.2540   0.00    0.0
2019/01/15 09:32:32.000   4280222.6039  -4034421.5136  -2458267.7242   5  11   4.2419   3.7408   5.0618  -3.3592   3.2250  -3.2527   0.00    0.0
2019/01/15 09:32:33.000   4280222.4593  -4034421.5553  -2458267.8514   5  11   4.2417   3.7404   5.0606  -3.3588   3.2240  -3.2514   0.00    0.0
2019/01/15 09:32:34.000   4280222.2114  -4034421.4874  -2458267.7575   5  11   4.2415   3.7400   5.0594  -3.3584   3.2230  -3.2502   0.00    0.0
2019/01/15 09:32:35.000   4280221.9633  -4034421.3016  -2458267.7049   5  11   4.2413   3.7396   5.0582  -3.3580   3.2220  -3.2489   0.00    0.0
2019/01/15 09:32:36.000   4280221.9696  -4034421.2010  -2458267.9403   5  11   4.2411   3.7392   5.0570  -3.3576   3.2210  -3.2476   0.00    0.0
2019/01/15 09:32:37.000   4280221.8719  -4034420.9210  -2458268.0985   5  11   4.2408   3.7388   5.0558  -3.3572   3.2200  -3.2463   0.00    0.0
2019/01/15 09:32:38.000   4280221.7287  -4034420.7322  -2458268.3486   5  11   4.2406   3.7384   5.0546  -3.3569   3.2190  -3.2450   0.00    0.0
2019/01/15 09:32:39.000   4280221.4772  -4034420.4872  -2458268.3596   5  11   4.2404   3.7380   5.0534  -3.3565   3.2180  -3.2437   0.00    0.0
2019/01/15 09:32:40.000   4280221.4155  -4034420.2702  -2458268.3617   5  11   4.2402   3.7376   5.0522  -3.3561   3.2170  -3.2425   0.00    0.0
2019/01/15 09:32:41.000   4280221.4062  -4034420.1383  -2458268.3722   5  11   4.2400   3.7372   5.0510  -3.3557   3.2160  -3.2412   0.00    0.0
2019/01/15 09:32:42.000   4280221.4931  -4034420.0872  -2458268.4637   5  11   4.2398   3.7369   5.0498  -3.3553   3.2150  -3.2399   0.00    0.0
2019/01/15 09:32:43.000   4280221.5340  -4034420.0020  -2458268.4003   5  11   4.2396   3.7365   5.0486  -3.3549   3.2140  -3.2386   0.00    0.0
2019/01/15 09:32:44.000   4280221.9453  -4034420.3114  -2458268.5098   5  11   4.2393   3.7361   5.0475  -3.3545   3.2129  -3.2373   0.00    0.0
2019/01/15 09:32:45.000   4280222.4898  -4034420.8071  -2458268.9136   5  11   4.2391   3.7357   5.0463  -3.3541   3.2119  -3.2360   0.00    0.0
2019/01/15 09:32:46.000   4280222.7907  -4034421.2068  -2458269.2836   5  11   4.2389   3.7353   5.0451  -3.3537   3.2109  -3.2348   0.00    0.0
2019/01/15 09:32:47.000   4280222.7715  -4034421.2782  -2458269.4707   5  11   4.2387   3.7349   5.0439  -3.3533   3.2099  -3.2335   0.00    0.0
2019/01/15 09:32:48.000   4280222.7554  -4034421.2145  -2458269.8711   5  11   4.2385   3.7345   5.0427  -3.3529   3.2089  -3.2322   0.00    0.0
2019/01/15 09:32:49.000   4280222.7014  -4034421.1714  -2458270.3202   5  11   4.2383   3.7341   5.0415  -3.3525   3.2079  -3.2309   0.00    0.0
2019/01/15 09:32:52.000   4280221.2547  -4034419.6090  -2458262.1570   5  12   4.1982   3.6935   4.0806  -3.3045   2.9450  -2.9513   0.00    0.0
2019/01/15 09:32:53.000   4280222.4761  -4034420.5836  -2458266.2908   5  12   4.1982   3.6933   4.0802  -3.3043   2.9446  -2.9508   0.00    0.0
2019/01/15 09:32:54.000   4280223.1246  -4034421.2021  -2458270.0759   5  12   4.1982   3.6930   4.0799  -3.3041   2.9442  -2.9502   0.00    0.0
2019/01/15 09:32:55.000   4280223.1497  -4034421.3464  -2458272.5462   5  12   4.1982   3.6928   4.0795  -3.3040   2.9438  -2.9497   0.00    0.0
2019/01/15 09:32:56.000   4280223.1739  -4034421.5263  -2458275.4998   5  12   4.1982   3.6926   4.0792  -3.3038   2.9434  -2.9491   0.00    0.0
2019/01/15 09:32:57.000   4280222.5142  -4034420.8889  -2458273.9487   5  12   4.1982   3.6923   4.0788  -3.3036   2.9431  -2.9486   0.00    0.0
2019/01/15 09:32:58.000   4280221.4668  -4034420.0765  -2458270.5432   5  12   4.1982   3.6921   4.0784  -3.3034   2.9427  -2.9481   0.00    0.0
2019/01/15 09:32:59.000   4280220.4219  -4034419.3708  -2458267.7308   5  12   4.1982   3.6919   4.0781  -3.3032   2.9423  -2.9475   0.00    0.0
2019/01/15 09:33:00.000   4280220.1816  -4034419.3115  -2458267.9763   5  12   4.1981   3.6917   4.0777  -3.3031   2.9419  -2.9470   0.00    0.0
2019/01/15 09:33:01.000   4280220.0647  -4034419.3223  -2458268.4491   5  12   4.1981   3.6914   4.0774  -3.3029   2.9415  -2.9465   0.00    0.0
2019/01/15 09:33:02.000   4280220.0614  -4034419.3616  -2458268.5644   5  12   4.1981   3.6912   4.0770  -3.3027   2.9411  -2.9459   0.00    0.0
2019/01/15 09:33:03.000   4280220.2713  -4034419.3509  -2458268.1320   5  12   4.1981   3.6910   4.0767  -3.3025   2.9407  -2.9454   0.00    0.0
2019/01/15 09:33:04.000   4280220.4540  -4034419.2963  -2458267.8298   5  12   4.1981   3.6907   4.0763  -3.3024   2.9403  -2.9449   0.00    0.0
2019/01/15 09:33:05.000   4280220.4205  -4034419.1016  -2458267.5513   5  12   4.1981   3.6905   4.0759  -3.3022   2.9399  -2.9443   0.00    0.0
2019/01/15 09:33:06.000   4280220.0748  -4034418.7675  -2458267.3036   5  12   4.1981   3.6903   4.0756  -3.3020   2.9395  -2.9438   0.00    0.0
2019/01/15 09:33:07.000   4280219.6742  -4034418.4108  -2458267.2533   5  12   4.1981   3.6900   4.0752  -3.3018   2.9391  -2.9433   0.00    0.0
2019/01/15 09:33:08.000   4280219.3012  -4034418.1081  -2458267.1656   5  12   4.1981   3.6898   4.0749  -3.3016   2.9387  -2.9427   0.00    0.0
2019/01/15 09:33:09.000   4280219.0351  -4034418.0224  -2458267.0616   5  12   4.1980   3.6896   4.0745  -3.3015   2.9383  -2.9422   0.00    0.0
2019/01/15 09:33:10.000   4280219.0627  -4034418.1523  -2458267.1023   5  12   4.1980   3.6893   4.0742  -3.3013   2.9379  -2.9416   0.00    0.0
2019/01/15 09:33:11.000   4280219.2756  -4034418.3126  -2458267.2555   5  12   4.1980   3.6891   4.0738  -3.3011   2.9375  -2.9411   0.00    0.0
2019/01/15 09:33:12.000   4280219.3200  -4034418.3380  -2458267.2758   5  12   4.1980   3.6889   4.0734  -3.3009   2.9372  -2.9406   0.00    0.0
2019/01/15 09:33:13.000   4280218.9969  -4034418.1736  -2458266.9915   5  12   4.1980   3.6886   4.0731  -3.3008   2.9368  -2.9400   0.00    0.0
2019/01/15 09:33:14.000   4280218.6535  -4034417.9542  -2458266.8860   5  12   4.1980   3.6884   4.0727  -3.3006   2.9364  -2.9395   0.00    0.0
2019/01/15 09:33:15.000   4280218.4525  -4034417.8502  -2458266.7527   5  12   4.1980   3.6882   4.0724  -3.3004   2.9360  -2.9390   0.00    0.0
2019/01/15 09:33:16.000   4280218.4401  -4034417.8413  -2458266.9457   5  12   4.1980   3.6880   4.0720  -3.3002   2.9356  -2.9384   0.00    0.0
2019/01/15 09:33:17.000   4280218.3831  -4034417.7910  -2458267.2308   5  12   4.1980   3.6877   4.0716  -3.3000   2.9352  -2.9379   0.00    0.0
2019/01/15 09:33:18.000   4280218.3614  -4034417.9545  -2458267.5916   5  12   4.1980   3.6875   4.0713  -3.2999   2.9348  -2.9373   0.00    0.0
2019/01/15 09:33:19.000   4280218.4175  -4034418.2066  -2458267.9536   5  12   4.1979   3.6873   4.0709  -3.2997   2.9344  -2.9368   0.00    0.0
2019/01/15 09:33:20.000   4280218.7423  -4034418.6001  -2458268.3175   5  12   4.1979   3.6870   4.0706  -3.2995   2.9340  -2.9363   0.00    0.0
2019/01/15 09:33:21.000   4280218.8877  -4034418.8867  -2458268.5067   5  12   4.1979   3.6868   4.0702  -3.2993   2.9336  -2.9357   0.00    0.0
2019/01/15 09:33:22.000   4280218.9099  -4034419.0047  -2458268.4553   5  12   4.1979   3.6866   4.0699  -3.2992   2.9332  -2.9352   0.00    0.0
2019/01/15 09:33:23.000   4280219.1067  -4034419.3536  -2458268.5240   5  12   4.1979   3.6864   4.0695  -3.2990   2.9328  -2.9346   0.00    0.0
2019/01/15 09:33:24.000   4280219.3134  -4034419.5315  -2458268.5481   5  12   4.1979   3.6861   4.0691  -3.2988   2.9324  -2.9341   0.00    0.0
2019/01/15 09:33:25.000   4280219.3445  -4034419.5888  -2458268.4735   5  12   4.1979   3.6859   4.0688  -3.2986   2.9320  -2.9336   0.00    0.0
2019/01/15 09:33:26.000   4280219.2108  -4034419.5449  -2458268.3975   5  12   4.1979   3.6857   4.0684  -3.2985   2.9316  -2.9330   0.00    0.0
2019/01/15 09:33:27.000   4280218.8549  -4034419.3927  -2458268.0947   5  12   4.1979   3.6854   4.0680  -3.2983   2.9313  -2.9325   0.00    0.0
2019/01/15 09:33:28.000   4280218.8725  -4034419.3777  -2458267.9149   5  12   4.1979   3.6852   4.0677  -3.2981   2.9309  -2.9320   0.00    0.0
2019/01/15 09:33:29.000   4280219.1190  -4034419.5854  -2458267.9306   5  12   4.1979   3.6850   4.0673  -3.2979   2.9305  -2.9314   0.00    0.0
2019/01/15 09:33:30.000   4280219.4971  -4034419.9279  -2458268.0377   5  12   4.1978   3.6848   4.0670  -3.2978   2.9301  -2.9309   0.00    0.0
2019/01/15 09:33:31.000   4280219.8721  -4034420.2084  -2458268.1350   5  12   4.1978   3.6845   4.0666  -3.2976   2.9297  -2.9303   0.00    0.0
2019/01/15 09:33:32.000   4280220.2278  -4034420.3523  -2458268.3625   5  12   4.1978   3.6843   4.0662  -3.2974   2.9293  -2.9298   0.00    0.0
2019/01/15 09:33:33.000   4280220.3152  -4034420.3441  -2458268.4591   5  12   4.1978   3.6841   4.0659  -3.2972   2.9289  -2.9293   0.00    0.0
2019/01/15 09:33:34.000   4280220.5552  -4034420.4620  -2458268.6551   5  12   4.1978   3.6838   4.0655  -3.2971   2.9285  -2.9287   0.00    0.0
2019/01/15 09:33:35.000   4280220.9354  -4034420.7082  -2458268.6065   5  12   4.1978   3.6836   4.0652  -3.2969   2.9281  -2.9282   0.00    0.0
2019/01/15 09:33:36.000   4280220.9371  -4034420.7816  -2458268.3429   5  12   4.1978   3.6834   4.0648  -3.2967   2.9277  -2.9276   0.00    0.0
2019/01/15 09:33:37.000   4280220.7255  -4034420.7801  -2458267.9577   5  12   4.1978   3.6832   4.0644  -3.2965   2.9273  -2.9271   0.00    0.0
2019/01/15 09:33:38.000   4280220.5331  -4034420.9024  -2458267.6712   5  12   4.1978   3.6829   4.0641  -3.2964   2.9269  -2.9266   0.00    0.0
2019/01/15 09:33:39.000   4280220.3008  -4034420.9290  -2458267.5028   5  12   4.1978   3.6827   4.0637  -3.2962   2.9265  -2.9260   0.00    0.0
2019/01/15 09:33:40.000   4280220.0042  -4034420.9194  -2458267.5008   5  12   4.1978   3.6825   4.0633  -3.2960   2.9261  -2.9255   0.00    0.0
2019/01/15 09:33:41.000   4280219.7212  -4034420.8287  -2458267.3576   5  12   4.1978   3.6822   4.0630  -3.2958   2.9257  -2.9249   0.00    0.0
2019/01/15 09:33:42.000   4280219.6546  -4034420.8966  -2458267.1601   5  12   4.1978   3.6820   4.0626  -3.2957   2.9253  -2.9244   0.00    0.0
2019/01/15 09:33:43.000   4280219.7921  -4034421.3687  -2458267.1291   5  12   4.1978   3.6818   4.0623  -3.2955   2.9249  -2.9239   0.00    0.0
2019/01/15 09:33:44.000   4280220.0998  -4034421.8018  -2458267.2596   5  12   4.1977   3.6816   4.0619  -3.2953   2.9246  -2.9233   0.00    0.0
2019/01/15 09:33:45.000   4280220.4801  -4034422.2374  -2458267.5872   5  12   4.1977   3.6813   4.0615  -3.2951   2.9242  -2.9228   0.00    0.0
2019/01/15 09:33:46.000   4280220.4781  -4034422.3555  -2458268.0149   5  12   4.1977   3.6811   4.0612  -3.2950   2.9238  -2.9222   0.00    0.0
2019/01/15 09:33:47.000   4280220.1740  -4034422.0944  -2458268.4613   5  12   4.1977   3.6809   4.0608  -3.2948   2.9234  -2.9217   0.00    0.0
2019/01/15 09:33:48.000   4280220.0306  -4034421.8910  -2458268.7689   5  12   4.1977   3.6807   4.0604  -3.2946   2.9230  -2.9211   0.00    0.0
2019/01/15 09:33:49.000   4280219.9115  -4034421.7927  -2458268.7918   5  12   4.1977   3.6804   4.0601  -3.2944   2.9226  -2.9206   0.00    0.0
2019/01/15 09:33:50.000   4280219.9723  -4034421.6575  -2458268.5870   5  12   4.1977   3.6802   4.0597  -3.2943   2.9222  -2.9201   0.00    0.0
2019/01/15 09:33:51.000   4280220.2693  -4034421.7377  -2458268.4679   5  12   4.1977   3.6800   4.0593  -3.2941   2.9218  -2.9195   0.00    0.0
2019/01/15 09:33:52.000   4280220.4757  -4034421.8697  -2458268.2668   5  12   4.1977   3.6798   4.0590  -3.2939   2.9214  -2.9190   0.00    0.0
2019/01/15 09:33:53.000   4280220.3733  -4034421.8891  -2458268.2033   5  12   4.1977   3.6795   4.0586  -3.2937   2.9210  -2.9184   0.00    0.0
2019/01/15 09:33:54.000   4280220.2308  -4034421.9240  -2458268.2525   5  12   4.1977   3.6793   4.0583  -3.2936   2.9206  -2.9179   0.00    0.0
2019/01/15 09:33:55.000   4280219.9447  -4034421.8199  -2458268.0008   5  12   4.1977   3.6791   4.0579  -3.2934   2.9202  -2.9174   0.00    0.0
2019/01/15 09:33:56.000   4280219.5938  -4034421.4413  -2458267.5361   5  12   4.1977   3.6789   4.0575  -3.2932   2.9198  -2.9168   0.00    0.0
