% program   : RTKPOST ver.2.4.2
% inp file  : D:\Google Drive\UERJ\_Projeto Final\Python\tcc-guilherme\20190115_LevantamentoCompletodoppleravg_Smoothed.19o
% inp file  : D:\Google Drive\UERJ\_Projeto Final\20190115_Marco 91500 IBGE\brdm0150.19p
% obs start : 2019/01/15 09:25:22.0 GPST (week2036 206722.0s)
% obs end   : 2019/01/15 10:25:42.0 GPST (week2036 210342.0s)
% pos mode  : single
% elev mask : 15.0 deg
% ionos opt : broadcast
% tropo opt : saastamoinen
% ephemeris : broadcast
%
% (x/y/z-ecef=WGS84,Q=1:fix,2:float,3:sbas,4:dgps,5:single,6:ppp,ns=# of satellites)
%  GPST                      x-ecef(m)      y-ecef(m)      z-ecef(m)   Q  ns   sdx(m)   sdy(m)   sdz(m)  sdxy(m)  sdyz(m)  sdzx(m) age(s)  ratio
2019/01/15 09:25:22.000   4280233.1717  -4034427.9486  -2458271.8181   5   6   4.8327   5.1596   4.1740  -4.0107  -2.1828  -2.1275   0.00    0.0
2019/01/15 09:25:23.000   4280228.4970  -4034431.4265  -2458287.7483   5   6   4.8334   5.1599   4.1740  -4.0115  -2.1826  -2.1274   0.00    0.0
2019/01/15 09:25:24.000   4280228.6822  -4034430.8770  -2458278.9688   5   6   4.8341   5.1603   4.1741  -4.0123  -2.1824  -2.1273   0.00    0.0
2019/01/15 09:25:25.000   4280222.0893  -4034428.5898  -2458266.9743   5   6   4.8348   5.1606   4.1741  -4.0131  -2.1822  -2.1272   0.00    0.0
2019/01/15 09:25:26.000   4280216.6868  -4034422.0823  -2458256.8479   5   6   4.8356   5.1610   4.1741  -4.0138  -2.1820  -2.1271   0.00    0.0
2019/01/15 09:25:27.000   4280221.4761  -4034418.2432  -2458286.7942   5   5   5.3834   5.2333   8.7391  -4.2618   1.3721  -4.7623   0.00    0.0
2019/01/15 09:25:28.000   4280231.3345  -4034429.3086  -2458284.4305   5   6   4.8370   5.1617   4.1742  -4.0154  -2.1817  -2.1270   0.00    0.0
2019/01/15 09:25:29.000   4280221.5848  -4034417.7798  -2458285.0853   5   5   5.3827   5.2339   8.7312  -4.2626   1.3679  -4.7562   0.00    0.0
2019/01/15 09:25:30.000   4280230.3680  -4034425.4479  -2458288.1358   5   5   5.3823   5.2342   8.7272  -4.2630   1.3657  -4.7532   0.00    0.0
2019/01/15 09:25:31.000   4280222.7634  -4034417.6732  -2458276.4976   5   5   5.3820   5.2345   8.7233  -4.2634   1.3636  -4.7502   0.00    0.0
2019/01/15 09:25:32.000   4280216.0253  -4034411.0137  -2458273.1927   5   5   5.3817   5.2348   8.7194  -4.2638   1.3615  -4.7472   0.00    0.0
2019/01/15 09:25:33.000   4280222.8848  -4034420.1410  -2458278.9164   5   5   5.3813   5.2350   8.7154  -4.2642   1.3594  -4.7442   0.00    0.0
2019/01/15 09:25:34.000   4280221.1253  -4034415.7330  -2458273.8338   5   5   5.3810   5.2353   8.7115  -4.2646   1.3573  -4.7412   0.00    0.0
2019/01/15 09:25:35.000   4280224.0960  -4034420.6378  -2458278.7347   5   5   5.3806   5.2356   8.7076  -4.2650   1.3552  -4.7382   0.00    0.0
2019/01/15 09:25:36.000   4280224.9744  -4034421.9305  -2458277.0332   5   5   5.3803   5.2359   8.7036  -4.2654   1.3531  -4.7352   0.00    0.0
2019/01/15 09:25:37.000   4280226.5445  -4034423.7272  -2458278.7164   5   5   5.3799   5.2362   8.6997  -4.2658   1.3510  -4.7322   0.00    0.0
2019/01/15 09:25:38.000   4280227.5520  -4034421.7538  -2458285.0457   5   6   5.3525   4.2419   7.0983  -4.0676   4.1523  -5.0074   0.00    0.0
2019/01/15 09:25:39.000   4280227.0581  -4034421.4187  -2458282.1678   5   6   5.3519   4.2413   7.0964  -4.0669   4.1509  -5.0057   0.00    0.0
2019/01/15 09:25:40.000   4280226.5435  -4034421.8075  -2458283.6380   5   6   5.3513   4.2407   7.0945  -4.0662   4.1495  -5.0040   0.00    0.0
2019/01/15 09:25:41.000   4280227.2814  -4034424.1542  -2458281.5155   5   6   5.3507   4.2402   7.0926  -4.0656   4.1480  -5.0022   0.00    0.0
2019/01/15 09:25:42.000   4280227.4985  -4034425.3357  -2458279.5136   5   6   5.3501   4.2396   7.0908  -4.0649   4.1466  -5.0005   0.00    0.0
2019/01/15 09:25:43.000   4280227.0345  -4034422.9661  -2458283.1861   5   6   5.3495   4.2390   7.0889  -4.0643   4.1451  -4.9988   0.00    0.0
2019/01/15 09:25:44.000   4280227.2637  -4034424.1051  -2458281.5861   5   6   5.3489   4.2385   7.0870  -4.0636   4.1437  -4.9971   0.00    0.0
2019/01/15 09:25:45.000   4280227.4799  -4034425.4215  -2458279.3669   5   6   5.3483   4.2379   7.0851  -4.0629   4.1423  -4.9954   0.00    0.0
2019/01/15 09:25:46.000   4280227.2925  -4034424.5265  -2458280.7779   5   6   5.3477   4.2373   7.0833  -4.0623   4.1408  -4.9937   0.00    0.0
2019/01/15 09:25:47.000   4280227.0084  -4034422.9820  -2458283.5000   5   6   5.3471   4.2367   7.0814  -4.0616   4.1394  -4.9920   0.00    0.0
2019/01/15 09:25:48.000   4280226.8632  -4034422.5792  -2458284.0699   5   6   5.3465   4.2362   7.0795  -4.0610   4.1380  -4.9902   0.00    0.0
2019/01/15 09:25:49.000   4280226.8932  -4034423.3054  -2458282.5856   5   6   5.3459   4.2356   7.0776  -4.0603   4.1365  -4.9885   0.00    0.0
2019/01/15 09:27:31.000   4280223.8836  -4034418.9503  -2458277.4924   5   6   5.2892   4.1812   6.8863  -3.9976   3.9928  -4.8153   0.00    0.0
2019/01/15 09:27:32.000   4280223.8662  -4034418.9813  -2458277.2930   5   6   5.2887   4.1807   6.8844  -3.9970   3.9915  -4.8136   0.00    0.0
2019/01/15 09:27:33.000   4280223.9452  -4034419.1118  -2458277.3595   5   6   5.2882   4.1802   6.8826  -3.9965   3.9901  -4.8119   0.00    0.0
2019/01/15 09:27:34.000   4280223.9352  -4034419.2131  -2458277.3412   5   6   5.2877   4.1797   6.8807  -3.9959   3.9887  -4.8102   0.00    0.0
2019/01/15 09:27:35.000   4280223.9910  -4034419.2492  -2458277.2155   5   6   5.2871   4.1792   6.8788  -3.9953   3.9873  -4.8086   0.00    0.0
2019/01/15 09:27:36.000   4280224.0687  -4034419.2978  -2458277.2522   5   6   5.2866   4.1787   6.8770  -3.9947   3.9860  -4.8069   0.00    0.0
2019/01/15 09:27:37.000   4280224.0589  -4034419.2790  -2458277.2373   5   6   5.2861   4.1782   6.8751  -3.9942   3.9846  -4.8052   0.00    0.0
2019/01/15 09:27:38.000   4280224.1102  -4034419.2468  -2458277.2168   5   6   5.2856   4.1777   6.8732  -3.9936   3.9832  -4.8035   0.00    0.0
2019/01/15 09:27:39.000   4280224.1649  -4034419.2272  -2458277.1597   5   6   5.2851   4.1772   6.8713  -3.9930   3.9818  -4.8019   0.00    0.0
2019/01/15 09:27:40.000   4280224.2212  -4034419.2067  -2458277.3104   5   6   5.2846   4.1768   6.8695  -3.9925   3.9804  -4.8002   0.00    0.0
2019/01/15 09:27:41.000   4280224.2869  -4034419.1465  -2458277.4819   5   6   5.2841   4.1763   6.8676  -3.9919   3.9791  -4.7985   0.00    0.0
2019/01/15 09:27:42.000   4280224.2755  -4034419.0988  -2458277.6549   5   6   5.2836   4.1758   6.8657  -3.9913   3.9777  -4.7968   0.00    0.0
2019/01/15 09:27:43.000   4280224.3027  -4034419.0127  -2458277.7253   5   6   5.2831   4.1753   6.8639  -3.9908   3.9763  -4.7951   0.00    0.0
2019/01/15 09:27:44.000   4280224.3806  -4034419.0360  -2458277.6695   5   6   5.2826   4.1748   6.8620  -3.9902   3.9750  -4.7935   0.00    0.0
2019/01/15 09:27:45.000   4280224.4453  -4034418.9881  -2458277.9032   5   6   5.2821   4.1743   6.8601  -3.9896   3.9736  -4.7918   0.00    0.0
2019/01/15 09:27:46.000   4280224.4080  -4034418.9878  -2458277.9593   5   6   5.2816   4.1738   6.8583  -3.9891   3.9722  -4.7901   0.00    0.0
2019/01/15 09:27:47.000   4280224.4576  -4034418.9188  -2458278.1039   5   6   5.2811   4.1733   6.8564  -3.9885   3.9708  -4.7884   0.00    0.0
2019/01/15 09:27:48.000   4280224.4703  -4034418.8020  -2458278.1814   5   6   5.2806   4.1728   6.8545  -3.9880   3.9695  -4.7868   0.00    0.0
2019/01/15 09:27:49.000   4280224.5966  -4034418.9209  -2458278.2290   5   6   5.2801   4.1723   6.8526  -3.9874   3.9681  -4.7851   0.00    0.0
2019/01/15 09:27:50.000   4280224.5153  -4034418.8680  -2458278.0870   5   6   5.2796   4.1718   6.8508  -3.9868   3.9667  -4.7834   0.00    0.0
2019/01/15 09:27:51.000   4280224.5057  -4034418.8356  -2458277.9851   5   6   5.2791   4.1713   6.8489  -3.9863   3.9654  -4.7817   0.00    0.0
2019/01/15 09:27:52.000   4280224.5015  -4034418.8447  -2458277.9670   5   6   5.2786   4.1709   6.8470  -3.9857   3.9640  -4.7801   0.00    0.0
2019/01/15 09:27:53.000   4280224.6516  -4034418.9687  -2458278.0174   5   6   5.2781   4.1704   6.8452  -3.9852   3.9626  -4.7784   0.00    0.0
2019/01/15 09:27:54.000   4280224.6194  -4034418.9140  -2458277.9472   5   6   5.2776   4.1699   6.8433  -3.9846   3.9613  -4.7767   0.00    0.0
2019/01/15 09:27:55.000   4280224.5885  -4034418.8772  -2458277.9539   5   6   5.2771   4.1694   6.8414  -3.9840   3.9599  -4.7750   0.00    0.0
2019/01/15 09:27:56.000   4280224.5964  -4034418.8007  -2458278.1168   5   6   5.2766   4.1689   6.8396  -3.9835   3.9585  -4.7734   0.00    0.0
2019/01/15 09:27:57.000   4280224.5828  -4034418.7992  -2458278.1092   5   6   5.2761   4.1684   6.8377  -3.9829   3.9572  -4.7717   0.00    0.0
2019/01/15 09:27:58.000   4280224.6026  -4034418.8353  -2458278.2744   5   6   5.2756   4.1679   6.8358  -3.9824   3.9558  -4.7700   0.00    0.0
2019/01/15 09:27:59.000   4280224.6974  -4034418.8686  -2458278.5341   5   6   5.2751   4.1675   6.8340  -3.9818   3.9544  -4.7684   0.00    0.0
2019/01/15 09:28:00.000   4280224.7214  -4034418.8547  -2458278.7104   5   6   5.2746   4.1670   6.8321  -3.9813   3.9531  -4.7667   0.00    0.0
2019/01/15 09:28:01.000   4280224.6895  -4034418.7761  -2458278.7738   5   6   5.2742   4.1665   6.8302  -3.9807   3.9517  -4.7650   0.00    0.0
2019/01/15 09:28:02.000   4280224.7165  -4034418.7933  -2458278.7967   5   6   5.2737   4.1660   6.8284  -3.9802   3.9503  -4.7633   0.00    0.0
2019/01/15 09:28:03.000   4280224.7323  -4034418.7904  -2458278.8704   5   6   5.2732   4.1655   6.8265  -3.9796   3.9490  -4.7617   0.00    0.0
2019/01/15 09:28:04.000   4280224.7265  -4034418.9061  -2458278.8294   5   6   5.2727   4.1651   6.8246  -3.9791   3.9476  -4.7600   0.00    0.0
2019/01/15 09:28:05.000   4280224.3571  -4034418.9357  -2458278.5524   5   6   5.2722   4.1646   6.8228  -3.9785   3.9462  -4.7583   0.00    0.0
2019/01/15 09:28:06.000   4280224.0731  -4034419.0170  -2458278.5994   5   6   5.2717   4.1641   6.8209  -3.9780   3.9449  -4.7567   0.00    0.0
2019/01/15 09:28:07.000   4280224.0412  -4034419.1597  -2458278.6052   5   6   5.2712   4.1636   6.8190  -3.9774   3.9435  -4.7550   0.00    0.0
2019/01/15 09:28:08.000   4280224.1808  -4034419.5073  -2458278.5188   5   6   5.2708   4.1631   6.8172  -3.9769   3.9422  -4.7533   0.00    0.0
2019/01/15 09:28:09.000   4280224.5708  -4034419.9505  -2458278.5906   5   6   5.2703   4.1627   6.8153  -3.9763   3.9408  -4.7517   0.00    0.0
2019/01/15 09:28:10.000   4280225.0698  -4034420.3838  -2458278.8846   5   6   5.2698   4.1622   6.8134  -3.9758   3.9395  -4.7500   0.00    0.0
2019/01/15 09:28:11.000   4280225.5884  -4034420.5632  -2458279.2386   5   6   5.2693   4.1617   6.8116  -3.9753   3.9381  -4.7483   0.00    0.0
2019/01/15 09:28:12.000   4280225.7726  -4034420.6447  -2458279.3389   5   6   5.2688   4.1612   6.8097  -3.9747   3.9367  -4.7467   0.00    0.0
2019/01/15 09:28:13.000   4280225.4515  -4034420.5017  -2458279.4315   5   6   5.2683   4.1608   6.8078  -3.9742   3.9354  -4.7450   0.00    0.0
2019/01/15 09:28:14.000   4280224.9726  -4034420.5302  -2458279.2975   5   6   5.2679   4.1603   6.8060  -3.9736   3.9340  -4.7433   0.00    0.0
2019/01/15 09:28:15.000   4280224.8553  -4034420.9109  -2458278.9291   5   6   5.2674   4.1598   6.8041  -3.9731   3.9327  -4.7417   0.00    0.0
2019/01/15 09:28:16.000   4280225.0597  -4034421.3209  -2458278.4943   5   6   5.2669   4.1593   6.8023  -3.9726   3.9313  -4.7400   0.00    0.0
2019/01/15 09:28:17.000   4280225.4530  -4034421.4989  -2458278.1514   5   6   5.2664   4.1589   6.8004  -3.9720   3.9300  -4.7383   0.00    0.0
2019/01/15 09:28:18.000   4280225.6787  -4034421.5162  -2458277.6409   5   6   5.2660   4.1584   6.7985  -3.9715   3.9286  -4.7367   0.00    0.0
2019/01/15 09:28:19.000   4280225.9342  -4034421.6857  -2458277.5247   5   6   5.2655   4.1579   6.7967  -3.9709   3.9273  -4.7350   0.00    0.0
2019/01/15 09:28:20.000   4280225.7304  -4034421.7320  -2458277.3394   5   6   5.2650   4.1575   6.7948  -3.9704   3.9259  -4.7334   0.00    0.0
2019/01/15 09:28:21.000   4280225.2438  -4034421.6086  -2458277.3074   5   6   5.2645   4.1570   6.7929  -3.9699   3.9246  -4.7317   0.00    0.0
2019/01/15 09:28:22.000   4280224.8242  -4034421.5540  -2458277.6960   5   6   5.2641   4.1565   6.7911  -3.9693   3.9232  -4.7300   0.00    0.0
2019/01/15 09:28:23.000   4280224.5460  -4034421.4196  -2458277.9850   5   6   5.2636   4.1561   6.7892  -3.9688   3.9219  -4.7284   0.00    0.0
2019/01/15 09:28:24.000   4280224.6100  -4034421.3498  -2458278.3602   5   6   5.2631   4.1556   6.7874  -3.9683   3.9205  -4.7267   0.00    0.0
2019/01/15 09:28:25.000   4280225.2254  -4034421.5428  -2458279.1671   5   6   5.2627   4.1551   6.7855  -3.9677   3.9192  -4.7250   0.00    0.0
2019/01/15 09:28:26.000   4280225.7771  -4034421.7254  -2458279.8766   5   6   5.2622   4.1547   6.7836  -3.9672   3.9178  -4.7234   0.00    0.0
2019/01/15 09:28:27.000   4280226.0100  -4034421.8069  -2458280.0882   5   6   5.2617   4.1542   6.7818  -3.9667   3.9165  -4.7217   0.00    0.0
2019/01/15 09:28:28.000   4280225.6729  -4034421.7505  -2458279.5741   5   6   5.2613   4.1537   6.7799  -3.9662   3.9151  -4.7201   0.00    0.0
2019/01/15 09:28:29.000   4280225.3413  -4034421.6265  -2458279.1745   5   6   5.2608   4.1533   6.7780  -3.9656   3.9138  -4.7184   0.00    0.0
2019/01/15 09:28:30.000   4280225.2634  -4034421.8231  -2458278.9805   5   6   5.2603   4.1528   6.7762  -3.9651   3.9124  -4.7168   0.00    0.0
2019/01/15 09:28:31.000   4280225.2626  -4034421.9672  -2458278.6894   5   6   5.2599   4.1523   6.7743  -3.9646   3.9111  -4.7151   0.00    0.0
2019/01/15 09:28:32.000   4280224.8730  -4034421.6368  -2458278.1026   5   6   5.2594   4.1519   6.7725  -3.9640   3.9097  -4.7134   0.00    0.0
2019/01/15 09:28:33.000   4280224.6153  -4034421.3891  -2458277.6268   5   6   5.2590   4.1514   6.7706  -3.9635   3.9084  -4.7118   0.00    0.0
2019/01/15 09:28:34.000   4280224.0282  -4034420.9622  -2458276.9893   5   6   5.2585   4.1509   6.7688  -3.9630   3.9071  -4.7101   0.00    0.0
2019/01/15 09:28:35.000   4280223.7703  -4034420.6653  -2458276.4617   5   6   5.2580   4.1505   6.7669  -3.9625   3.9057  -4.7085   0.00    0.0
2019/01/15 09:28:36.000   4280224.2694  -4034420.7648  -2458276.4232   5   6   5.2576   4.1500   6.7650  -3.9619   3.9044  -4.7068   0.00    0.0
2019/01/15 09:28:37.000   4280224.7779  -4034420.9301  -2458276.2943   5   6   5.2571   4.1496   6.7632  -3.9614   3.9030  -4.7052   0.00    0.0
2019/01/15 09:28:38.000   4280225.0308  -4034421.0294  -2458276.1751   5   6   5.2567   4.1491   6.7613  -3.9609   3.9017  -4.7035   0.00    0.0
2019/01/15 09:28:39.000   4280225.1213  -4034421.2095  -2458276.2163   5   6   5.2562   4.1486   6.7595  -3.9604   3.9003  -4.7018   0.00    0.0
2019/01/15 09:28:40.000   4280225.2813  -4034421.4962  -2458276.3773   5   6   5.2557   4.1482   6.7576  -3.9599   3.8990  -4.7002   0.00    0.0
2019/01/15 09:28:41.000   4280225.5232  -4034421.7263  -2458276.5121   5   6   5.2553   4.1477   6.7557  -3.9593   3.8977  -4.6985   0.00    0.0
2019/01/15 09:28:42.000   4280225.7720  -4034421.8323  -2458276.7216   5   6   5.2548   4.1473   6.7539  -3.9588   3.8963  -4.6969   0.00    0.0
2019/01/15 09:28:43.000   4280225.5113  -4034421.5342  -2458276.5995   5   6   5.2544   4.1468   6.7520  -3.9583   3.8950  -4.6952   0.00    0.0
2019/01/15 09:28:44.000   4280224.9464  -4034421.0695  -2458276.5938   5   6   5.2539   4.1464   6.7502  -3.9578   3.8937  -4.6936   0.00    0.0
2019/01/15 09:28:45.000   4280224.2289  -4034420.5498  -2458276.2988   5   6   5.2535   4.1459   6.7483  -3.9573   3.8923  -4.6919   0.00    0.0
2019/01/15 09:28:46.000   4280223.7906  -4034420.1043  -2458276.2678   5   6   5.2530   4.1455   6.7465  -3.9568   3.8910  -4.6903   0.00    0.0
2019/01/15 09:28:47.000   4280223.4869  -4034419.6708  -2458276.0831   5   6   5.2526   4.1450   6.7446  -3.9563   3.8896  -4.6886   0.00    0.0
2019/01/15 09:28:48.000   4280223.7677  -4034419.5474  -2458276.2670   5   6   5.2521   4.1446   6.7427  -3.9557   3.8883  -4.6870   0.00    0.0
2019/01/15 09:28:49.000   4280224.0476  -4034419.6004  -2458276.3005   5   6   5.2517   4.1441   6.7409  -3.9552   3.8870  -4.6853   0.00    0.0
2019/01/15 09:28:50.000   4280223.7048  -4034419.4322  -2458276.2620   5   6   5.2512   4.1437   6.7390  -3.9547   3.8856  -4.6837   0.00    0.0
2019/01/15 09:28:51.000   4280223.2750  -4034419.1314  -2458275.9539   5   6   5.2508   4.1432   6.7372  -3.9542   3.8843  -4.6820   0.00    0.0
2019/01/15 09:28:52.000   4280223.0732  -4034418.9840  -2458275.6064   5   6   5.2503   4.1428   6.7353  -3.9537   3.8830  -4.6804   0.00    0.0
2019/01/15 09:28:53.000   4280223.2385  -4034419.1790  -2458275.7583   5   6   5.2499   4.1423   6.7335  -3.9532   3.8817  -4.6787   0.00    0.0
2019/01/15 09:28:54.000   4280223.7101  -4034419.5469  -2458276.1753   5   6   5.2495   4.1419   6.7316  -3.9527   3.8803  -4.6771   0.00    0.0
2019/01/15 09:28:55.000   4280223.9290  -4034419.7203  -2458276.5106   5   6   5.2490   4.1414   6.7298  -3.9522   3.8790  -4.6754   0.00    0.0
2019/01/15 09:28:56.000   4280223.9184  -4034419.8544  -2458276.6399   5   6   5.2486   4.1410   6.7279  -3.9517   3.8777  -4.6738   0.00    0.0
2019/01/15 09:28:57.000   4280223.3354  -4034419.7138  -2458276.3589   5   6   5.2481   4.1405   6.7261  -3.9512   3.8763  -4.6722   0.00    0.0
2019/01/15 09:28:58.000   4280222.8389  -4034419.6364  -2458276.3944   5   6   5.2477   4.1401   6.7242  -3.9507   3.8750  -4.6705   0.00    0.0
2019/01/15 09:28:59.000   4280222.3114  -4034419.3589  -2458276.5505   5   6   5.2473   4.1396   6.7223  -3.9501   3.8737  -4.6689   0.00    0.0
2019/01/15 09:29:00.000   4280221.9490  -4034419.2202  -2458276.7991   5   6   5.2468   4.1392   6.7205  -3.9496   3.8724  -4.6672   0.00    0.0
2019/01/15 09:29:01.000   4280222.1729  -4034419.1390  -2458277.2523   5   6   5.2464   4.1387   6.7186  -3.9491   3.8710  -4.6656   0.00    0.0
2019/01/15 09:29:02.000   4280222.6589  -4034419.0603  -2458277.6303   5   6   5.2459   4.1383   6.7168  -3.9486   3.8697  -4.6639   0.00    0.0
2019/01/15 09:29:03.000   4280223.6999  -4034419.3504  -2458278.0445   5   6   5.2455   4.1378   6.7149  -3.9481   3.8684  -4.6623   0.00    0.0
2019/01/15 09:29:04.000   4280224.3949  -4034419.7670  -2458278.0399   5   6   5.2451   4.1374   6.7131  -3.9476   3.8671  -4.6606   0.00    0.0
2019/01/15 09:29:05.000   4280224.4975  -4034419.9356  -2458277.5863   5   6   5.2446   4.1370   6.7112  -3.9471   3.8657  -4.6590   0.00    0.0
2019/01/15 09:29:06.000   4280223.9940  -4034419.8122  -2458276.7730   5   6   5.2442   4.1365   6.7094  -3.9466   3.8644  -4.6574   0.00    0.0
2019/01/15 09:29:07.000   4280223.4775  -4034419.7745  -2458275.8887   5   6   5.2438   4.1361   6.7075  -3.9461   3.8631  -4.6557   0.00    0.0
2019/01/15 09:29:08.000   4280223.1773  -4034419.6335  -2458275.3203   5   6   5.2433   4.1356   6.7057  -3.9456   3.8618  -4.6541   0.00    0.0
2019/01/15 09:29:09.000   4280223.3404  -4034419.6849  -2458275.2806   5   6   5.2429   4.1352   6.7038  -3.9451   3.8604  -4.6524   0.00    0.0
2019/01/15 09:29:10.000   4280223.6646  -4034419.7422  -2458275.4964   5   6   5.2425   4.1348   6.7020  -3.9447   3.8591  -4.6508   0.00    0.0
2019/01/15 09:29:11.000   4280223.8556  -4034419.7765  -2458275.6078   5   6   5.2420   4.1343   6.7001  -3.9442   3.8578  -4.6492   0.00    0.0
2019/01/15 09:29:12.000   4280224.0405  -4034419.8101  -2458275.8771   5   6   5.2416   4.1339   6.6983  -3.9437   3.8565  -4.6475   0.00    0.0
2019/01/15 09:29:13.000   4280224.0000  -4034419.6559  -2458276.1438   5   6   5.2412   4.1334   6.6964  -3.9432   3.8552  -4.6459   0.00    0.0
2019/01/15 09:29:14.000   4280223.6780  -4034419.4185  -2458276.2232   5   6   5.2408   4.1330   6.6946  -3.9427   3.8538  -4.6442   0.00    0.0
2019/01/15 09:29:15.000   4280223.5009  -4034419.1726  -2458276.1585   5   6   5.2403   4.1326   6.6927  -3.9422   3.8525  -4.6426   0.00    0.0
2019/01/15 09:29:16.000   4280223.6234  -4034419.2319  -2458275.8712   5   6   5.2399   4.1321   6.6909  -3.9417   3.8512  -4.6410   0.00    0.0
2019/01/15 09:29:17.000   4280223.9891  -4034419.4822  -2458275.7847   5   6   5.2395   4.1317   6.6890  -3.9412   3.8499  -4.6393   0.00    0.0
2019/01/15 09:29:18.000   4280223.8347  -4034419.5307  -2458275.4530   5   6   5.2391   4.1313   6.6872  -3.9407   3.8486  -4.6377   0.00    0.0
2019/01/15 09:29:19.000   4280223.5547  -4034419.4112  -2458274.9593   5   6   5.2387   4.1308   6.6853  -3.9402   3.8473  -4.6361   0.00    0.0
2019/01/15 09:29:20.000   4280223.6538  -4034419.4976  -2458274.3665   5   6   5.2382   4.1304   6.6835  -3.9397   3.8460  -4.6344   0.00    0.0
2019/01/15 09:29:21.000   4280223.9644  -4034419.6495  -2458273.8032   5   6   5.2378   4.1300   6.6817  -3.9393   3.8446  -4.6328   0.00    0.0
2019/01/15 09:29:22.000   4280223.9749  -4034419.3377  -2458273.3619   5   6   5.2374   4.1295   6.6798  -3.9388   3.8433  -4.6312   0.00    0.0
2019/01/15 09:29:23.000   4280223.6696  -4034418.7347  -2458273.0108   5   6   5.2370   4.1291   6.6780  -3.9383   3.8420  -4.6295   0.00    0.0
2019/01/15 09:29:24.000   4280223.5416  -4034418.3770  -2458272.9598   5   6   5.2366   4.1287   6.6761  -3.9378   3.8407  -4.6279   0.00    0.0
2019/01/15 09:29:25.000   4280223.4603  -4034418.3274  -2458273.1351   5   6   5.2361   4.1283   6.6743  -3.9373   3.8394  -4.6263   0.00    0.0
2019/01/15 09:29:26.000   4280223.6016  -4034418.5994  -2458273.5098   5   6   5.2357   4.1278   6.6724  -3.9368   3.8381  -4.6246   0.00    0.0
2019/01/15 09:29:27.000   4280223.6523  -4034419.0341  -2458273.6311   5   6   5.2353   4.1274   6.6706  -3.9364   3.8368  -4.6230   0.00    0.0
2019/01/15 09:29:28.000   4280223.5661  -4034419.2952  -2458273.4578   5   6   5.2349   4.1270   6.6687  -3.9359   3.8355  -4.6214   0.00    0.0
2019/01/15 09:29:29.000   4280223.4895  -4034419.5657  -2458273.3727   5   6   5.2345   4.1265   6.6669  -3.9354   3.8342  -4.6197   0.00    0.0
2019/01/15 09:29:30.000   4280223.4075  -4034419.7411  -2458273.2609   5   6   5.2341   4.1261   6.6650  -3.9349   3.8329  -4.6181   0.00    0.0
2019/01/15 09:29:31.000   4280223.3580  -4034419.7441  -2458273.3989   5   6   5.2337   4.1257   6.6632  -3.9344   3.8315  -4.6165   0.00    0.0
2019/01/15 09:29:32.000   4280223.0745  -4034419.3357  -2458273.1864   5   6   5.2332   4.1253   6.6614  -3.9340   3.8302  -4.6148   0.00    0.0
2019/01/15 09:29:33.000   4280222.9426  -4034418.9342  -2458273.0362   5   6   5.2328   4.1248   6.6595  -3.9335   3.8289  -4.6132   0.00    0.0
2019/01/15 09:29:34.000   4280222.7960  -4034418.6779  -2458272.8750   5   6   5.2324   4.1244   6.6577  -3.9330   3.8276  -4.6116   0.00    0.0
2019/01/15 09:29:35.000   4280222.2438  -4034418.3207  -2458272.5856   5   6   5.2320   4.1240   6.6558  -3.9325   3.8263  -4.6100   0.00    0.0
2019/01/15 09:29:36.000   4280221.6561  -4034418.0210  -2458272.2433   5   6   5.2316   4.1236   6.6540  -3.9321   3.8250  -4.6083   0.00    0.0
2019/01/15 09:29:37.000   4280221.3639  -4034417.9631  -2458272.1129   5   6   5.2312   4.1231   6.6521  -3.9316   3.8237  -4.6067   0.00    0.0
2019/01/15 09:29:38.000   4280221.1386  -4034417.9569  -2458271.7908   5   6   5.2308   4.1227   6.6503  -3.9311   3.8224  -4.6051   0.00    0.0
2019/01/15 09:29:39.000   4280220.9469  -4034418.0878  -2458271.2591   5   6   5.2304   4.1223   6.6485  -3.9306   3.8211  -4.6035   0.00    0.0
2019/01/15 09:29:40.000   4280221.2712  -4034418.4137  -2458270.9758   5   6   5.2300   4.1219   6.6466  -3.9302   3.8198  -4.6018   0.00    0.0
2019/01/15 09:29:41.000   4280221.5526  -4034418.5821  -2458270.6919   5   6   5.2296   4.1215   6.6448  -3.9297   3.8185  -4.6002   0.00    0.0
2019/01/15 09:29:42.000   4280221.8614  -4034418.6329  -2458270.9835   5   6   5.2292   4.1210   6.6429  -3.9292   3.8172  -4.5986   0.00    0.0
2019/01/15 09:29:43.000   4280221.8085  -4034418.5649  -2458271.5429   5   6   5.2288   4.1206   6.6411  -3.9288   3.8159  -4.5970   0.00    0.0
2019/01/15 09:29:44.000   4280221.7624  -4034418.6043  -2458272.1920   5   6   5.2284   4.1202   6.6393  -3.9283   3.8146  -4.5953   0.00    0.0
2019/01/15 09:29:45.000   4280221.6913  -4034418.9739  -2458272.7071   5   6   5.2280   4.1198   6.6374  -3.9278   3.8133  -4.5937   0.00    0.0
2019/01/15 09:29:46.000   4280221.6441  -4034419.3687  -2458272.8334   5   6   5.2276   4.1194   6.6356  -3.9274   3.8120  -4.5921   0.00    0.0
2019/01/15 09:29:47.000   4280221.7244  -4034419.5987  -2458272.2907   5   6   5.2272   4.1190   6.6338  -3.9269   3.8107  -4.5905   0.00    0.0
2019/01/15 09:29:48.000   4280221.5868  -4034419.5296  -2458271.2398   5   6   5.2268   4.1185   6.6319  -3.9264   3.8094  -4.5888   0.00    0.0
2019/01/15 09:29:49.000   4280221.7121  -4034419.6134  -2458270.5378   5   6   5.2264   4.1181   6.6301  -3.9260   3.8081  -4.5872   0.00    0.0
2019/01/15 09:29:50.000   4280221.6233  -4034419.5034  -2458269.9796   5   6   5.2260   4.1177   6.6282  -3.9255   3.8068  -4.5856   0.00    0.0
2019/01/15 09:29:51.000   4280221.7327  -4034419.4223  -2458269.8002   5   6   5.2256   4.1173   6.6264  -3.9250   3.8056  -4.5840   0.00    0.0
2019/01/15 09:29:52.000   4280221.8594  -4034419.1538  -2458269.4230   5   6   5.2252   4.1169   6.6246  -3.9246   3.8043  -4.5824   0.00    0.0
2019/01/15 09:29:53.000   4280221.9984  -4034419.0429  -2458269.1798   5   6   5.2248   4.1165   6.6227  -3.9241   3.8030  -4.5807   0.00    0.0
2019/01/15 09:29:54.000   4280221.6201  -4034418.6370  -2458268.8182   5   6   5.2244   4.1161   6.6209  -3.9237   3.8017  -4.5791   0.00    0.0
2019/01/15 09:29:55.000   4280221.1029  -4034418.1415  -2458268.6038   5   6   5.2241   4.1157   6.6191  -3.9232   3.8004  -4.5775   0.00    0.0
2019/01/15 09:29:56.000   4280220.9246  -4034418.0155  -2458268.6095   5   6   5.2237   4.1152   6.6172  -3.9227   3.7991  -4.5759   0.00    0.0
2019/01/15 09:29:57.000   4280221.0038  -4034418.1524  -2458268.7885   5   6   5.2233   4.1148   6.6154  -3.9223   3.7978  -4.5743   0.00    0.0
2019/01/15 09:29:58.000   4280221.1503  -4034418.4173  -2458269.0298   5   6   5.2229   4.1144   6.6136  -3.9218   3.7965  -4.5727   0.00    0.0
2019/01/15 09:29:59.000   4280221.6133  -4034418.8366  -2458269.5870   5   6   5.2225   4.1140   6.6117  -3.9214   3.7952  -4.5710   0.00    0.0
2019/01/15 09:30:00.000   4280222.3268  -4034419.3621  -2458270.3366   5   6   5.2221   4.1136   6.6099  -3.9209   3.7939  -4.5694   0.00    0.0
2019/01/15 09:30:01.000   4280223.1572  -4034419.7683  -2458271.1315   5   6   5.2217   4.1132   6.6081  -3.9205   3.7927  -4.5678   0.00    0.0
2019/01/15 09:30:02.000   4280223.4769  -4034419.7896  -2458271.5334   5   6   5.2213   4.1128   6.6062  -3.9200   3.7914  -4.5662   0.00    0.0
2019/01/15 09:30:03.000   4280223.5099  -4034419.5397  -2458271.6576   5   6   5.2210   4.1124   6.6044  -3.9196   3.7901  -4.5646   0.00    0.0
2019/01/15 09:30:04.000   4280223.5874  -4034419.2985  -2458271.4870   5   6   5.2206   4.1120   6.6026  -3.9191   3.7888  -4.5630   0.00    0.0
2019/01/15 09:30:05.000   4280223.9015  -4034419.4899  -2458271.5596   5   6   5.2202   4.1116   6.6007  -3.9187   3.7875  -4.5614   0.00    0.0
2019/01/15 09:30:06.000   4280224.4338  -4034419.8435  -2458271.7223   5   6   5.2198   4.1112   6.5989  -3.9182   3.7862  -4.5598   0.00    0.0
2019/01/15 09:30:07.000   4280224.6551  -4034420.0487  -2458271.5507   5   6   5.2194   4.1108   6.5971  -3.9178   3.7849  -4.5581   0.00    0.0
2019/01/15 09:30:08.000   4280224.7316  -4034420.0476  -2458271.4691   5   6   5.2191   4.1104   6.5952  -3.9173   3.7837  -4.5565   0.00    0.0
2019/01/15 09:30:09.000   4280224.9084  -4034419.9585  -2458271.7790   5   6   5.2187   4.1100   6.5934  -3.9169   3.7824  -4.5549   0.00    0.0
2019/01/15 09:30:10.000   4280224.7182  -4034419.7238  -2458271.7341   5   6   5.2183   4.1096   6.5916  -3.9164   3.7811  -4.5533   0.00    0.0
2019/01/15 09:30:11.000   4280224.5825  -4034419.6693  -2458271.7059   5   6   5.2179   4.1092   6.5897  -3.9160   3.7798  -4.5517   0.00    0.0
2019/01/15 09:30:12.000   4280224.7092  -4034419.7579  -2458271.5698   5   6   5.2176   4.1088   6.5879  -3.9155   3.7785  -4.5501   0.00    0.0
2019/01/15 09:30:13.000   4280225.0612  -4034420.0264  -2458271.4535   5   6   5.2172   4.1084   6.5861  -3.9151   3.7773  -4.5485   0.00    0.0
2019/01/15 09:30:14.000   4280225.2759  -4034420.2439  -2458271.3024   5   6   5.2168   4.1080   6.5843  -3.9146   3.7760  -4.5469   0.00    0.0
2019/01/15 09:30:15.000   4280225.3896  -4034420.6126  -2458271.2943   5   6   5.2164   4.1076   6.5824  -3.9142   3.7747  -4.5453   0.00    0.0
2019/01/15 09:30:16.000   4280225.6416  -4034421.1228  -2458271.4609   5   6   5.2161   4.1072   6.5806  -3.9137   3.7734  -4.5437   0.00    0.0
2019/01/15 09:30:17.000   4280225.8579  -4034421.4824  -2458271.5452   5   6   5.2157   4.1068   6.5788  -3.9133   3.7722  -4.5421   0.00    0.0
2019/01/15 09:30:18.000   4280225.9526  -4034421.5863  -2458271.3799   5   6   5.2153   4.1064   6.5769  -3.9129   3.7709  -4.5405   0.00    0.0
2019/01/15 09:30:19.000   4280225.6449  -4034421.2838  -2458270.8164   5   6   5.2150   4.1060   6.5751  -3.9124   3.7696  -4.5388   0.00    0.0
2019/01/15 09:30:20.000   4280225.4743  -4034420.9425  -2458270.2322   5   6   5.2146   4.1056   6.5733  -3.9120   3.7683  -4.5372   0.00    0.0
2019/01/15 09:30:21.000   4280225.4882  -4034420.7102  -2458270.0406   5   6   5.2142   4.1052   6.5715  -3.9115   3.7671  -4.5356   0.00    0.0
2019/01/15 09:30:22.000   4280225.1303  -4034420.3434  -2458269.7046   5   6   5.2139   4.1048   6.5696  -3.9111   3.7658  -4.5340   0.00    0.0
2019/01/15 09:30:23.000   4280224.5470  -4034420.0082  -2458269.2899   5   6   5.2135   4.1044   6.5678  -3.9107   3.7645  -4.5324   0.00    0.0
2019/01/15 09:30:24.000   4280224.1759  -4034419.9064  -2458269.1192   5   6   5.2131   4.1040   6.5660  -3.9102   3.7632  -4.5308   0.00    0.0
2019/01/15 09:30:25.000   4280224.0465  -4034419.8943  -2458269.0652   5   6   5.2128   4.1036   6.5642  -3.9098   3.7620  -4.5292   0.00    0.0
2019/01/15 09:30:26.000   4280224.0382  -4034419.9811  -2458268.8444   5   6   5.2124   4.1032   6.5623  -3.9094   3.7607  -4.5276   0.00    0.0
2019/01/15 09:30:27.000   4280223.7870  -4034419.8792  -2458268.4841   5   6   5.2120   4.1028   6.5605  -3.9089   3.7594  -4.5260   0.00    0.0
2019/01/15 09:30:28.000   4280223.4641  -4034419.6544  -2458268.0715   5   6   5.2117   4.1024   6.5587  -3.9085   3.7582  -4.5244   0.00    0.0
2019/01/15 09:30:29.000   4280223.0826  -4034419.2360  -2458267.6568   5   6   5.2113   4.1020   6.5569  -3.9081   3.7569  -4.5228   0.00    0.0
2019/01/15 09:30:30.000   4280222.6166  -4034418.8207  -2458267.2279   5   6   5.2110   4.1017   6.5550  -3.9076   3.7556  -4.5212   0.00    0.0
2019/01/15 09:30:31.000   4280222.4653  -4034418.6148  -2458267.1880   5   6   5.2106   4.1013   6.5532  -3.9072   3.7544  -4.5196   0.00    0.0
2019/01/15 09:30:32.000   4280222.3610  -4034418.3012  -2458267.1545   5   6   5.2102   4.1009   6.5514  -3.9068   3.7531  -4.5180   0.00    0.0
2019/01/15 09:30:33.000   4280222.1825  -4034418.0104  -2458266.9262   5   6   5.2099   4.1005   6.5496  -3.9064   3.7518  -4.5164   0.00    0.0
2019/01/15 09:30:34.000   4280222.0419  -4034417.9936  -2458266.8240   5   6   5.2095   4.1001   6.5478  -3.9059   3.7506  -4.5148   0.00    0.0
2019/01/15 09:30:35.000   4280221.9653  -4034417.8799  -2458266.9186   5   6   5.2092   4.0997   6.5459  -3.9055   3.7493  -4.5132   0.00    0.0
2019/01/15 09:30:36.000   4280222.0342  -4034417.8231  -2458267.1002   5   6   5.2088   4.0993   6.5441  -3.9051   3.7480  -4.5117   0.00    0.0
2019/01/15 09:30:37.000   4280222.3140  -4034417.9893  -2458267.3709   5   6   5.2085   4.0989   6.5423  -3.9046   3.7468  -4.5101   0.00    0.0
2019/01/15 09:30:38.000   4280222.7435  -4034418.2800  -2458267.5981   5   6   5.2081   4.0986   6.5405  -3.9042   3.7455  -4.5085   0.00    0.0
2019/01/15 09:30:39.000   4280222.9208  -4034418.3969  -2458267.5450   5   6   5.2078   4.0982   6.5387  -3.9038   3.7443  -4.5069   0.00    0.0
2019/01/15 09:30:40.000   4280223.0221  -4034418.4804  -2458267.3480   5   6   5.2074   4.0978   6.5368  -3.9034   3.7430  -4.5053   0.00    0.0
2019/01/15 09:30:41.000   4280222.6428  -4034418.2976  -2458267.0084   5   6   5.2071   4.0974   6.5350  -3.9030   3.7417  -4.5037   0.00    0.0
2019/01/15 09:30:42.000   4280221.7369  -4034417.9035  -2458266.3697   5   6   5.2067   4.0970   6.5332  -3.9025   3.7405  -4.5021   0.00    0.0
2019/01/15 09:30:43.000   4280221.2761  -4034417.6196  -2458265.9139   5   6   5.2064   4.0966   6.5314  -3.9021   3.7392  -4.5005   0.00    0.0
2019/01/15 09:30:44.000   4280221.3331  -4034417.4726  -2458265.8050   5   6   5.2060   4.0963   6.5296  -3.9017   3.7380  -4.4989   0.00    0.0
2019/01/15 09:30:45.000   4280221.4593  -4034417.5150  -2458265.8472   5   6   5.2057   4.0959   6.5278  -3.9013   3.7367  -4.4973   0.00    0.0
2019/01/15 09:30:46.000   4280221.3985  -4034417.4941  -2458266.0479   5   6   5.2053   4.0955   6.5259  -3.9009   3.7354  -4.4957   0.00    0.0
2019/01/15 09:30:47.000   4280221.2989  -4034417.4549  -2458266.6929   5   6   5.2050   4.0951   6.5241  -3.9004   3.7342  -4.4941   0.00    0.0
2019/01/15 09:30:48.000   4280221.2415  -4034417.4396  -2458267.4595   5   6   5.2046   4.0947   6.5223  -3.9000   3.7329  -4.4925   0.00    0.0
2019/01/15 09:30:49.000   4280221.3734  -4034417.5094  -2458267.9429   5   6   5.2043   4.0944   6.5205  -3.8996   3.7317  -4.4910   0.00    0.0
2019/01/15 09:30:50.000   4280221.5704  -4034417.7066  -2458268.3341   5   6   5.2040   4.0940   6.5187  -3.8992   3.7304  -4.4894   0.00    0.0
2019/01/15 09:30:51.000   4280221.7805  -4034418.0529  -2458268.3390   5   6   5.2036   4.0936   6.5169  -3.8988   3.7292  -4.4878   0.00    0.0
2019/01/15 09:30:52.000   4280221.8571  -4034418.2244  -2458268.2679   5   6   5.2033   4.0932   6.5151  -3.8984   3.7279  -4.4862   0.00    0.0
2019/01/15 09:30:53.000   4280221.8653  -4034418.2542  -2458268.3133   5   6   5.2029   4.0928   6.5132  -3.8980   3.7267  -4.4846   0.00    0.0
2019/01/15 09:30:54.000   4280221.7903  -4034418.2274  -2458268.3579   5   6   5.2026   4.0925   6.5114  -3.8975   3.7254  -4.4830   0.00    0.0
2019/01/15 09:30:55.000   4280221.2090  -4034417.9852  -2458268.3390   5   6   5.2023   4.0921   6.5096  -3.8971   3.7242  -4.4814   0.00    0.0
2019/01/15 09:30:56.000   4280220.9326  -4034417.9568  -2458268.4677   5   6   5.2019   4.0917   6.5078  -3.8967   3.7229  -4.4799   0.00    0.0
2019/01/15 09:30:57.000   4280220.8419  -4034418.0161  -2458268.5265   5   6   5.2016   4.0914   6.5060  -3.8963   3.7217  -4.4783   0.00    0.0
2019/01/15 09:30:58.000   4280220.7002  -4034418.0744  -2458268.2689   5   6   5.2013   4.0910   6.5042  -3.8959   3.7204  -4.4767   0.00    0.0
2019/01/15 09:30:59.000   4280220.7625  -4034418.2652  -2458267.8935   5   6   5.2009   4.0906   6.5024  -3.8955   3.7192  -4.4751   0.00    0.0
2019/01/15 09:31:00.000   4280221.1266  -4034418.6810  -2458267.8675   5   6   5.2006   4.0902   6.5006  -3.8951   3.7179  -4.4735   0.00    0.0
2019/01/15 09:31:01.000   4280221.3134  -4034418.9882  -2458267.8808   5   6   5.2003   4.0899   6.4988  -3.8947   3.7167  -4.4719   0.00    0.0
2019/01/15 09:31:02.000   4280221.1450  -4034418.9315  -2458267.6690   5   6   5.1999   4.0895   6.4969  -3.8943   3.7154  -4.4704   0.00    0.0
2019/01/15 09:31:03.000   4280220.7836  -4034418.6218  -2458267.3857   5   6   5.1996   4.0891   6.4951  -3.8939   3.7142  -4.4688   0.00    0.0
2019/01/15 09:31:04.000   4280220.5712  -4034418.4874  -2458267.1078   5   6   5.1993   4.0888   6.4933  -3.8935   3.7130  -4.4672   0.00    0.0
2019/01/15 09:31:05.000   4280220.7162  -4034418.6513  -2458266.7104   5   6   5.1989   4.0884   6.4915  -3.8931   3.7117  -4.4656   0.00    0.0
2019/01/15 09:31:06.000   4280221.1828  -4034419.0489  -2458266.7214   5   6   5.1986   4.0880   6.4897  -3.8927   3.7105  -4.4640   0.00    0.0
2019/01/15 09:31:07.000   4280221.7308  -4034419.4609  -2458267.1531   5   6   5.1983   4.0876   6.4879  -3.8923   3.7092  -4.4625   0.00    0.0
2019/01/15 09:31:08.000   4280222.1014  -4034419.6377  -2458267.5083   5   6   5.1980   4.0873   6.4861  -3.8919   3.7080  -4.4609   0.00    0.0
2019/01/15 09:31:09.000   4280222.1127  -4034419.4470  -2458267.2693   5   6   5.1976   4.0869   6.4843  -3.8915   3.7067  -4.4593   0.00    0.0
2019/01/15 09:31:10.000   4280221.9906  -4034419.3750  -2458266.7998   5   6   5.1973   4.0865   6.4825  -3.8911   3.7055  -4.4577   0.00    0.0
2019/01/15 09:31:11.000   4280221.9528  -4034419.4937  -2458266.5276   5   6   5.1970   4.0862   6.4807  -3.8907   3.7043  -4.4562   0.00    0.0
2019/01/15 09:31:12.000   4280221.8866  -4034419.5142  -2458266.2232   5   6   5.1967   4.0858   6.4789  -3.8903   3.7030  -4.4546   0.00    0.0
2019/01/15 09:31:13.000   4280222.0192  -4034419.5213  -2458266.1285   5   6   5.1963   4.0855   6.4771  -3.8899   3.7018  -4.4530   0.00    0.0
2019/01/15 09:31:14.000   4280222.2269  -4034419.5919  -2458266.2840   5   6   5.1960   4.0851   6.4753  -3.8895   3.7006  -4.4514   0.00    0.0
2019/01/15 09:31:15.000   4280222.4039  -4034419.7006  -2458266.3533   5   6   5.1957   4.0847   6.4735  -3.8891   3.6993  -4.4499   0.00    0.0
2019/01/15 09:31:16.000   4280222.5098  -4034419.7843  -2458266.4728   5   6   5.1954   4.0844   6.4717  -3.8887   3.6981  -4.4483   0.00    0.0
2019/01/15 09:31:17.000   4280222.5420  -4034419.8255  -2458266.2652   5   6   5.1951   4.0840   6.4699  -3.8883   3.6968  -4.4467   0.00    0.0
2019/01/15 09:31:18.000   4280222.7318  -4034420.1788  -2458266.0084   5   6   5.1948   4.0836   6.4680  -3.8879   3.6956  -4.4451   0.00    0.0
2019/01/15 09:31:19.000   4280223.1694  -4034420.7400  -2458266.0767   5   6   5.1944   4.0833   6.4662  -3.8875   3.6944  -4.4436   0.00    0.0
2019/01/15 09:31:20.000   4280223.5746  -4034421.0862  -2458266.0863   5   6   5.1941   4.0829   6.4644  -3.8871   3.6931  -4.4420   0.00    0.0
2019/01/15 09:31:21.000   4280223.6828  -4034421.1811  -2458266.2145   5   6   5.1938   4.0826   6.4626  -3.8867   3.6919  -4.4404   0.00    0.0
2019/01/15 09:31:22.000   4280223.8563  -4034421.1422  -2458266.0554   5   6   5.1935   4.0822   6.4608  -3.8863   3.6907  -4.4389   0.00    0.0
2019/01/15 09:31:23.000   4280224.0912  -4034421.3057  -2458265.7136   5   6   5.1932   4.0818   6.4590  -3.8860   3.6895  -4.4373   0.00    0.0
2019/01/15 09:31:24.000   4280224.3592  -4034421.4876  -2458265.5248   5   6   5.1929   4.0815   6.4572  -3.8856   3.6882  -4.4357   0.00    0.0
2019/01/15 09:31:25.000   4280224.4921  -4034421.5325  -2458265.5286   5   6   5.1926   4.0811   6.4554  -3.8852   3.6870  -4.4342   0.00    0.0
2019/01/15 09:31:26.000   4280224.6809  -4034421.5127  -2458266.0218   5   6   5.1923   4.0808   6.4536  -3.8848   3.6858  -4.4326   0.00    0.0
2019/01/15 09:31:27.000   4280224.7593  -4034421.3273  -2458266.3760   5   6   5.1919   4.0804   6.4518  -3.8844   3.6845  -4.4310   0.00    0.0
2019/01/15 09:31:28.000   4280224.7811  -4034421.3006  -2458266.6705   5   6   5.1916   4.0801   6.4500  -3.8840   3.6833  -4.4295   0.00    0.0
2019/01/15 09:31:29.000   4280224.6622  -4034421.3734  -2458266.9316   5   6   5.1913   4.0797   6.4483  -3.8836   3.6821  -4.4279   0.00    0.0
2019/01/15 09:31:30.000   4280224.2592  -4034421.3283  -2458266.9824   5   6   5.1910   4.0794   6.4465  -3.8833   3.6809  -4.4263   0.00    0.0
2019/01/15 09:31:31.000   4280223.9681  -4034421.1767  -2458267.1114   5   6   5.1907   4.0790   6.4447  -3.8829   3.6796  -4.4248   0.00    0.0
2019/01/15 09:31:32.000   4280223.6545  -4034421.1422  -2458267.0561   5   6   5.1904   4.0786   6.4429  -3.8825   3.6784  -4.4232   0.00    0.0
2019/01/15 09:31:33.000   4280223.7519  -4034421.5271  -2458267.3371   5   6   5.1901   4.0783   6.4411  -3.8821   3.6772  -4.4216   0.00    0.0
2019/01/15 09:31:34.000   4280224.1255  -4034422.0033  -2458267.6438   5   6   5.1898   4.0779   6.4393  -3.8817   3.6760  -4.4201   0.00    0.0
2019/01/15 09:31:35.000   4280224.3601  -4034422.2437  -2458267.8529   5   6   5.1895   4.0776   6.4375  -3.8814   3.6747  -4.4185   0.00    0.0
2019/01/15 09:31:36.000   4280224.5885  -4034422.5414  -2458268.2648   5   6   5.1892   4.0772   6.4357  -3.8810   3.6735  -4.4169   0.00    0.0
2019/01/15 09:31:37.000   4280224.6791  -4034422.5809  -2458268.5288   5   6   5.1889   4.0769   6.4339  -3.8806   3.6723  -4.4154   0.00    0.0
2019/01/15 09:31:38.000   4280224.6480  -4034422.5937  -2458268.6750   5   6   5.1886   4.0765   6.4321  -3.8802   3.6711  -4.4138   0.00    0.0
2019/01/15 09:31:39.000   4280224.4283  -4034422.4310  -2458268.7002   5   6   5.1883   4.0762   6.4303  -3.8798   3.6699  -4.4123   0.00    0.0
2019/01/15 09:31:40.000   4280223.9726  -4034422.0548  -2458268.4744   5   6   5.1880   4.0758   6.4285  -3.8795   3.6686  -4.4107   0.00    0.0
2019/01/15 09:31:41.000   4280223.4806  -4034421.6714  -2458267.9430   5   6   5.1877   4.0755   6.4267  -3.8791   3.6674  -4.4091   0.00    0.0
2019/01/15 09:31:42.000   4280223.4556  -4034421.8148  -2458267.7215   5   6   5.1874   4.0751   6.4249  -3.8787   3.6662  -4.4076   0.00    0.0
2019/01/15 09:31:43.000   4280223.3691  -4034421.9030  -2458267.6057   5   6   5.1871   4.0748   6.4231  -3.8784   3.6650  -4.4060   0.00    0.0
2019/01/15 09:31:44.000   4280223.1302  -4034421.8349  -2458267.6425   5   6   5.1868   4.0745   6.4213  -3.8780   3.6638  -4.4045   0.00    0.0
2019/01/15 09:31:45.000   4280223.0248  -4034421.6601  -2458267.7760   5   6   5.1865   4.0741   6.4196  -3.8776   3.6626  -4.4029   0.00    0.0
2019/01/15 09:31:46.000   4280222.9517  -4034421.4232  -2458267.9951   5   6   5.1862   4.0738   6.4178  -3.8772   3.6613  -4.4014   0.00    0.0
2019/01/15 09:31:47.000   4280222.9891  -4034421.1513  -2458268.2663   5   6   5.1860   4.0734   6.4160  -3.8769   3.6601  -4.3998   0.00    0.0
2019/01/15 09:31:48.000   4280223.0855  -4034421.1041  -2458268.4301   5   6   5.1857   4.0731   6.4142  -3.8765   3.6589  -4.3983   0.00    0.0
2019/01/15 09:31:49.000   4280223.0943  -4034421.1502  -2458268.4398   5   6   5.1854   4.0727   6.4124  -3.8761   3.6577  -4.3967   0.00    0.0
2019/01/15 09:31:50.000   4280223.1992  -4034421.3255  -2458268.3717   5   6   5.1851   4.0724   6.4106  -3.8758   3.6565  -4.3951   0.00    0.0
2019/01/15 09:31:51.000   4280222.8553  -4034421.1154  -2458267.9887   5   6   5.1848   4.0720   6.4088  -3.8754   3.6553  -4.3936   0.00    0.0
2019/01/15 09:31:52.000   4280222.4603  -4034420.7821  -2458267.6488   5   6   5.1845   4.0717   6.4070  -3.8750   3.6541  -4.3920   0.00    0.0
2019/01/15 09:31:53.000   4280222.2487  -4034420.4875  -2458267.6611   5   6   5.1842   4.0714   6.4052  -3.8747   3.6529  -4.3905   0.00    0.0
2019/01/15 09:31:54.000   4280222.3469  -4034420.3470  -2458267.8808   5   6   5.1839   4.0710   6.4035  -3.8743   3.6517  -4.3889   0.00    0.0
2019/01/15 09:31:55.000   4280222.3981  -4034420.3209  -2458268.1438   5   6   5.1837   4.0707   6.4017  -3.8739   3.6504  -4.3874   0.00    0.0
2019/01/15 09:31:56.000   4280222.0067  -4034420.2632  -2458267.8023   5   6   5.1834   4.0703   6.3999  -3.8736   3.6492  -4.3858   0.00    0.0
2019/01/15 09:31:57.000   4280221.8866  -4034420.4447  -2458267.4915   5   6   5.1831   4.0700   6.3981  -3.8732   3.6480  -4.3843   0.00    0.0
2019/01/15 09:31:58.000   4280221.8629  -4034420.6196  -2458267.2089   5   6   5.1828   4.0697   6.3963  -3.8729   3.6468  -4.3827   0.00    0.0
2019/01/15 09:31:59.000   4280221.8586  -4034420.7766  -2458267.1086   5   6   5.1825   4.0693   6.3945  -3.8725   3.6456  -4.3812   0.00    0.0
2019/01/15 09:32:00.000   4280221.8615  -4034420.7340  -2458267.0969   5   6   5.1823   4.0690   6.3928  -3.8721   3.6444  -4.3796   0.00    0.0
2019/01/15 09:32:01.000   4280221.5900  -4034420.3838  -2458267.1751   5   6   5.1820   4.0687   6.3910  -3.8718   3.6432  -4.3781   0.00    0.0
2019/01/15 09:32:02.000   4280221.3284  -4034420.0397  -2458267.0990   5   6   5.1817   4.0683   6.3892  -3.8714   3.6420  -4.3766   0.00    0.0
2019/01/15 09:32:03.000   4280221.4289  -4034420.0860  -2458267.1182   5   6   5.1814   4.0680   6.3874  -3.8711   3.6408  -4.3750   0.00    0.0
2019/01/15 09:32:04.000   4280221.3366  -4034420.0349  -2458267.0244   5   6   5.1811   4.0677   6.3856  -3.8707   3.6396  -4.3735   0.00    0.0
2019/01/15 09:32:05.000   4280221.1590  -4034419.9487  -2458266.7869   5   6   5.1809   4.0673   6.3838  -3.8704   3.6384  -4.3719   0.00    0.0
2019/01/15 09:32:06.000   4280220.6769  -4034419.6225  -2458266.7221   5   6   5.1806   4.0670   6.3821  -3.8700   3.6372  -4.3704   0.00    0.0
2019/01/15 09:32:07.000   4280220.5049  -4034419.5418  -2458267.0843   5   6   5.1803   4.0667   6.3803  -3.8697   3.6360  -4.3688   0.00    0.0
2019/01/15 09:32:08.000   4280220.7202  -4034419.6491  -2458267.3143   5   6   5.1801   4.0663   6.3785  -3.8693   3.6348  -4.3673   0.00    0.0
2019/01/15 09:32:09.000   4280221.0634  -4034419.8734  -2458267.4960   5   6   5.1798   4.0660   6.3767  -3.8689   3.6336  -4.3658   0.00    0.0
2019/01/15 09:32:10.000   4280221.1978  -4034420.0230  -2458267.7590   5   6   5.1795   4.0657   6.3750  -3.8686   3.6324  -4.3642   0.00    0.0
2019/01/15 09:32:11.000   4280221.2169  -4034420.1407  -2458267.9905   5   6   5.1792   4.0653   6.3732  -3.8682   3.6312  -4.3627   0.00    0.0
2019/01/15 09:32:12.000   4280221.3215  -4034420.2050  -2458268.1768   5   6   5.1790   4.0650   6.3714  -3.8679   3.6300  -4.3611   0.00    0.0
2019/01/15 09:32:13.000   4280221.6217  -4034420.4283  -2458268.2664   5   6   5.1787   4.0647   6.3696  -3.8675   3.6288  -4.3596   0.00    0.0
2019/01/15 09:32:14.000   4280222.0840  -4034420.7297  -2458268.4948   5   6   5.1784   4.0643   6.3678  -3.8672   3.6276  -4.3581   0.00    0.0
2019/01/15 09:32:15.000   4280222.3648  -4034420.9612  -2458268.3296   5   6   5.1782   4.0640   6.3661  -3.8669   3.6264  -4.3565   0.00    0.0
2019/01/15 09:32:16.000   4280222.3530  -4034420.9847  -2458267.8446   5   6   5.1779   4.0637   6.3643  -3.8665   3.6252  -4.3550   0.00    0.0
2019/01/15 09:32:17.000   4280221.8630  -4034420.7483  -2458267.2018   5   6   5.1776   4.0634   6.3625  -3.8662   3.6240  -4.3534   0.00    0.0
2019/01/15 09:32:18.000   4280221.5341  -4034420.5266  -2458266.6150   5   6   5.1774   4.0630   6.3607  -3.8658   3.6229  -4.3519   0.00    0.0
2019/01/15 09:32:19.000   4280221.0870  -4034420.2405  -2458266.1740   5   6   5.1771   4.0627   6.3590  -3.8655   3.6217  -4.3504   0.00    0.0
2019/01/15 09:32:20.000   4280221.0541  -4034420.3880  -2458266.2027   5   6   5.1769   4.0624   6.3572  -3.8651   3.6205  -4.3488   0.00    0.0
2019/01/15 09:32:21.000   4280221.5746  -4034421.0932  -2458266.4896   5   6   5.1766   4.0621   6.3554  -3.8648   3.6193  -4.3473   0.00    0.0
2019/01/15 09:32:22.000   4280222.3847  -4034421.8019  -2458266.8496   5   6   5.1763   4.0617   6.3536  -3.8644   3.6181  -4.3458   0.00    0.0
2019/01/15 09:32:23.000   4280222.8896  -4034422.0751  -2458266.8518   5   6   5.1761   4.0614   6.3519  -3.8641   3.6169  -4.3442   0.00    0.0
2019/01/15 09:32:24.000   4280223.1857  -4034421.9250  -2458266.7349   5   6   5.1758   4.0611   6.3501  -3.8638   3.6157  -4.3427   0.00    0.0
2019/01/15 09:32:25.000   4280223.5408  -4034421.8883  -2458266.9256   5   6   5.1756   4.0608   6.3483  -3.8634   3.6145  -4.3412   0.00    0.0
2019/01/15 09:32:26.000   4280223.4273  -4034421.8511  -2458266.8877   5   6   5.1753   4.0604   6.3466  -3.8631   3.6133  -4.3396   0.00    0.0
2019/01/15 09:32:27.000   4280222.9759  -4034421.6837  -2458266.6253   5   6   5.1751   4.0601   6.3448  -3.8627   3.6122  -4.3381   0.00    0.0
2019/01/15 09:32:28.000   4280222.5361  -4034421.6203  -2458266.2185   5   6   5.1748   4.0598   6.3430  -3.8624   3.6110  -4.3366   0.00    0.0
2019/01/15 09:32:29.000   4280222.3973  -4034421.6343  -2458265.8466   5   6   5.1745   4.0595   6.3413  -3.8621   3.6098  -4.3350   0.00    0.0
2019/01/15 09:32:30.000   4280222.5088  -4034421.7541  -2458265.9066   5   6   5.1743   4.0592   6.3395  -3.8617   3.6086  -4.3335   0.00    0.0
2019/01/15 09:32:31.000   4280222.7230  -4034421.8870  -2458266.0230   5   6   5.1740   4.0588   6.3377  -3.8614   3.6074  -4.3320   0.00    0.0
2019/01/15 09:32:32.000   4280222.7468  -4034421.9617  -2458266.3348   5   6   5.1738   4.0585   6.3360  -3.8611   3.6062  -4.3305   0.00    0.0
2019/01/15 09:32:33.000   4280222.6725  -4034422.0195  -2458266.6354   5   6   5.1735   4.0582   6.3342  -3.8607   3.6051  -4.3289   0.00    0.0
2019/01/15 09:32:34.000   4280222.3238  -4034421.9070  -2458266.5738   5   6   5.1733   4.0579   6.3324  -3.8604   3.6039  -4.3274   0.00    0.0
2019/01/15 09:32:35.000   4280222.1125  -4034421.7471  -2458266.6059   5   6   5.1730   4.0576   6.3307  -3.8601   3.6027  -4.3259   0.00    0.0
2019/01/15 09:32:36.000   4280222.2550  -4034421.6936  -2458266.9454   5   6   5.1728   4.0573   6.3289  -3.8597   3.6015  -4.3244   0.00    0.0
2019/01/15 09:32:37.000   4280222.2539  -4034421.4561  -2458267.1576   5   6   5.1725   4.0569   6.3271  -3.8594   3.6004  -4.3228   0.00    0.0
2019/01/15 09:32:38.000   4280222.0297  -4034421.2725  -2458267.3934   5   6   5.1723   4.0566   6.3254  -3.8591   3.5992  -4.3213   0.00    0.0
2019/01/15 09:32:39.000   4280221.5577  -4034420.9647  -2458267.2061   5   6   5.1721   4.0563   6.3236  -3.8588   3.5980  -4.3198   0.00    0.0
2019/01/15 09:32:40.000   4280221.3139  -4034420.6259  -2458267.1474   5   6   5.1718   4.0560   6.3218  -3.8584   3.5968  -4.3183   0.00    0.0
2019/01/15 09:32:41.000   4280221.0632  -4034420.3058  -2458267.0043   5   6   5.1716   4.0557   6.3201  -3.8581   3.5956  -4.3167   0.00    0.0
2019/01/15 09:32:42.000   4280220.9635  -4034420.0945  -2458267.0157   5   6   5.1713   4.0554   6.3183  -3.8578   3.5945  -4.3152   0.00    0.0
2019/01/15 09:32:43.000   4280220.8631  -4034419.8896  -2458267.1969   5   6   5.1711   4.0551   6.3165  -3.8574   3.5933  -4.3137   0.00    0.0
2019/01/15 09:32:44.000   4280221.2938  -4034420.1925  -2458267.7364   5   6   5.1708   4.0548   6.3148  -3.8571   3.5921  -4.3122   0.00    0.0
2019/01/15 09:32:45.000   4280221.9692  -4034420.7492  -2458268.5135   5   6   5.1706   4.0544   6.3130  -3.8568   3.5910  -4.3107   0.00    0.0
2019/01/15 09:32:46.000   4280222.4912  -4034421.2496  -2458269.1941   5   6   5.1704   4.0541   6.3113  -3.8565   3.5898  -4.3091   0.00    0.0
2019/01/15 09:32:47.000   4280222.6976  -4034421.3944  -2458269.7102   5   6   5.1701   4.0538   6.3095  -3.8562   3.5886  -4.3076   0.00    0.0
2019/01/15 09:32:48.000   4280222.7829  -4034421.3060  -2458270.3705   5   6   5.1699   4.0535   6.3077  -3.8558   3.5874  -4.3061   0.00    0.0
2019/01/15 09:32:49.000   4280222.7026  -4034421.1960  -2458270.9030   5   6   5.1697   4.0532   6.3060  -3.8555   3.5863  -4.3046   0.00    0.0
2019/01/15 09:32:50.000   4280222.4660  -4034421.0633  -2458271.0123   5   6   5.1694   4.0529   6.3042  -3.8552   3.5851  -4.3031   0.00    0.0
2019/01/15 09:32:51.000   4280222.4866  -4034420.9461  -2458271.1202   5   6   5.1692   4.0526   6.3025  -3.8549   3.5839  -4.3016   0.00    0.0
2019/01/15 09:32:52.000   4280222.7249  -4034420.9452  -2458271.4365   5   6   5.1690   4.0523   6.3007  -3.8546   3.5828  -4.3000   0.00    0.0
2019/01/15 09:32:53.000   4280223.2415  -4034421.1512  -2458271.9271   5   6   5.1687   4.0520   6.2990  -3.8542   3.5816  -4.2985   0.00    0.0
2019/01/15 09:32:54.000   4280223.0948  -4034420.9740  -2458272.0170   5   6   5.1685   4.0517   6.2972  -3.8539   3.5804  -4.2970   0.00    0.0
2019/01/15 09:32:55.000   4280222.6513  -4034420.6443  -2458272.1391   5   6   5.1683   4.0514   6.2954  -3.8536   3.5793  -4.2955   0.00    0.0
2019/01/15 09:32:56.000   4280222.3984  -4034420.4298  -2458272.7466   5   6   5.1680   4.0511   6.2937  -3.8533   3.5781  -4.2940   0.00    0.0
2019/01/15 09:32:57.000   4280222.4437  -4034420.2746  -2458273.5155   5   6   5.1678   4.0508   6.2919  -3.8530   3.5769  -4.2925   0.00    0.0
2019/01/15 09:32:58.000   4280222.2835  -4034420.2241  -2458273.8509   5   6   5.1676   4.0505   6.2902  -3.8527   3.5758  -4.2910   0.00    0.0
2019/01/15 09:32:59.000   4280221.8238  -4034420.0456  -2458273.8450   5   6   5.1673   4.0501   6.2884  -3.8524   3.5746  -4.2895   0.00    0.0
2019/01/15 09:33:00.000   4280221.3886  -4034419.8713  -2458273.5475   5   6   5.1671   4.0498   6.2867  -3.8520   3.5735  -4.2880   0.00    0.0
2019/01/15 09:33:01.000   4280221.1238  -4034419.7887  -2458273.4915   5   6   5.1669   4.0495   6.2849  -3.8517   3.5723  -4.2864   0.00    0.0
2019/01/15 09:33:02.000   4280221.1934  -4034419.8858  -2458273.7740   5   6   5.1667   4.0492   6.2832  -3.8514   3.5711  -4.2849   0.00    0.0
2019/01/15 09:33:03.000   4280221.8486  -4034420.0630  -2458274.2042   5   6   5.1664   4.0489   6.2814  -3.8511   3.5700  -4.2834   0.00    0.0
2019/01/15 09:33:04.000   4280222.6232  -4034420.2261  -2458274.7733   5   6   5.1662   4.0486   6.2797  -3.8508   3.5688  -4.2819   0.00    0.0
2019/01/15 09:33:05.000   4280222.8670  -4034420.1316  -2458274.8468   5   6   5.1660   4.0483   6.2779  -3.8505   3.5677  -4.2804   0.00    0.0
2019/01/15 09:33:06.000   4280222.5158  -4034419.7602  -2458274.5160   5   6   5.1658   4.0480   6.2762  -3.8502   3.5665  -4.2789   0.00    0.0
2019/01/15 09:33:07.000   4280221.9384  -4034419.3076  -2458274.3239   5   6   5.1656   4.0477   6.2744  -3.8499   3.5653  -4.2774   0.00    0.0
2019/01/15 09:33:08.000   4280221.2626  -4034418.9378  -2458273.9968   5   6   5.1653   4.0474   6.2727  -3.8496   3.5642  -4.2759   0.00    0.0
2019/01/15 09:33:09.000   4280220.7472  -4034418.7928  -2458273.6204   5   6   5.1651   4.0471   6.2709  -3.8493   3.5630  -4.2744   0.00    0.0
2019/01/15 09:33:10.000   4280220.6302  -4034418.8602  -2458273.4863   5   6   5.1649   4.0469   6.2692  -3.8490   3.5619  -4.2729   0.00    0.0
2019/01/15 09:33:11.000   4280220.7564  -4034418.9161  -2458273.5365   5   6   5.1647   4.0466   6.2674  -3.8487   3.5607  -4.2714   0.00    0.0
2019/01/15 09:33:12.000   4280220.7236  -4034418.7701  -2458273.4226   5   6   5.1645   4.0463   6.2657  -3.8484   3.5596  -4.2699   0.00    0.0
2019/01/15 09:33:13.000   4280220.4080  -4034418.5301  -2458273.0358   5   6   5.1643   4.0460   6.2639  -3.8481   3.5584  -4.2684   0.00    0.0
2019/01/15 09:33:14.000   4280220.1681  -4034418.2755  -2458272.8087   5   6   5.1640   4.0457   6.2622  -3.8478   3.5573  -4.2669   0.00    0.0
2019/01/15 09:33:15.000   4280220.2152  -4034418.2238  -2458272.8613   5   6   5.1638   4.0454   6.2604  -3.8475   3.5561  -4.2654   0.00    0.0
2019/01/15 09:33:16.000   4280220.5219  -4034418.2934  -2458273.3808   5   6   5.1636   4.0451   6.2587  -3.8472   3.5550  -4.2639   0.00    0.0
2019/01/15 09:33:17.000   4280220.6178  -4034418.2957  -2458274.0902   5   6   5.1634   4.0448   6.2570  -3.8469   3.5538  -4.2624   0.00    0.0
2019/01/15 09:33:18.000   4280220.8177  -4034418.5851  -2458275.1129   5   6   5.1632   4.0445   6.2552  -3.8466   3.5527  -4.2609   0.00    0.0
2019/01/15 09:33:19.000   4280221.1177  -4034418.9627  -2458275.8682   5   6   5.1630   4.0442   6.2535  -3.8463   3.5515  -4.2594   0.00    0.0
2019/01/15 09:33:20.000   4280221.5803  -4034419.4112  -2458276.2028   5   6   5.1628   4.0439   6.2517  -3.8460   3.5504  -4.2579   0.00    0.0
2019/01/15 09:33:21.000   4280221.6910  -4034419.6077  -2458275.9980   5   6   5.1626   4.0436   6.2500  -3.8457   3.5492  -4.2564   0.00    0.0
2019/01/15 09:33:22.000   4280221.7279  -4034419.6571  -2458275.6452   5   6   5.1624   4.0433   6.2482  -3.8454   3.5481  -4.2549   0.00    0.0
2019/01/15 09:33:23.000   4280222.0854  -4034420.0216  -2458275.7422   5   6   5.1622   4.0430   6.2465  -3.8451   3.5469  -4.2534   0.00    0.0
2019/01/15 09:33:24.000   4280222.3389  -4034420.2004  -2458275.7958   5   6   5.1620   4.0428   6.2448  -3.8448   3.5458  -4.2519   0.00    0.0
2019/01/15 09:33:25.000   4280222.4927  -4034420.3714  -2458275.7459   5   6   5.1617   4.0425   6.2430  -3.8445   3.5447  -4.2504   0.00    0.0
2019/01/15 09:33:26.000   4280222.4996  -4034420.3705  -2458275.6490   5   6   5.1615   4.0422   6.2413  -3.8442   3.5435  -4.2489   0.00    0.0
2019/01/15 09:33:27.000   4280222.1294  -4034420.1701  -2458275.0645   5   6   5.1613   4.0419   6.2395  -3.8439   3.5424  -4.2474   0.00    0.0
2019/01/15 09:33:28.000   4280222.1900  -4034420.1596  -2458274.7413   5   6   5.1611   4.0416   6.2378  -3.8436   3.5412  -4.2459   0.00    0.0
2019/01/15 09:33:29.000   4280222.5451  -4034420.3380  -2458274.6749   5   6   5.1609   4.0413   6.2361  -3.8433   3.5401  -4.2444   0.00    0.0
2019/01/15 09:33:30.000   4280223.1654  -4034420.7232  -2458274.8235   5   6   5.1607   4.0410   6.2343  -3.8430   3.5389  -4.2430   0.00    0.0
2019/01/15 09:33:31.000   4280223.6064  -4034421.0207  -2458274.8367   5   6   5.1605   4.0407   6.2326  -3.8428   3.5378  -4.2415   0.00    0.0
2019/01/15 09:33:32.000   4280223.6694  -4034421.0433  -2458274.6080   5   6   5.1603   4.0405   6.2309  -3.8425   3.5367  -4.2400   0.00    0.0
2019/01/15 09:33:33.000   4280223.3597  -4034420.9102  -2458274.1576   5   6   5.1601   4.0402   6.2291  -3.8422   3.5355  -4.2385   0.00    0.0
2019/01/15 09:33:34.000   4280223.2721  -4034420.9570  -2458273.9386   5   6   5.1600   4.0399   6.2274  -3.8419   3.5344  -4.2370   0.00    0.0
2019/01/15 09:33:35.000   4280223.6339  -4034421.2538  -2458273.8040   5   6   5.1598   4.0396   6.2257  -3.8416   3.5333  -4.2355   0.00    0.0
2019/01/15 09:33:36.000   4280223.5670  -4034421.3891  -2458273.3451   5   6   5.1596   4.0393   6.2239  -3.8413   3.5321  -4.2340   0.00    0.0
2019/01/15 09:33:37.000   4280223.1204  -4034421.3899  -2458272.5979   5   6   5.1594   4.0390   6.2222  -3.8410   3.5310  -4.2325   0.00    0.0
2019/01/15 09:33:38.000   4280222.6181  -4034421.4685  -2458271.9973   5   6   5.1592   4.0388   6.2205  -3.8408   3.5299  -4.2311   0.00    0.0
2019/01/15 09:33:39.000   4280222.3542  -4034421.4946  -2458271.8973   5   6   5.1590   4.0385   6.2187  -3.8405   3.5287  -4.2296   0.00    0.0
2019/01/15 09:33:40.000   4280221.9766  -4034421.4413  -2458271.7405   5   6   5.1588   4.0382   6.2170  -3.8402   3.5276  -4.2281   0.00    0.0
2019/01/15 09:33:41.000   4280221.5082  -4034421.2777  -2458271.0453   5   6   5.1586   4.0379   6.2153  -3.8399   3.5265  -4.2266   0.00    0.0
2019/01/15 09:33:42.000   4280221.1939  -4034421.2803  -2458270.0260   5   6   5.1584   4.0376   6.2135  -3.8396   3.5253  -4.2251   0.00    0.0
2019/01/15 09:33:43.000   4280220.9824  -4034421.6825  -2458269.1223   5   6   5.1582   4.0374   6.2118  -3.8394   3.5242  -4.2236   0.00    0.0
2019/01/15 09:33:44.000   4280221.0381  -4034422.0932  -2458268.6485   5   6   5.1580   4.0371   6.2101  -3.8391   3.5231  -4.2222   0.00    0.0
2019/01/15 09:33:45.000   4280221.3475  -4034422.5571  -2458268.7651   5   6   5.1578   4.0368   6.2084  -3.8388   3.5219  -4.2207   0.00    0.0
2019/01/15 09:33:46.000   4280221.1853  -4034422.5582  -2458268.9963   5   6   5.1577   4.0365   6.2066  -3.8385   3.5208  -4.2192   0.00    0.0
2019/01/15 09:33:47.000   4280220.6814  -4034422.1484  -2458269.2969   5   6   5.1575   4.0363   6.2049  -3.8383   3.5197  -4.2177   0.00    0.0
2019/01/15 09:33:48.000   4280220.4684  -4034421.8902  -2458269.6362   5   6   5.1573   4.0360   6.2032  -3.8380   3.5186  -4.2162   0.00    0.0
2019/01/15 09:33:49.000   4280220.3774  -4034421.7539  -2458269.7738   5   6   5.1571   4.0357   6.2014  -3.8377   3.5174  -4.2148   0.00    0.0
2019/01/15 09:33:50.000   4280220.5665  -4034421.7002  -2458269.7799   5   6   5.1569   4.0354   6.1997  -3.8374   3.5163  -4.2133   0.00    0.0
