% program   : RTKPOST ver.2.4.2
% inp file  : D:\Google Drive\UERJ\_Projeto Final\Python\tcc-guilherme\20190212_Sta91500.19o
% inp file  : D:\Google Drive\UERJ\_Projeto Final\20190212_Marco91500 IBGE\riod0431.19g
% obs start : 2019/02/12 08:38:50.0 GPST (week2040 203930.0s)
% obs end   : 2019/02/12 10:17:44.0 GPST (week2040 209864.0s)
% pos mode  : single
% elev mask : 15.0 deg
% ionos opt : broadcast
% tropo opt : saastamoinen
% ephemeris : broadcast
% navi sys  : gps glonass
%
% (x/y/z-ecef=WGS84,Q=1:fix,2:float,3:sbas,4:dgps,5:single,6:ppp,ns=# of satellites)
%  GPST                      x-ecef(m)      y-ecef(m)      z-ecef(m)   Q  ns   sdx(m)   sdy(m)   sdz(m)  sdxy(m)  sdyz(m)  sdzx(m) age(s)  ratio
2019/02/12 08:38:50.000   4280242.7624  -4034407.9025  -2458249.3457   5   5   7.5097   7.5758   5.1277  -5.5091   4.4195  -4.4369   0.00    0.0
2019/02/12 08:38:51.000   4280259.5812  -4034390.5325  -2458259.6845   5   5   7.5111   7.5753   5.1279  -5.5095   4.4195  -4.4378   0.00    0.0
2019/02/12 08:38:52.000   4280183.2105  -4034379.4365  -2458279.1024   5   5   7.5125   7.5749   5.1282  -5.5098   4.4194  -4.4387   0.00    0.0
2019/02/12 08:38:55.000   4280203.1017  -4034362.0536  -2458183.5334   5   4  10.7191   7.6824  11.6097  -4.5294   2.4697  -9.9659   0.00    0.0
2019/02/12 08:38:58.000   4280212.1281  -4034373.0516  -2458265.2322   5   4   7.5275  16.0702   7.5923  -5.0953   9.9433  -4.2432   0.00    0.0
2019/02/12 08:38:59.000   4280246.5315  -4034371.6797  -2458226.3765   5   4   7.5289  16.0680   7.5930  -5.0947   9.9431  -4.2436   0.00    0.0
2019/02/12 08:39:03.000   4280213.2464  -4034415.4066  -2458282.2041   5   5   7.5281   7.5694   5.1306  -5.5134   4.4188  -4.4485   0.00    0.0
2019/02/12 08:39:04.000   4280164.6057  -4034384.5260  -2458252.3672   5   5   7.5296   7.5689   5.1309  -5.5137   4.4187  -4.4494   0.00    0.0
2019/02/12 08:39:05.000   4280215.6225  -4034429.2195  -2458267.7584   5   5   7.5310   7.5684   5.1311  -5.5140   4.4186  -4.4503   0.00    0.0
2019/02/12 08:39:06.000   4280225.7868  -4034401.0348  -2458289.7062   5   5   7.5324   7.5679   5.1313  -5.5144   4.4186  -4.4512   0.00    0.0
2019/02/12 08:39:07.000   4280272.8812  -4034467.4467  -2458337.2710   5   5   7.5338   7.5674   5.1315  -5.5147   4.4185  -4.4520   0.00    0.0
2019/02/12 08:39:08.000   4280197.3533  -4034433.9937  -2458252.3089   5   5   7.5353   7.5669   5.1318  -5.5150   4.4185  -4.4529   0.00    0.0
2019/02/12 08:39:11.000   4280202.1137  -4034430.2579  -2458265.8928   5   5   7.5396   7.5654   5.1324  -5.5160   4.4183  -4.4556   0.00    0.0
2019/02/12 08:39:12.000   4280239.8719  -4034368.8573  -2458249.5169   5   5   7.5410   7.5649   5.1327  -5.5163   4.4182  -4.4565   0.00    0.0
2019/02/12 08:39:13.000   4280201.8923  -4034437.5584  -2458266.1041   5   5   7.5424   7.5644   5.1329  -5.5167   4.4182  -4.4574   0.00    0.0
2019/02/12 08:39:14.000   4280220.9189  -4034365.6353  -2458261.1013   5   5   7.5439   7.5640   5.1331  -5.5170   4.4181  -4.4583   0.00    0.0
2019/02/12 08:39:17.000   4280238.1859  -4034384.7869  -2458296.9668   5   5   7.5482   7.5625   5.1338  -5.5180   4.4179  -4.4610   0.00    0.0
2019/02/12 08:39:18.000   4280274.4128  -4034453.2760  -2458295.5774   5   5   7.5496   7.5619   5.1340  -5.5183   4.4179  -4.4619   0.00    0.0
2019/02/12 08:39:19.000   4280222.7898  -4034420.5581  -2458286.8855   5   5   7.5510   7.5615   5.1343  -5.5186   4.4178  -4.4628   0.00    0.0
2019/02/12 08:39:22.000   4280220.6992  -4034386.5955  -2458270.5813   5   6   7.1555   7.5391   4.7519  -5.3948   4.2921  -3.9014   0.00    0.0
2019/02/12 08:39:24.000   4280219.4772  -4034386.3503  -2458261.7435   5   6   7.1574   7.5380   4.7523  -5.3952   4.2919  -3.9026   0.00    0.0
2019/02/12 08:39:26.000   4280206.6531  -4034422.3884  -2458263.5083   5   6   7.1593   7.5370   4.7528  -5.3955   4.2916  -3.9037   0.00    0.0
2019/02/12 08:39:30.000   4280209.6139  -4034422.1680  -2458283.8292   5   6   7.1632   7.5349   4.7536  -5.3963   4.2911  -3.9061   0.00    0.0
2019/02/12 08:39:36.000   4280198.9615  -4034433.6130  -2458266.5769   5   6   7.1690   7.5318   4.7550  -5.3975   4.2904  -3.9097   0.00    0.0
2019/02/12 08:39:37.000   4280204.9073  -4034426.5099  -2458254.9546   5   6   7.1699   7.5313   4.7552  -5.3977   4.2903  -3.9103   0.00    0.0
2019/02/12 08:39:39.000   4280199.4743  -4034388.0467  -2458258.0992   5   6   7.1719   7.5303   4.7556  -5.3981   4.2900  -3.9115   0.00    0.0
2019/02/12 08:39:45.000   4280204.6037  -4034459.5346  -2458279.2627   5   6   7.1776   7.5272   4.7569  -5.3992   4.2893  -3.9151   0.00    0.0
2019/02/12 08:39:47.000   4280197.3075  -4034404.7329  -2458248.0639   5   5   7.5915   7.5476   5.1407  -5.5279   4.4162  -4.4880   0.00    0.0
2019/02/12 08:39:49.000   4280234.8015  -4034415.2300  -2458244.5605   5   6   7.1815   7.5251   4.7578  -5.4000   4.2888  -3.9175   0.00    0.0
2019/02/12 08:39:50.000   4280209.8013  -4034425.8700  -2458277.7883   5   6   7.1825   7.5246   4.7580  -5.4002   4.2887  -3.9181   0.00    0.0
2019/02/12 08:39:52.000   4280223.2551  -4034421.5977  -2458254.2162   5   5   7.1931   7.6024   5.0342  -5.3647   4.0739  -3.9928   0.00    0.0
2019/02/12 08:39:58.000   4280248.1925  -4034437.0397  -2458290.4087   5   6   7.1902   7.5205   4.7598  -5.4017   4.2877  -3.9229   0.00    0.0
2019/02/12 08:39:59.000   4280227.7562  -4034418.9702  -2458262.1791   5   5   7.6090   7.5416   5.1434  -5.5318   4.4154  -4.4988   0.00    0.0
2019/02/12 08:40:00.000   4280225.5556  -4034420.3546  -2458302.4465   5   6   7.1921   7.5194   4.7602  -5.4021   4.2874  -3.9241   0.00    0.0
2019/02/12 08:40:02.000   4280225.7658  -4034381.3959  -2458266.2930   5   6   7.1941   7.5184   4.7607  -5.4025   4.2872  -3.9253   0.00    0.0
2019/02/12 08:40:05.000   4280234.5145  -4034432.6020  -2458280.6805   5   6   7.1970   7.5168   4.7613  -5.4030   4.2868  -3.9271   0.00    0.0
2019/02/12 08:40:06.000   4280234.4898  -4034477.0146  -2458293.6401   5   6   7.1979   7.5163   4.7616  -5.4032   4.2867  -3.9277   0.00    0.0
2019/02/12 08:40:10.000   4280203.8770  -4034381.5592  -2458268.0132   5   6   7.2018   7.5143   4.7625  -5.4040   4.2862  -3.9301   0.00    0.0
2019/02/12 08:40:11.000   4280215.7482  -4034434.6772  -2458245.0128   5   6   7.2028   7.5137   4.7627  -5.4042   4.2861  -3.9307   0.00    0.0
2019/02/12 08:40:18.000   4280222.6104  -4034434.9069  -2458271.9238   5   5   7.2597  14.7055   7.5910  -6.3236   9.6479  -4.5296   0.00    0.0
2019/02/12 08:40:19.000   4280196.9266  -4034444.5866  -2458283.4554   5   5   7.2607  14.7034   7.5916  -6.3239   9.6476  -4.5304   0.00    0.0
2019/02/12 08:40:20.000   4280234.6915  -4034450.3039  -2458283.5979   5   5   7.2617  14.7013   7.5922  -6.3242   9.6472  -4.5311   0.00    0.0
2019/02/12 08:40:21.000   4280242.8184  -4034456.9684  -2458270.9566   5   5   7.2627  14.6991   7.5928  -6.3245   9.6469  -4.5319   0.00    0.0
2019/02/12 08:40:23.000   4280235.0823  -4034405.6439  -2458258.2523   5   5   7.2647  14.6950   7.5941  -6.3251   9.6463  -4.5334   0.00    0.0
2019/02/12 08:40:24.000   4280200.3817  -4034400.8627  -2458255.7369   5   5   7.2657  14.6929   7.5947  -6.3254   9.6460  -4.5342   0.00    0.0
2019/02/12 08:40:25.000   4280218.5922  -4034391.5541  -2458279.7454   5   5   7.2667  14.6908   7.5953  -6.3257   9.6457  -4.5349   0.00    0.0
2019/02/12 08:40:26.000   4280221.7694  -4034418.3016  -2458285.0252   5   5   7.2677  14.6887   7.5959  -6.3259   9.6454  -4.5357   0.00    0.0
2019/02/12 08:40:27.000   4280246.7474  -4034379.0105  -2458265.8999   5   5   7.2687  14.6866   7.5965  -6.3262   9.6451  -4.5364   0.00    0.0
2019/02/12 08:40:30.000   4280231.1573  -4034443.0664  -2458292.4111   5   6   7.2212   7.5039   4.7669  -5.4077   4.2837  -3.9421   0.00    0.0
2019/02/12 08:40:31.000   4280222.4928  -4034382.4113  -2458256.0365   5   6   7.2222   7.5034   4.7671  -5.4079   4.2836  -3.9428   0.00    0.0
2019/02/12 08:40:34.000   4280221.8898  -4034439.6067  -2458269.0174   5   6   7.2251   7.5018   4.7677  -5.4085   4.2832  -3.9446   0.00    0.0
2019/02/12 08:40:37.000   4280232.7184  -4034415.5362  -2458283.0973   5   6   7.2280   7.5002   4.7684  -5.4090   4.2828  -3.9464   0.00    0.0
2019/02/12 08:40:44.000   4280211.6071  -4034425.8775  -2458268.3683   5   6   7.2348   7.4966   4.7700  -5.4103   4.2819  -3.9506   0.00    0.0
2019/02/12 08:40:45.000   4280240.7067  -4034427.0467  -2458265.8908   5   6   7.2358   7.4961   4.7702  -5.4105   4.2818  -3.9512   0.00    0.0
2019/02/12 08:40:47.000   4280226.0896  -4034422.4553  -2458275.4185   5   6   7.2377   7.4951   4.7706  -5.4109   4.2815  -3.9524   0.00    0.0
2019/02/12 08:40:48.000   4280237.3505  -4034417.3522  -2458277.9532   5   6   7.2387   7.4945   4.7708  -5.4111   4.2814  -3.9530   0.00    0.0
2019/02/12 08:40:49.000   4280207.8968  -4034422.9654  -2458266.3043   5   6   7.2397   7.4940   4.7711  -5.4113   4.2813  -3.9536   0.00    0.0
2019/02/12 08:40:52.000   4280220.1073  -4034448.2344  -2458292.1760   5   6   7.2426   7.4925   4.7717  -5.4118   4.2809  -3.9554   0.00    0.0
2019/02/12 08:40:54.000   4280182.1632  -4034362.4077  -2458239.2402   5   6   7.2446   7.4914   4.7722  -5.4122   4.2807  -3.9566   0.00    0.0
2019/02/12 08:40:58.000   4280195.9084  -4034408.2116  -2458240.0016   5   6   7.2484   7.4893   4.7731  -5.4129   4.2801  -3.9590   0.00    0.0
2019/02/12 08:41:00.000   4280230.7408  -4034394.5758  -2458276.2129   5   6   7.2504   7.4883   4.7735  -5.4133   4.2799  -3.9602   0.00    0.0
2019/02/12 08:41:02.000   4280239.8468  -4034448.8215  -2458261.7053   5   6   7.2523   7.4872   4.7739  -5.4136   4.2796  -3.9614   0.00    0.0
2019/02/12 08:41:04.000   4280206.9435  -4034436.3191  -2458264.8289   5   6   7.2543   7.4862   4.7744  -5.4140   4.2794  -3.9626   0.00    0.0
2019/02/12 08:41:05.000   4280227.2002  -4034414.1827  -2458264.9289   5   6   7.2553   7.4857   4.7746  -5.4142   4.2792  -3.9632   0.00    0.0
2019/02/12 08:41:07.000   4280228.5841  -4034448.0274  -2458272.9641   5   6   7.2572   7.4846   4.7750  -5.4146   4.2790  -3.9645   0.00    0.0
2019/02/12 08:41:08.000   4280226.6017  -4034416.9614  -2458274.4407   5   6   7.2582   7.4841   4.7753  -5.4147   4.2788  -3.9651   0.00    0.0
2019/02/12 08:41:10.000   4280216.7322  -4034420.4266  -2458248.9228   5   6   7.2601   7.4831   4.7757  -5.4151   4.2786  -3.9663   0.00    0.0
2019/02/12 08:41:11.000   4280279.9149  -4034453.0509  -2458298.1068   5   6   7.2611   7.4826   4.7759  -5.4153   4.2784  -3.9669   0.00    0.0
2019/02/12 08:41:12.000   4280250.5203  -4034448.5477  -2458273.4959   5   6   7.2621   7.4820   4.7761  -5.4155   4.2783  -3.9675   0.00    0.0
2019/02/12 08:41:13.000   4280194.9239  -4034388.5312  -2458267.4136   5   6   7.2631   7.4815   4.7764  -5.4157   4.2782  -3.9681   0.00    0.0
2019/02/12 08:41:17.000   4280214.5698  -4034413.2416  -2458259.1973   5   6   7.2670   7.4795   4.7772  -5.4164   4.2777  -3.9705   0.00    0.0
2019/02/12 08:41:18.000   4280221.7954  -4034422.3130  -2458295.4583   5   6   7.2679   7.4789   4.7775  -5.4166   4.2776  -3.9711   0.00    0.0
2019/02/12 08:41:19.000   4280248.6921  -4034418.7086  -2458264.2570   5   6   7.2689   7.4784   4.7777  -5.4167   4.2774  -3.9717   0.00    0.0
2019/02/12 08:41:20.000   4280250.3083  -4034424.5456  -2458292.4383   5   6   7.2699   7.4779   4.7779  -5.4169   4.2773  -3.9723   0.00    0.0
2019/02/12 08:41:22.000   4280232.2513  -4034428.4395  -2458268.4509   5   6   7.2719   7.4768   4.7784  -5.4173   4.2770  -3.9735   0.00    0.0
2019/02/12 08:41:24.000   4280269.0702  -4034440.4336  -2458273.4508   5   6   7.2738   7.4758   4.7788  -5.4176   4.2768  -3.9747   0.00    0.0
2019/02/12 08:41:25.000   4280208.7960  -4034394.9026  -2458259.7525   5   6   7.2748   7.4753   4.7790  -5.4178   4.2766  -3.9753   0.00    0.0
2019/02/12 08:41:27.000   4280223.6474  -4034393.7755  -2458223.4673   5   6   7.2768   7.4742   4.7795  -5.4182   4.2764  -3.9766   0.00    0.0
2019/02/12 08:41:28.000   4280170.3044  -4034410.2714  -2458222.7581   5   6   7.2777   7.4737   4.7797  -5.4184   4.2763  -3.9772   0.00    0.0
2019/02/12 08:41:30.000   4280234.4379  -4034365.6189  -2458241.4108   5   6   7.2797   7.4727   4.7801  -5.4187   4.2760  -3.9784   0.00    0.0
2019/02/12 08:41:31.000   4280207.3156  -4034385.6765  -2458253.3457   5   6   7.2807   7.4722   4.7804  -5.4189   4.2759  -3.9790   0.00    0.0
2019/02/12 08:41:34.000   4280227.5730  -4034433.9729  -2458290.1579   5   6   7.2836   7.4706   4.7810  -5.4194   4.2755  -3.9808   0.00    0.0
2019/02/12 08:41:37.000   4280275.2428  -4034447.0748  -2458297.6441   5   6   7.2865   7.4690   4.7817  -5.4199   4.2751  -3.9826   0.00    0.0
2019/02/12 08:41:39.000   4280269.6421  -4034450.3136  -2458268.5862   5   6   7.2885   7.4680   4.7821  -5.4203   4.2748  -3.9838   0.00    0.0
2019/02/12 08:41:42.000   4280198.7078  -4034418.8901  -2458256.4702   5   5   7.7627   7.4903   5.1678  -5.5659   4.4093  -4.5933   0.00    0.0
2019/02/12 08:41:43.000   4280234.4215  -4034440.8655  -2458263.9002   5   5   7.7642   7.4898   5.1681  -5.5662   4.4092  -4.5943   0.00    0.0
2019/02/12 08:41:44.000   4280222.7352  -4034424.2495  -2458278.3109   5   5   7.7657   7.4893   5.1683  -5.5665   4.4091  -4.5952   0.00    0.0
2019/02/12 08:41:46.000   4280245.8950  -4034388.7815  -2458250.6918   5   6   7.2954   7.4643   4.7837  -5.4216   4.2739  -3.9880   0.00    0.0
2019/02/12 08:41:48.000   4280179.8390  -4034374.9452  -2458254.0320   5   6   7.2973   7.4633   4.7841  -5.4219   4.2736  -3.9893   0.00    0.0
2019/02/12 08:41:50.000   4280214.1227  -4034364.8908  -2458261.2645   5   6   7.2993   7.4622   4.7846  -5.4223   4.2734  -3.9905   0.00    0.0
2019/02/12 08:41:51.000   4280170.0648  -4034415.3921  -2458255.1781   5   6   7.3003   7.4617   4.7848  -5.4224   4.2732  -3.9911   0.00    0.0
2019/02/12 08:41:53.000   4280227.3537  -4034437.3119  -2458253.2894   5   6   7.3022   7.4607   4.7852  -5.4228   4.2730  -3.9923   0.00    0.0
2019/02/12 08:41:54.000   4280219.6201  -4034387.7055  -2458267.0016   5   6   7.3032   7.4601   4.7854  -5.4230   4.2728  -3.9929   0.00    0.0
2019/02/12 08:41:56.000   4280184.2749  -4034414.2613  -2458246.7008   5   6   7.3052   7.4591   4.7859  -5.4233   4.2726  -3.9941   0.00    0.0
2019/02/12 08:41:57.000   4280225.5152  -4034413.0967  -2458270.0919   5   6   7.3062   7.4586   4.7861  -5.4235   4.2724  -3.9947   0.00    0.0
2019/02/12 08:41:58.000   4280212.9210  -4034408.3856  -2458271.5047   5   6   7.3071   7.4581   4.7863  -5.4237   4.2723  -3.9953   0.00    0.0
2019/02/12 08:41:59.000   4280204.1020  -4034380.9538  -2458258.3004   5   6   7.3081   7.4575   4.7866  -5.4239   4.2722  -3.9959   0.00    0.0
2019/02/12 08:42:00.000   4280203.7809  -4034416.7721  -2458248.4101   5   6   7.3091   7.4570   4.7868  -5.4240   4.2720  -3.9965   0.00    0.0
2019/02/12 08:42:02.000   4280242.6123  -4034395.7620  -2458260.2032   5   6   7.3111   7.4560   4.7872  -5.4244   4.2717  -3.9977   0.00    0.0
2019/02/12 08:42:04.000   4280174.6273  -4034375.8464  -2458228.6535   5   6   7.3131   7.4549   4.7877  -5.4247   4.2715  -3.9990   0.00    0.0
2019/02/12 08:42:05.000   4280252.9443  -4034433.4454  -2458276.3077   5   6   7.3140   7.4544   4.7879  -5.4249   4.2713  -3.9996   0.00    0.0
2019/02/12 08:42:06.000   4280218.4520  -4034397.7098  -2458252.5676   5   6   7.3150   7.4539   4.7881  -5.4251   4.2712  -4.0002   0.00    0.0
2019/02/12 08:42:07.000   4280275.5638  -4034395.9315  -2458260.6640   5   6   7.3160   7.4533   4.7883  -5.4252   4.2711  -4.0008   0.00    0.0
2019/02/12 08:42:08.000   4280202.3637  -4034415.4740  -2458254.5366   5   6   7.3170   7.4528   4.7885  -5.4254   4.2710  -4.0014   0.00    0.0
2019/02/12 08:42:12.000   4280206.4029  -4034427.0205  -2458255.5140   5   6   7.3209   7.4507   4.7894  -5.4261   4.2704  -4.0038   0.00    0.0
2019/02/12 08:42:14.000   4280241.8885  -4034439.0449  -2458295.5438   5   6   7.3228   7.4497   4.7899  -5.4264   4.2701  -4.0050   0.00    0.0
2019/02/12 08:42:16.000   4280258.0570  -4034426.7014  -2458291.4470   5   6   7.3248   7.4486   4.7903  -5.4268   4.2699  -4.0062   0.00    0.0
2019/02/12 08:42:18.000   4280228.4765  -4034412.9293  -2458259.0533   5   6   7.3268   7.4476   4.7908  -5.4271   4.2696  -4.0075   0.00    0.0
2019/02/12 08:42:19.000   4280226.8900  -4034417.0379  -2458274.5773   5   5   7.8195   7.4719   5.1769  -5.5782   4.4070  -4.6279   0.00    0.0
2019/02/12 08:42:20.000   4280202.7873  -4034422.7666  -2458260.4943   5   5   7.8211   7.4714   5.1771  -5.5785   4.4069  -4.6288   0.00    0.0
2019/02/12 08:42:21.000   4280235.6525  -4034387.6340  -2458281.2685   5   5   7.8226   7.4709   5.1774  -5.5789   4.4069  -4.6297   0.00    0.0
2019/02/12 08:42:23.000   4280236.0020  -4034444.2585  -2458275.2272   5   5   7.8257   7.4699   5.1778  -5.5795   4.4067  -4.6316   0.00    0.0
2019/02/12 08:42:33.000   4280208.7613  -4034399.9311  -2458228.1295   5   6   7.3416   7.4397   4.7941  -5.4297   4.2676  -4.0166   0.00    0.0
2019/02/12 08:42:34.000   4280216.6465  -4034428.9788  -2458274.4288   5   6   7.3426   7.4392   4.7943  -5.4299   4.2674  -4.0172   0.00    0.0
2019/02/12 08:42:35.000   4280262.0945  -4034415.3661  -2458270.9910   5   6   7.3435   7.4387   4.7945  -5.4300   4.2673  -4.0178   0.00    0.0
2019/02/12 08:42:36.000   4280220.5631  -4034410.5351  -2458246.0678   5   6   7.3445   7.4381   4.7948  -5.4302   4.2672  -4.0184   0.00    0.0
2019/02/12 08:42:37.000   4280188.7274  -4034424.0307  -2458261.2284   5   6   7.3455   7.4376   4.7950  -5.4304   4.2670  -4.0190   0.00    0.0
2019/02/12 08:42:38.000   4280234.1024  -4034432.4255  -2458268.1944   5   6   7.3465   7.4371   4.7952  -5.4305   4.2669  -4.0196   0.00    0.0
2019/02/12 08:42:40.000   4280200.5541  -4034442.2417  -2458246.7424   5   6   7.3485   7.4360   4.7956  -5.4309   4.2666  -4.0208   0.00    0.0
2019/02/12 08:42:42.000   4280253.5134  -4034427.8034  -2458291.3855   5   6   7.3505   7.4350   4.7961  -5.4312   4.2663  -4.0220   0.00    0.0
2019/02/12 08:42:44.000   4280203.1346  -4034403.1200  -2458262.2107   5   6   7.3524   7.4340   4.7965  -5.4316   4.2661  -4.0233   0.00    0.0
2019/02/12 08:42:45.000   4280186.2912  -4034389.3891  -2458240.6574   5   6   7.3534   7.4334   4.7968  -5.4317   4.2659  -4.0239   0.00    0.0
2019/02/12 08:42:46.000   4280217.2362  -4034409.3107  -2458275.3940   5   6   7.3544   7.4329   4.7970  -5.4319   4.2658  -4.0245   0.00    0.0
2019/02/12 08:42:47.000   4280220.7700  -4034415.2454  -2458272.5727   5   6   7.3554   7.4324   4.7972  -5.4321   4.2656  -4.0251   0.00    0.0
2019/02/12 08:42:49.000   4280208.9830  -4034407.5014  -2458261.6408   5   6   7.3574   7.4313   4.7977  -5.4324   4.2654  -4.0263   0.00    0.0
2019/02/12 08:42:52.000   4280233.9910  -4034436.8350  -2458293.3589   5   6   7.3603   7.4297   4.7983  -5.4329   4.2649  -4.0281   0.00    0.0
2019/02/12 08:42:55.000   4280237.5495  -4034415.8486  -2458274.3876   5   6   7.3633   7.4282   4.7990  -5.4334   4.2645  -4.0300   0.00    0.0
2019/02/12 08:43:04.000   4280241.2057  -4034420.1037  -2458284.8606   5   6   7.3722   7.4234   4.8010  -5.4349   4.2633  -4.0354   0.00    0.0
2019/02/12 08:43:08.000   4280237.9672  -4034440.1603  -2458287.2331   5   6   7.3762   7.4213   4.8019  -5.4355   4.2627  -4.0379   0.00    0.0
2019/02/12 08:43:09.000   4280202.6309  -4034388.6128  -2458226.7854   5   6   7.3772   7.4208   4.8021  -5.4357   4.2626  -4.0385   0.00    0.0
2019/02/12 08:43:10.000   4280193.6796  -4034396.2407  -2458265.4948   5   6   7.3782   7.4203   4.8023  -5.4359   4.2625  -4.0391   0.00    0.0
2019/02/12 08:43:13.000   4280203.3149  -4034433.0456  -2458258.5566   5   6   7.3811   7.4187   4.8030  -5.4364   4.2620  -4.0409   0.00    0.0
2019/02/12 08:43:14.000   4280196.6147  -4034420.7728  -2458257.5820   5   6   7.3821   7.4182   4.8032  -5.4365   4.2619  -4.0416   0.00    0.0
2019/02/12 08:43:15.000   4280224.3659  -4034424.4645  -2458265.8881   5   6   7.3831   7.4176   4.8034  -5.4367   4.2617  -4.0422   0.00    0.0
2019/02/12 08:43:16.000   4280210.0950  -4034406.7101  -2458266.1069   5   6   7.3841   7.4171   4.8037  -5.4369   4.2616  -4.0428   0.00    0.0
2019/02/12 08:43:17.000   4280220.1054  -4034418.9502  -2458274.4474   5   6   7.3851   7.4166   4.8039  -5.4370   4.2615  -4.0434   0.00    0.0
2019/02/12 08:43:20.000   4280255.2387  -4034419.5981  -2458280.7835   5   6   7.3881   7.4150   4.8045  -5.4375   4.2610  -4.0452   0.00    0.0
2019/02/12 08:43:21.000   4280204.4400  -4034375.5154  -2458258.6576   5   6   7.3891   7.4145   4.8048  -5.4377   4.2609  -4.0458   0.00    0.0
2019/02/12 08:43:22.000   4280161.2019  -4034358.1938  -2458240.2511   5   6   7.3901   7.4140   4.8050  -5.4379   4.2608  -4.0465   0.00    0.0
2019/02/12 08:43:23.000   4280175.7165  -4034366.4445  -2458252.9304   5   6   7.3911   7.4134   4.8052  -5.4380   4.2606  -4.0471   0.00    0.0
2019/02/12 08:43:25.000   4280225.5576  -4034411.9337  -2458276.0936   5   6   7.3930   7.4124   4.8057  -5.4383   4.2603  -4.0483   0.00    0.0
2019/02/12 08:43:26.000   4280196.7148  -4034382.2928  -2458254.0686   5   6   7.3940   7.4119   4.8059  -5.4385   4.2602  -4.0489   0.00    0.0
2019/02/12 08:43:27.000   4280224.9836  -4034405.2225  -2458262.6828   5   6   7.3950   7.4113   4.8061  -5.4386   4.2601  -4.0495   0.00    0.0
2019/02/12 08:43:28.000   4280218.0149  -4034408.4522  -2458263.9109   5   6   7.3960   7.4108   4.8063  -5.4388   4.2599  -4.0501   0.00    0.0
2019/02/12 08:43:29.000   4280203.1671  -4034415.1607  -2458258.5287   5   6   7.3970   7.4103   4.8065  -5.4390   4.2598  -4.0507   0.00    0.0
2019/02/12 08:43:31.000   4280192.1683  -4034392.3079  -2458240.7142   5   6   7.3990   7.4092   4.8070  -5.4393   4.2595  -4.0519   0.00    0.0
2019/02/12 08:43:32.000   4280210.4909  -4034391.6435  -2458254.4868   5   6   7.4000   7.4087   4.8072  -5.4394   4.2594  -4.0525   0.00    0.0
2019/02/12 08:43:35.000   4280217.8170  -4034397.9858  -2458230.4394   5   6   7.4030   7.4071   4.8079  -5.4399   4.2589  -4.0544   0.00    0.0
2019/02/12 08:43:36.000   4280177.9701  -4034384.6306  -2458228.1256   5   6   7.4040   7.4066   4.8081  -5.4401   4.2588  -4.0550   0.00    0.0
2019/02/12 08:43:37.000   4280178.3187  -4034405.2632  -2458250.2562   5   6   7.4050   7.4061   4.8083  -5.4403   4.2587  -4.0556   0.00    0.0
2019/02/12 08:43:39.000   4280234.4399  -4034391.6148  -2458261.1229   5   6   7.4069   7.4050   4.8088  -5.4406   4.2584  -4.0568   0.00    0.0
2019/02/12 08:43:41.000   4280229.6496  -4034424.2742  -2458293.4790   5   6   7.4089   7.4039   4.8092  -5.4409   4.2581  -4.0580   0.00    0.0
2019/02/12 08:43:42.000   4280229.1254  -4034420.8662  -2458277.0141   5   6   7.4099   7.4034   4.8094  -5.4410   4.2579  -4.0586   0.00    0.0
2019/02/12 08:43:43.000   4280248.5805  -4034415.6182  -2458278.7466   5   6   7.4109   7.4029   4.8097  -5.4412   4.2578  -4.0592   0.00    0.0
2019/02/12 08:43:44.000   4280233.7500  -4034407.0192  -2458266.7849   5   6   7.4119   7.4023   4.8099  -5.4413   4.2576  -4.0599   0.00    0.0
2019/02/12 08:43:45.000   4280201.7994  -4034391.0868  -2458258.9532   5   6   7.4129   7.4018   4.8101  -5.4415   4.2575  -4.0605   0.00    0.0
2019/02/12 08:43:48.000   4280229.4009  -4034430.2198  -2458272.1076   5   6   7.4159   7.4002   4.8108  -5.4420   4.2571  -4.0623   0.00    0.0
2019/02/12 08:43:49.000   4280244.9747  -4034434.7268  -2458277.8050   5   6   7.4169   7.3997   4.8110  -5.4421   4.2569  -4.0629   0.00    0.0
2019/02/12 08:43:52.000   4280232.0828  -4034415.8040  -2458272.8618   5   6   7.4199   7.3981   4.8117  -5.4426   4.2565  -4.0647   0.00    0.0
2019/02/12 08:43:53.000   4280228.6496  -4034421.5376  -2458273.6262   5   6   7.4209   7.3976   4.8119  -5.4428   4.2563  -4.0654   0.00    0.0
2019/02/12 08:43:54.000   4280221.5286  -4034427.2243  -2458274.9266   5   6   7.4218   7.3971   4.8121  -5.4429   4.2562  -4.0660   0.00    0.0
2019/02/12 08:43:57.000   4280242.2793  -4034428.0278  -2458296.0431   5   6   7.4248   7.3955   4.8128  -5.4434   4.2558  -4.0678   0.00    0.0
2019/02/12 08:43:58.000   4280221.8529  -4034393.5631  -2458281.9390   5   6   7.4258   7.3949   4.8130  -5.4436   4.2556  -4.0684   0.00    0.0
2019/02/12 08:43:59.000   4280220.2797  -4034408.3839  -2458270.0112   5   6   7.4268   7.3944   4.8132  -5.4437   4.2555  -4.0690   0.00    0.0
2019/02/12 08:44:00.000   4280219.6298  -4034404.7998  -2458262.7281   5   6   7.4278   7.3939   4.8135  -5.4439   4.2553  -4.0696   0.00    0.0
2019/02/12 08:44:02.000   4280195.8346  -4034400.8628  -2458263.9124   5   6   7.4298   7.3928   4.8139  -5.4442   4.2551  -4.0709   0.00    0.0
2019/02/12 08:44:06.000   4280216.4601  -4034386.9045  -2458268.8028   5   6   7.4338   7.3907   4.8148  -5.4448   4.2545  -4.0733   0.00    0.0
2019/02/12 08:44:07.000   4280237.0253  -4034402.7915  -2458273.8844   5   6   7.4348   7.3902   4.8150  -5.4450   4.2543  -4.0739   0.00    0.0
2019/02/12 08:44:08.000   4280240.1984  -4034428.9045  -2458278.1246   5   6   7.4358   7.3896   4.8152  -5.4451   4.2542  -4.0745   0.00    0.0
2019/02/12 08:44:10.000   4280245.1425  -4034446.0689  -2458288.2362   5   6   7.4378   7.3886   4.8157  -5.4454   4.2539  -4.0757   0.00    0.0
2019/02/12 08:44:12.000   4280228.8742  -4034415.8344  -2458278.7489   5   6   7.4398   7.3875   4.8161  -5.4457   4.2536  -4.0770   0.00    0.0
2019/02/12 08:44:13.000   4280190.9360  -4034381.7640  -2458251.8410   5   6   7.4408   7.3870   4.8164  -5.4459   4.2535  -4.0776   0.00    0.0
2019/02/12 08:44:14.000   4280177.0952  -4034387.9533  -2458247.3244   5   6   7.4418   7.3865   4.8166  -5.4461   4.2533  -4.0782   0.00    0.0
2019/02/12 08:44:15.000   4280225.2160  -4034419.3362  -2458248.5989   5   6   7.4428   7.3859   4.8168  -5.4462   4.2532  -4.0788   0.00    0.0
2019/02/12 08:44:18.000   4280197.6921  -4034384.9328  -2458238.9700   5   6   7.4458   7.3844   4.8175  -5.4467   4.2527  -4.0807   0.00    0.0
2019/02/12 08:44:21.000   4280241.2728  -4034421.7537  -2458273.8425   5   6   7.4488   7.3828   4.8181  -5.4471   4.2523  -4.0825   0.00    0.0
2019/02/12 08:44:23.000   4280267.8346  -4034440.8286  -2458280.7188   5   6   7.4508   7.3817   4.8186  -5.4474   4.2520  -4.0837   0.00    0.0
2019/02/12 08:44:24.000   4280274.3497  -4034430.9881  -2458287.3695   5   6   7.4518   7.3812   4.8188  -5.4475   4.2518  -4.0843   0.00    0.0
2019/02/12 08:44:25.000   4280230.5732  -4034408.5967  -2458276.2018   5   6   7.4528   7.3806   4.8190  -5.4477   4.2517  -4.0849   0.00    0.0
2019/02/12 08:44:27.000   4280226.1205  -4034436.4027  -2458271.4346   5   6   7.4548   7.3796   4.8195  -5.4480   4.2514  -4.0862   0.00    0.0
2019/02/12 08:44:28.000   4280232.5797  -4034403.6766  -2458279.4130   5   6   7.4558   7.3790   4.8197  -5.4482   4.2512  -4.0868   0.00    0.0
2019/02/12 08:44:29.000   4280248.9693  -4034398.8960  -2458280.7647   5   6   7.4568   7.3785   4.8199  -5.4483   4.2511  -4.0874   0.00    0.0
2019/02/12 08:44:30.000   4280244.9618  -4034436.1723  -2458295.9200   5   6   7.4577   7.3780   4.8201  -5.4485   4.2509  -4.0880   0.00    0.0
2019/02/12 08:44:31.000   4280240.9808  -4034456.8376  -2458296.5312   5   6   7.4587   7.3774   4.8204  -5.4486   4.2508  -4.0886   0.00    0.0
2019/02/12 08:44:32.000   4280233.7338  -4034440.6637  -2458282.0100   5   6   7.4598   7.3769   4.8206  -5.4488   4.2507  -4.0892   0.00    0.0
2019/02/12 08:44:33.000   4280218.5264  -4034425.4180  -2458273.6402   5   6   7.4608   7.3764   4.8208  -5.4489   4.2505  -4.0898   0.00    0.0
2019/02/12 08:44:34.000   4280189.8241  -4034409.3633  -2458261.8130   5   6   7.4618   7.3759   4.8210  -5.4491   4.2504  -4.0905   0.00    0.0
2019/02/12 08:44:35.000   4280206.7841  -4034423.2108  -2458272.7915   5   6   7.4628   7.3753   4.8213  -5.4492   4.2502  -4.0911   0.00    0.0
2019/02/12 08:44:36.000   4280216.1081  -4034432.0683  -2458277.4429   5   6   7.4638   7.3748   4.8215  -5.4494   4.2501  -4.0917   0.00    0.0
2019/02/12 08:44:41.000   4280227.8150  -4034399.7371  -2458242.6548   5   6   7.4688   7.3721   4.8226  -5.4501   4.2493  -4.0947   0.00    0.0
2019/02/12 08:44:42.000   4280236.0718  -4034426.4734  -2458258.7734   5   6   7.4698   7.3716   4.8228  -5.4503   4.2492  -4.0953   0.00    0.0
2019/02/12 08:44:46.000   4280242.4007  -4034426.7018  -2458261.3971   5   6   7.4738   7.3695   4.8237  -5.4509   4.2486  -4.0978   0.00    0.0
2019/02/12 08:44:47.000   4280227.1608  -4034456.1988  -2458258.2483   5   6   7.4748   7.3689   4.8239  -5.4510   4.2484  -4.0984   0.00    0.0
2019/02/12 08:44:48.000   4280194.6897  -4034431.5335  -2458238.2559   5   6   7.4758   7.3684   4.8242  -5.4512   4.2483  -4.0990   0.00    0.0
2019/02/12 08:44:49.000   4280207.2060  -4034405.6422  -2458238.3438   5   6   7.4768   7.3679   4.8244  -5.4513   4.2481  -4.0997   0.00    0.0
2019/02/12 08:44:50.000   4280212.8593  -4034407.0556  -2458244.7941   5   6   7.4778   7.3674   4.8246  -5.4515   4.2480  -4.1003   0.00    0.0
2019/02/12 08:44:54.000   4280235.5842  -4034393.9151  -2458279.8364   5   6   7.4818   7.3652   4.8255  -5.4521   4.2474  -4.1027   0.00    0.0
2019/02/12 08:44:55.000   4280235.9225  -4034391.5567  -2458284.2120   5   5   8.0692   7.3937   5.2165  -5.6303   4.3970  -4.7770   0.00    0.0
2019/02/12 08:44:57.000   4280208.1814  -4034416.1816  -2458279.0159   5   5   8.0725   7.3927   5.2170  -5.6310   4.3969  -4.7789   0.00    0.0
2019/02/12 08:44:58.000   4280223.9961  -4034425.8139  -2458276.3882   5   5   8.0741   7.3921   5.2173  -5.6313   4.3968  -4.7799   0.00    0.0
2019/02/12 08:44:59.000   4280210.1721  -4034400.2580  -2458265.4609   5   5   8.0758   7.3917   5.2175  -5.6317   4.3968  -4.7809   0.00    0.0
2019/02/12 08:45:00.000   4280218.7805  -4034422.8315  -2458267.7199   5   6   7.4878   7.3620   4.8268  -5.4529   4.2465  -4.1064   0.00    0.0
2019/02/12 08:45:01.000   4280248.9408  -4034415.4080  -2458281.8421   5   6   7.4888   7.3615   4.8271  -5.4531   4.2463  -4.1070   0.00    0.0
2019/02/12 08:45:02.000   4280236.8268  -4034402.5750  -2458283.9085   5   5   8.0808   7.3901   5.2183  -5.6327   4.3966  -4.7838   0.00    0.0
2019/02/12 08:45:03.000   4280217.4713  -4034421.4541  -2458268.8407   5   6   7.4908   7.3604   4.8275  -5.4534   4.2460  -4.1082   0.00    0.0
2019/02/12 08:45:04.000   4280220.7726  -4034411.6901  -2458266.7561   5   6   7.4918   7.3599   4.8277  -5.4535   4.2459  -4.1088   0.00    0.0
2019/02/12 08:45:06.000   4280256.0788  -4034448.9535  -2458291.7570   5   5   8.0874   7.3881   5.2194  -5.6340   4.3963  -4.7877   0.00    0.0
2019/02/12 08:45:07.000   4280252.0700  -4034443.4211  -2458302.8275   5   6   7.4948   7.3583   4.8284  -5.4539   4.2454  -4.1107   0.00    0.0
2019/02/12 08:45:08.000   4280224.9445  -4034425.9320  -2458283.9066   5   6   7.4958   7.3578   4.8286  -5.4541   4.2453  -4.1113   0.00    0.0
2019/02/12 08:45:09.000   4280238.4647  -4034434.8504  -2458277.3666   5   6   7.4968   7.3572   4.8288  -5.4542   4.2451  -4.1119   0.00    0.0
2019/02/12 08:45:10.000   4280242.6623  -4034428.3982  -2458273.3420   5   6   7.4978   7.3567   4.8291  -5.4544   4.2450  -4.1125   0.00    0.0
2019/02/12 08:45:11.000   4280224.3658  -4034389.9162  -2458266.9400   5   6   7.4988   7.3562   4.8293  -5.4545   4.2448  -4.1131   0.00    0.0
2019/02/12 08:45:12.000   4280233.8544  -4034421.1001  -2458270.6447   5   6   7.4998   7.3556   4.8295  -5.4547   4.2447  -4.1138   0.00    0.0
2019/02/12 08:45:13.000   4280233.6552  -4034423.8737  -2458265.4618   5   6   7.5008   7.3551   4.8297  -5.4548   4.2445  -4.1144   0.00    0.0
2019/02/12 08:45:14.000   4280249.3362  -4034404.6631  -2458285.7511   5   6   7.5018   7.3546   4.8300  -5.4550   4.2444  -4.1150   0.00    0.0
2019/02/12 08:45:15.000   4280267.3005  -4034416.5366  -2458308.3300   5   6   7.5028   7.3540   4.8302  -5.4551   4.2442  -4.1156   0.00    0.0
2019/02/12 08:45:16.000   4280259.1759  -4034428.8184  -2458303.5053   5   6   7.5038   7.3535   4.8304  -5.4552   4.2440  -4.1162   0.00    0.0
2019/02/12 08:45:18.000   4280229.6858  -4034414.4764  -2458292.1790   5   6   7.5058   7.3525   4.8309  -5.4555   4.2438  -4.1174   0.00    0.0
2019/02/12 08:45:20.000   4280266.8074  -4034458.7866  -2458274.8763   5   5   9.4490   7.6992   9.4893  -4.0791  -0.8242  -7.9888   0.00    0.0
2019/02/12 08:45:26.000   4280218.5542  -4034397.5892  -2458271.3145   5   6   7.5139   7.3482   4.8327  -5.4567   4.2425  -4.1224   0.00    0.0
2019/02/12 08:45:29.000   4280214.9850  -4034386.5031  -2458282.1734   5   5   9.4599   7.7008   9.4909  -4.0645  -0.9285  -7.9950   0.00    0.0
2019/02/12 08:45:30.000   4280205.0039  -4034389.1247  -2458248.2922   5   6   7.5179   7.3461   4.8336  -5.4572   4.2419  -4.1248   0.00    0.0
2019/02/12 08:45:31.000   4280191.4800  -4034378.2782  -2458236.2576   5   6   7.5189   7.3455   4.8338  -5.4574   4.2418  -4.1254   0.00    0.0
2019/02/12 08:45:32.000   4280217.4029  -4034405.8319  -2458265.1405   5   6   7.5199   7.3450   4.8340  -5.4575   4.2416  -4.1260   0.00    0.0
2019/02/12 08:45:33.000   4280242.2776  -4034425.1381  -2458273.0614   5   6   7.5209   7.3444   4.8342  -5.4576   4.2415  -4.1266   0.00    0.0
2019/02/12 08:45:34.000   4280248.9237  -4034396.4614  -2458286.9352   5   6   7.5219   7.3439   4.8344  -5.4578   4.2413  -4.1273   0.00    0.0
2019/02/12 08:45:46.000   4280211.9936  -4034393.2741  -2458277.7028   5   6   7.5340   7.3375   4.8371  -5.4595   4.2394  -4.1346   0.00    0.0
2019/02/12 08:45:50.000   4280230.5042  -4034428.4979  -2458267.6917   5   6   7.5380   7.3354   4.8380  -5.4600   4.2388  -4.1371   0.00    0.0
2019/02/12 08:45:51.000   4280236.3130  -4034418.5742  -2458264.7467   5   6   7.5390   7.3348   4.8382  -5.4601   4.2387  -4.1377   0.00    0.0
2019/02/12 08:45:52.000   4280231.9252  -4034395.6155  -2458257.2741   5   6   7.5401   7.3343   4.8385  -5.4603   4.2385  -4.1383   0.00    0.0
2019/02/12 08:45:53.000   4280218.4846  -4034400.8011  -2458279.7485   5   6   7.5411   7.3338   4.8387  -5.4604   4.2384  -4.1389   0.00    0.0
2019/02/12 08:45:54.000   4280217.4391  -4034424.0647  -2458283.6507   5   6   7.5421   7.3332   4.8389  -5.4606   4.2382  -4.1396   0.00    0.0
2019/02/12 08:45:55.000   4280240.3372  -4034419.8937  -2458273.3538   5   6   7.5431   7.3327   4.8391  -5.4607   4.2380  -4.1402   0.00    0.0
2019/02/12 08:45:56.000   4280238.5512  -4034402.5484  -2458254.5394   5   6   7.5441   7.3321   4.8394  -5.4608   4.2379  -4.1408   0.00    0.0
2019/02/12 08:45:57.000   4280229.5325  -4034401.0678  -2458275.2665   5   6   7.5451   7.3316   4.8396  -5.4610   4.2377  -4.1414   0.00    0.0
2019/02/12 08:46:00.000   4280258.4551  -4034402.3609  -2458271.8192   5   6   7.5481   7.3300   4.8403  -5.4614   4.2373  -4.1432   0.00    0.0
2019/02/12 08:46:01.000   4280265.0936  -4034418.0664  -2458293.5206   5   6   7.5491   7.3295   4.8405  -5.4615   4.2371  -4.1439   0.00    0.0
2019/02/12 08:46:08.000   4280210.2187  -4034392.8636  -2458286.4252   5   6   7.5562   7.3257   4.8421  -5.4625   4.2360  -4.1482   0.00    0.0
2019/02/12 08:46:11.000   4280213.4748  -4034409.1301  -2458270.1846   5   6   7.5592   7.3241   4.8427  -5.4629   4.2355  -4.1500   0.00    0.0
2019/02/12 08:46:12.000   4280222.1284  -4034415.3959  -2458282.1958   5   6   7.5602   7.3236   4.8429  -5.4630   4.2354  -4.1506   0.00    0.0
2019/02/12 08:46:13.000   4280235.8580  -4034415.4282  -2458270.9797   5   6   7.5612   7.3230   4.8432  -5.4631   4.2352  -4.1512   0.00    0.0
2019/02/12 08:46:14.000   4280222.2467  -4034417.1964  -2458253.3372   5   6   7.5623   7.3225   4.8434  -5.4633   4.2351  -4.1519   0.00    0.0
2019/02/12 08:46:15.000   4280213.7020  -4034430.7653  -2458253.4386   5   6   7.5633   7.3220   4.8436  -5.4634   4.2349  -4.1525   0.00    0.0
2019/02/12 08:46:16.000   4280206.4521  -4034431.1913  -2458262.1558   5   6   7.5643   7.3214   4.8438  -5.4635   4.2347  -4.1531   0.00    0.0
2019/02/12 08:46:17.000   4280226.9685  -4034421.4065  -2458269.0052   5   6   7.5653   7.3209   4.8441  -5.4636   4.2346  -4.1537   0.00    0.0
2019/02/12 08:46:19.000   4280223.2502  -4034394.9296  -2458260.0865   5   6   7.5673   7.3198   4.8445  -5.4639   4.2343  -4.1549   0.00    0.0
2019/02/12 08:46:20.000   4280204.9810  -4034415.4301  -2458260.7357   5   6   7.5683   7.3193   4.8447  -5.4640   4.2341  -4.1556   0.00    0.0
2019/02/12 08:46:21.000   4280201.4947  -4034418.5575  -2458267.3383   5   6   7.5693   7.3187   4.8450  -5.4642   4.2340  -4.1562   0.00    0.0
2019/02/12 08:46:22.000   4280232.4890  -4034422.9266  -2458272.1984   5   6   7.5703   7.3182   4.8452  -5.4643   4.2338  -4.1568   0.00    0.0
2019/02/12 08:46:23.000   4280243.4128  -4034438.3719  -2458280.0588   5   6   7.5713   7.3177   4.8454  -5.4644   4.2336  -4.1574   0.00    0.0
2019/02/12 08:46:28.000   4280232.5435  -4034387.0299  -2458270.5195   5   6   7.5764   7.3150   4.8465  -5.4651   4.2328  -4.1605   0.00    0.0
2019/02/12 08:46:30.000   4280215.3876  -4034406.1401  -2458259.2731   5   6   7.5784   7.3139   4.8470  -5.4654   4.2325  -4.1617   0.00    0.0
2019/02/12 08:46:31.000   4280242.7760  -4034392.1636  -2458259.6905   5   6   7.5794   7.3134   4.8472  -5.4655   4.2323  -4.1623   0.00    0.0
2019/02/12 08:46:32.000   4280240.8084  -4034410.8855  -2458280.4331   5   6   7.5804   7.3128   4.8474  -5.4656   4.2322  -4.1629   0.00    0.0
2019/02/12 08:46:33.000   4280252.7167  -4034438.4963  -2458292.4079   5   6   7.5814   7.3123   4.8476  -5.4657   4.2320  -4.1635   0.00    0.0
2019/02/12 08:46:34.000   4280230.5444  -4034439.7747  -2458269.4256   5   6   7.5825   7.3117   4.8479  -5.4659   4.2319  -4.1642   0.00    0.0
2019/02/12 08:46:35.000   4280224.2233  -4034429.8924  -2458280.7662   5   6   7.5835   7.3112   4.8481  -5.4660   4.2317  -4.1648   0.00    0.0
2019/02/12 08:46:36.000   4280223.3963  -4034446.3709  -2458268.4667   5   6   7.5845   7.3107   4.8483  -5.4661   4.2315  -4.1654   0.00    0.0
2019/02/12 08:46:37.000   4280241.6930  -4034436.2739  -2458288.0256   5   6   7.5855   7.3101   4.8485  -5.4662   4.2314  -4.1660   0.00    0.0
2019/02/12 08:46:38.000   4280199.7373  -4034408.5945  -2458259.3972   5   6   7.5865   7.3096   4.8488  -5.4664   4.2312  -4.1666   0.00    0.0
2019/02/12 08:46:39.000   4280213.9636  -4034415.0431  -2458267.7726   5   6   7.5875   7.3091   4.8490  -5.4665   4.2311  -4.1673   0.00    0.0
2019/02/12 08:46:40.000   4280227.6677  -4034409.6381  -2458262.5853   5   6   7.5885   7.3085   4.8492  -5.4666   4.2309  -4.1679   0.00    0.0
2019/02/12 08:46:44.000   4280190.1994  -4034410.4997  -2458243.8513   5   6   7.5926   7.3064   4.8501  -5.4672   4.2303  -4.1703   0.00    0.0
2019/02/12 08:46:48.000   4280268.4829  -4034418.2293  -2458282.0968   5   6   7.5966   7.3042   4.8510  -5.4676   4.2296  -4.1728   0.00    0.0
2019/02/12 08:46:49.000   4280251.5319  -4034418.1964  -2458292.9224   5   6   7.5976   7.3037   4.8512  -5.4678   4.2294  -4.1734   0.00    0.0
2019/02/12 08:46:53.000   4280245.2942  -4034413.4428  -2458266.2322   5   6   7.6017   7.3015   4.8521  -5.4683   4.2288  -4.1759   0.00    0.0
2019/02/12 08:46:54.000   4280209.1335  -4034407.2961  -2458271.5736   5   6   7.6027   7.3010   4.8524  -5.4684   4.2286  -4.1765   0.00    0.0
2019/02/12 08:46:55.000   4280197.5921  -4034410.4124  -2458270.2740   5   6   7.6037   7.3005   4.8526  -5.4685   4.2285  -4.1771   0.00    0.0
2019/02/12 08:46:56.000   4280186.4474  -4034416.7774  -2458260.3687   5   6   7.6047   7.2999   4.8528  -5.4687   4.2283  -4.1777   0.00    0.0
2019/02/12 08:46:57.000   4280235.9989  -4034442.2740  -2458276.1804   5   6   7.6057   7.2994   4.8530  -5.4688   4.2281  -4.1783   0.00    0.0
2019/02/12 08:46:58.000   4280245.0093  -4034422.7703  -2458291.0648   5   6   7.6068   7.2988   4.8532  -5.4689   4.2280  -4.1790   0.00    0.0
2019/02/12 08:46:59.000   4280226.7116  -4034420.6495  -2458298.8763   5   6   7.6078   7.2983   4.8535  -5.4690   4.2278  -4.1796   0.00    0.0
2019/02/12 08:47:00.000   4280212.0867  -4034418.6678  -2458288.4498   5   6   7.6088   7.2978   4.8537  -5.4692   4.2277  -4.1802   0.00    0.0
2019/02/12 08:47:01.000   4280233.1832  -4034438.2099  -2458277.1126   5   6   7.6098   7.2972   4.8539  -5.4693   4.2275  -4.1808   0.00    0.0
2019/02/12 08:47:04.000   4280233.7067  -4034419.5977  -2458265.3567   5   6   7.6128   7.2956   4.8546  -5.4696   4.2270  -4.1827   0.00    0.0
2019/02/12 08:47:05.000   4280218.4364  -4034411.4432  -2458271.2416   5   6   7.6139   7.2951   4.8548  -5.4698   4.2268  -4.1833   0.00    0.0
2019/02/12 08:47:06.000   4280207.4914  -4034400.6124  -2458264.5271   5   6   7.6149   7.2945   4.8550  -5.4699   4.2267  -4.1839   0.00    0.0
2019/02/12 08:47:07.000   4280221.0296  -4034396.3155  -2458263.8882   5   6   7.6159   7.2940   4.8553  -5.4700   4.2265  -4.1845   0.00    0.0
2019/02/12 08:47:09.000   4280236.7142  -4034432.9901  -2458272.5042   5   6   7.6179   7.2929   4.8557  -5.4703   4.2262  -4.1857   0.00    0.0
2019/02/12 08:47:10.000   4280255.6761  -4034435.4985  -2458292.2411   5   6   7.6189   7.2924   4.8559  -5.4704   4.2260  -4.1863   0.00    0.0
2019/02/12 08:47:11.000   4280253.1096  -4034437.0805  -2458290.8700   5   6   7.6199   7.2918   4.8562  -5.4705   4.2258  -4.1870   0.00    0.0
2019/02/12 08:47:20.000   4280237.8395  -4034413.5648  -2458292.1352   5   6   7.6291   7.2870   4.8582  -5.4716   4.2244  -4.1925   0.00    0.0
2019/02/12 08:47:21.000   4280220.4730  -4034402.3205  -2458286.9777   5   6   7.6301   7.2864   4.8584  -5.4717   4.2242  -4.1931   0.00    0.0
2019/02/12 08:47:22.000   4280236.9727  -4034413.9008  -2458275.9347   5   6   7.6311   7.2859   4.8586  -5.4718   4.2240  -4.1938   0.00    0.0
2019/02/12 08:47:23.000   4280236.4929  -4034411.4145  -2458273.2557   5   6   7.6321   7.2853   4.8589  -5.4720   4.2239  -4.1944   0.00    0.0
2019/02/12 08:47:24.000   4280220.3972  -4034398.1042  -2458268.2292   5   6   7.6332   7.2848   4.8591  -5.4721   4.2237  -4.1950   0.00    0.0
2019/02/12 08:47:25.000   4280218.4167  -4034402.0363  -2458275.4311   5   6   7.6342   7.2843   4.8593  -5.4722   4.2235  -4.1956   0.00    0.0
2019/02/12 08:47:30.000   4280186.7028  -4034415.9505  -2458255.2171   5   6   7.6393   7.2816   4.8604  -5.4728   4.2227  -4.1987   0.00    0.0
2019/02/12 08:47:37.000   4280241.2975  -4034440.5644  -2458287.0234   5   6   7.6463   7.2778   4.8620  -5.4736   4.2215  -4.2030   0.00    0.0
2019/02/12 08:47:39.000   4280214.5005  -4034422.9592  -2458276.3859   5   6   7.6484   7.2767   4.8624  -5.4738   4.2212  -4.2042   0.00    0.0
2019/02/12 08:47:40.000   4280232.1306  -4034440.4759  -2458285.1272   5   6   7.6494   7.2761   4.8627  -5.4740   4.2210  -4.2048   0.00    0.0
2019/02/12 08:47:41.000   4280235.3746  -4034448.3304  -2458291.6748   5   6   7.6504   7.2756   4.8629  -5.4741   4.2209  -4.2055   0.00    0.0
2019/02/12 08:47:43.000   4280244.1078  -4034411.3171  -2458289.2339   5   6   7.6525   7.2745   4.8633  -5.4743   4.2205  -4.2067   0.00    0.0
2019/02/12 08:47:44.000   4280246.5620  -4034411.0545  -2458270.8823   5   6   7.6535   7.2740   4.8636  -5.4744   4.2204  -4.2073   0.00    0.0
2019/02/12 08:47:46.000   4280200.7334  -4034439.8279  -2458278.3411   5   6   7.6555   7.2729   4.8640  -5.4747   4.2200  -4.2086   0.00    0.0
2019/02/12 08:47:48.000   4280227.8965  -4034452.0799  -2458290.3069   5   6   7.6575   7.2718   4.8645  -5.4749   4.2197  -4.2098   0.00    0.0
2019/02/12 08:47:51.000   4280266.5868  -4034437.5265  -2458289.1492   5   6   7.6606   7.2702   4.8651  -5.4752   4.2192  -4.2116   0.00    0.0
2019/02/12 08:47:52.000   4280238.3042  -4034401.0924  -2458278.6457   5   6   7.6616   7.2696   4.8654  -5.4753   4.2190  -4.2123   0.00    0.0
2019/02/12 08:47:59.000   4280228.0130  -4034399.7436  -2458265.9575   5   6   7.6688   7.2658   4.8669  -5.4761   4.2178  -4.2166   0.00    0.0
2019/02/12 08:48:00.000   4280209.2907  -4034372.0508  -2458261.0951   5   6   7.6698   7.2653   4.8672  -5.4763   4.2177  -4.2172   0.00    0.0
2019/02/12 08:48:03.000   4280222.9941  -4034415.6919  -2458276.8311   5   6   7.6728   7.2637   4.8678  -5.4766   4.2171  -4.2190   0.00    0.0
2019/02/12 08:48:11.000   4280221.4251  -4034424.3096  -2458277.6117   5   6   7.6810   7.2593   4.8696  -5.4775   4.2158  -4.2240   0.00    0.0
2019/02/12 08:48:13.000   4280174.1699  -4034382.0030  -2458261.8055   5   6   7.6830   7.2583   4.8701  -5.4777   4.2154  -4.2252   0.00    0.0
2019/02/12 08:48:14.000   4280220.0867  -4034415.6031  -2458266.7101   5   6   7.6840   7.2577   4.8703  -5.4778   4.2153  -4.2258   0.00    0.0
2019/02/12 08:48:15.000   4280220.3733  -4034425.5591  -2458272.2995   5   6   7.6851   7.2572   4.8705  -5.4779   4.2151  -4.2265   0.00    0.0
2019/02/12 08:48:16.000   4280223.6173  -4034433.7076  -2458285.3022   5   6   7.6861   7.2566   4.8707  -5.4780   4.2149  -4.2271   0.00    0.0
2019/02/12 08:48:18.000   4280213.1075  -4034410.5017  -2458258.0568   5   6   7.6881   7.2555   4.8712  -5.4782   4.2146  -4.2283   0.00    0.0
2019/02/12 08:48:19.000   4280173.0363  -4034398.4199  -2458239.3520   5   6   7.6892   7.2550   4.8714  -5.4784   4.2144  -4.2289   0.00    0.0
2019/02/12 08:48:20.000   4280207.0814  -4034434.9628  -2458278.6368   5   6   7.6902   7.2544   4.8716  -5.4784   4.2142  -4.2295   0.00    0.0
2019/02/12 08:48:21.000   4280237.1789  -4034411.6217  -2458276.2237   5   6   7.6912   7.2539   4.8719  -5.4786   4.2140  -4.2302   0.00    0.0
2019/02/12 08:48:23.000   4280226.8720  -4034391.5062  -2458258.3374   5   6   7.6932   7.2528   4.8723  -5.4788   4.2137  -4.2314   0.00    0.0
2019/02/12 08:48:25.000   4280239.9149  -4034398.0655  -2458249.6720   5   6   7.6953   7.2517   4.8728  -5.4790   4.2134  -4.2326   0.00    0.0
2019/02/12 08:48:29.000   4280225.5656  -4034401.5768  -2458263.9958   5   6   7.6994   7.2495   4.8737  -5.4794   4.2127  -4.2351   0.00    0.0
2019/02/12 08:48:33.000   4280208.2741  -4034375.1005  -2458218.2963   5   6   7.7035   7.2474   4.8746  -5.4799   4.2120  -4.2376   0.00    0.0
2019/02/12 08:48:34.000   4280231.3375  -4034350.3066  -2458227.5887   5   6   7.7045   7.2468   4.8748  -5.4800   4.2118  -4.2382   0.00    0.0
2019/02/12 08:48:35.000   4280202.5566  -4034367.6936  -2458244.3950   5   6   7.7055   7.2463   4.8750  -5.4801   4.2116  -4.2388   0.00    0.0
2019/02/12 08:48:36.000   4280209.5095  -4034393.0588  -2458275.0354   5   6   7.7065   7.2457   4.8752  -5.4802   4.2114  -4.2394   0.00    0.0
2019/02/12 08:48:38.000   4280220.2983  -4034399.9401  -2458265.1710   5   6   7.7085   7.2446   4.8757  -5.4804   4.2111  -4.2407   0.00    0.0
2019/02/12 08:48:42.000   4280197.7095  -4034428.8266  -2458277.3258   5   6   7.7126   7.2425   4.8766  -5.4808   4.2104  -4.2431   0.00    0.0
2019/02/12 08:48:43.000   4280199.3915  -4034426.0093  -2458270.1863   5   6   7.7137   7.2419   4.8768  -5.4809   4.2102  -4.2437   0.00    0.0
2019/02/12 08:48:44.000   4280220.8781  -4034403.0020  -2458272.1704   5   5   8.4668   7.2776   5.2791  -5.7072   4.3807  -5.0065   0.00    0.0
2019/02/12 08:48:45.000   4280230.3593  -4034404.8250  -2458283.7176   5   6   7.7157   7.2408   4.8773  -5.4811   4.2099  -4.2450   0.00    0.0
2019/02/12 08:48:46.000   4280211.5657  -4034402.9152  -2458295.4834   5   6   7.7167   7.2403   4.8775  -5.4812   4.2097  -4.2456   0.00    0.0
2019/02/12 08:48:47.000   4280213.7120  -4034416.5410  -2458291.6353   5   6   7.7177   7.2397   4.8777  -5.4813   4.2095  -4.2462   0.00    0.0
2019/02/12 08:48:48.000   4280238.4726  -4034427.1162  -2458283.6331   5   6   7.7188   7.2392   4.8779  -5.4814   4.2093  -4.2468   0.00    0.0
2019/02/12 08:48:49.000   4280265.6200  -4034452.1440  -2458282.7677   5   6   7.7198   7.2386   4.8781  -5.4815   4.2092  -4.2474   0.00    0.0
2019/02/12 08:48:50.000   4280261.9811  -4034435.4011  -2458275.4880   5   6   7.7208   7.2381   4.8784  -5.4816   4.2090  -4.2480   0.00    0.0
2019/02/12 08:48:53.000   4280238.4478  -4034404.2054  -2458267.8087   5   6   7.7239   7.2365   4.8791  -5.4819   4.2085  -4.2499   0.00    0.0
2019/02/12 08:48:54.000   4280211.9409  -4034394.8779  -2458262.5974   5   6   7.7249   7.2359   4.8793  -5.4820   4.2083  -4.2505   0.00    0.0
2019/02/12 08:48:55.000   4280216.2438  -4034395.3250  -2458268.6096   5   6   7.7259   7.2354   4.8795  -5.4821   4.2081  -4.2512   0.00    0.0
2019/02/12 08:48:56.000   4280231.4096  -4034409.1236  -2458261.9118   5   6   7.7269   7.2348   4.8797  -5.4822   4.2079  -4.2518   0.00    0.0
2019/02/12 08:48:57.000   4280232.5737  -4034403.3689  -2458261.9379   5   6   7.7280   7.2343   4.8800  -5.4823   4.2078  -4.2524   0.00    0.0
2019/02/12 08:48:58.000   4280219.1092  -4034394.8442  -2458274.8265   5   6   7.7290   7.2337   4.8802  -5.4824   4.2076  -4.2530   0.00    0.0
2019/02/12 08:48:59.000   4280225.8111  -4034448.0433  -2458275.0440   5   6   7.7300   7.2332   4.8804  -5.4825   4.2074  -4.2536   0.00    0.0
2019/02/12 08:49:02.000   4280152.8407  -4034391.6522  -2458244.1924   5   6   7.7331   7.2316   4.8811  -5.4828   4.2069  -4.2555   0.00    0.0
2019/02/12 08:49:03.000   4280186.6326  -4034401.0705  -2458261.6382   5   6   7.7341   7.2310   4.8813  -5.4829   4.2067  -4.2561   0.00    0.0
2019/02/12 08:49:04.000   4280234.7219  -4034428.2555  -2458271.3355   5   6   7.7351   7.2304   4.8815  -5.4830   4.2065  -4.2567   0.00    0.0
2019/02/12 08:49:05.000   4280233.0394  -4034417.4465  -2458267.7073   5   6   7.7362   7.2299   4.8818  -5.4831   4.2063  -4.2573   0.00    0.0
2019/02/12 08:49:06.000   4280230.4951  -4034404.2326  -2458264.7062   5   6   7.7372   7.2294   4.8820  -5.4832   4.2062  -4.2579   0.00    0.0
2019/02/12 08:49:11.000   4280201.1225  -4034403.9119  -2458257.4411   5   6   7.7423   7.2266   4.8831  -5.4837   4.2053  -4.2610   0.00    0.0
2019/02/12 08:49:12.000   4280204.6423  -4034388.5820  -2458262.9996   5   6   7.7433   7.2261   4.8833  -5.4838   4.2051  -4.2617   0.00    0.0
2019/02/12 08:49:15.000   4280171.3167  -4034411.4071  -2458254.6934   5   6   7.7464   7.2244   4.8840  -5.4841   4.2046  -4.2635   0.00    0.0
2019/02/12 08:49:16.000   4280177.4362  -4034417.3474  -2458252.2139   5   6   7.7474   7.2239   4.8842  -5.4842   4.2044  -4.2641   0.00    0.0
2019/02/12 08:49:18.000   4280224.1248  -4034428.3070  -2458266.9764   5   5   8.5292   7.2603   5.2889  -5.7186   4.3781  -5.0417   0.00    0.0
2019/02/12 08:49:20.000   4280254.6369  -4034454.4077  -2458272.6605   5   6   7.7515   7.2217   4.8851  -5.4845   4.2036  -4.2666   0.00    0.0
2019/02/12 08:49:23.000   4280228.9500  -4034428.9029  -2458283.8975   5   6   7.7546   7.2201   4.8858  -5.4848   4.2031  -4.2684   0.00    0.0
2019/02/12 08:49:31.000   4280227.2729  -4034388.6640  -2458268.6533   5   6   7.7628   7.2157   4.8876  -5.4856   4.2017  -4.2734   0.00    0.0
2019/02/12 08:49:33.000   4280216.2209  -4034396.5930  -2458259.9701   5   6   7.7649   7.2146   4.8880  -5.4858   4.2013  -4.2746   0.00    0.0
2019/02/12 08:49:34.000   4280242.7974  -4034406.3229  -2458261.5467   5   6   7.7659   7.2140   4.8883  -5.4859   4.2011  -4.2752   0.00    0.0
2019/02/12 08:49:35.000   4280241.4620  -4034398.8031  -2458254.7690   5   6   7.7669   7.2135   4.8885  -5.4860   4.2009  -4.2758   0.00    0.0
2019/02/12 08:49:36.000   4280240.0865  -4034391.7661  -2458240.9687   5   6   7.7679   7.2129   4.8887  -5.4861   4.2008  -4.2765   0.00    0.0
2019/02/12 08:49:37.000   4280220.1909  -4034399.2002  -2458233.1732   5   6   7.7690   7.2124   4.8889  -5.4862   4.2006  -4.2771   0.00    0.0
2019/02/12 08:49:39.000   4280259.4465  -4034416.0541  -2458262.3874   5   6   7.7710   7.2113   4.8894  -5.4863   4.2002  -4.2783   0.00    0.0
2019/02/12 08:49:40.000   4280256.0384  -4034416.2276  -2458258.9716   5   6   7.7720   7.2107   4.8896  -5.4864   4.2000  -4.2789   0.00    0.0
2019/02/12 08:49:41.000   4280256.7222  -4034418.3100  -2458256.5589   5   6   7.7730   7.2102   4.8898  -5.4865   4.1998  -4.2795   0.00    0.0
2019/02/12 08:49:42.000   4280228.1122  -4034392.2467  -2458254.9447   5   6   7.7741   7.2096   4.8901  -5.4866   4.1997  -4.2802   0.00    0.0
2019/02/12 08:49:43.000   4280248.7133  -4034403.0970  -2458267.7644   5   6   7.7751   7.2091   4.8903  -5.4867   4.1995  -4.2808   0.00    0.0
2019/02/12 08:49:44.000   4280238.8983  -4034428.7471  -2458276.9217   5   6   7.7761   7.2085   4.8905  -5.4868   4.1993  -4.2814   0.00    0.0
2019/02/12 08:49:47.000   4280216.4856  -4034380.0254  -2458256.4488   5   6   7.7792   7.2069   4.8912  -5.4871   4.1988  -4.2833   0.00    0.0
2019/02/12 08:49:52.000   4280217.6167  -4034416.2033  -2458270.6100   5   6   7.7843   7.2041   4.8923  -5.4875   4.1978  -4.2863   0.00    0.0
2019/02/12 08:49:56.000   4280254.6189  -4034443.1441  -2458286.3715   5   6   7.7884   7.2019   4.8932  -5.4878   4.1971  -4.2888   0.00    0.0
2019/02/12 08:49:57.000   4280281.3706  -4034426.3704  -2458283.9278   5   6   7.7895   7.2014   4.8934  -5.4879   4.1969  -4.2894   0.00    0.0
2019/02/12 08:49:58.000   4280256.3965  -4034433.3031  -2458276.7504   5   6   7.7905   7.2008   4.8937  -5.4880   4.1967  -4.2900   0.00    0.0
2019/02/12 08:49:59.000   4280245.7547  -4034445.1920  -2458268.8691   5   6   7.7915   7.2003   4.8939  -5.4881   4.1965  -4.2907   0.00    0.0
2019/02/12 08:50:00.000   4280210.9346  -4034411.4428  -2458258.6836   5   6   7.7926   7.1998   4.8941  -5.4882   4.1964  -4.2913   0.00    0.0
2019/02/12 08:50:01.000   4280203.6687  -4034385.7410  -2458262.1194   5   6   7.7936   7.1992   4.8943  -5.4883   4.1962  -4.2919   0.00    0.0
2019/02/12 08:50:02.000   4280210.1759  -4034389.4256  -2458254.3928   5   6   7.7946   7.1987   4.8946  -5.4884   4.1960  -4.2925   0.00    0.0
2019/02/12 08:50:06.000   4280231.0886  -4034426.7027  -2458270.2828   5   6   7.7987   7.1964   4.8955  -5.4887   4.1952  -4.2950   0.00    0.0
2019/02/12 08:50:07.000   4280217.6935  -4034402.6087  -2458257.3336   5   6   7.7998   7.1959   4.8957  -5.4888   4.1951  -4.2956   0.00    0.0
2019/02/12 08:50:08.000   4280189.0428  -4034385.3629  -2458226.7354   5   6   7.8008   7.1954   4.8959  -5.4889   4.1949  -4.2962   0.00    0.0
2019/02/12 08:50:09.000   4280234.8279  -4034436.8380  -2458257.4882   5   6   7.8018   7.1948   4.8961  -5.4890   4.1947  -4.2968   0.00    0.0
2019/02/12 08:50:10.000   4280187.7200  -4034388.9200  -2458233.1230   5   6   7.8029   7.1943   4.8964  -5.4891   4.1945  -4.2975   0.00    0.0
2019/02/12 08:50:11.000   4280181.3540  -4034380.4351  -2458237.9287   5   6   7.8039   7.1937   4.8966  -5.4892   4.1943  -4.2981   0.00    0.0
2019/02/12 08:50:12.000   4280236.3254  -4034407.6212  -2458271.5438   5   6   7.8049   7.1931   4.8968  -5.4892   4.1941  -4.2987   0.00    0.0
2019/02/12 08:50:13.000   4280264.0277  -4034456.7898  -2458287.6912   5   6   7.8059   7.1926   4.8970  -5.4893   4.1939  -4.2993   0.00    0.0
2019/02/12 08:50:15.000   4280239.9910  -4034420.3729  -2458266.3326   5   6   7.8080   7.1915   4.8975  -5.4895   4.1936  -4.3005   0.00    0.0
2019/02/12 08:50:17.000   4280226.3155  -4034406.0763  -2458275.8003   5   6   7.8100   7.1904   4.8979  -5.4897   4.1932  -4.3018   0.00    0.0
2019/02/12 08:50:19.000   4280197.5016  -4034413.9341  -2458275.1961   5   6   7.8121   7.1893   4.8984  -5.4898   4.1928  -4.3030   0.00    0.0
2019/02/12 08:50:20.000   4280222.4287  -4034421.5049  -2458273.1133   5   6   7.8131   7.1887   4.8986  -5.4899   4.1926  -4.3036   0.00    0.0
2019/02/12 08:50:24.000   4280228.6848  -4034438.9979  -2458288.6289   5   6   7.8172   7.1865   4.8995  -5.4902   4.1919  -4.3061   0.00    0.0
2019/02/12 08:50:25.000   4280205.3316  -4034403.8732  -2458260.2489   5   6   7.8183   7.1860   4.8997  -5.4903   4.1917  -4.3067   0.00    0.0
2019/02/12 08:50:26.000   4280225.5296  -4034418.1670  -2458281.5938   5   6   7.8193   7.1854   4.9000  -5.4904   4.1915  -4.3073   0.00    0.0
2019/02/12 08:50:31.000   4280201.8288  -4034417.9016  -2458268.2544   5   6   7.8244   7.1827   4.9011  -5.4908   4.1906  -4.3104   0.00    0.0
2019/02/12 08:50:32.000   4280211.6608  -4034417.0616  -2458273.1716   5   6   7.8255   7.1821   4.9013  -5.4909   4.1904  -4.3110   0.00    0.0
2019/02/12 08:50:33.000   4280213.7382  -4034405.0970  -2458277.7724   5   6   7.8265   7.1816   4.9015  -5.4910   4.1902  -4.3117   0.00    0.0
2019/02/12 08:50:37.000   4280249.5990  -4034406.3496  -2458284.8054   5   6   7.8306   7.1794   4.9024  -5.4913   4.1894  -4.3141   0.00    0.0
2019/02/12 08:50:38.000   4280244.2503  -4034406.6337  -2458280.3541   5   6   7.8316   7.1788   4.9026  -5.4913   4.1892  -4.3147   0.00    0.0
2019/02/12 08:50:41.000   4280206.4420  -4034376.8761  -2458274.1571   5   6   7.8347   7.1772   4.9033  -5.4916   4.1887  -4.3166   0.00    0.0
2019/02/12 08:50:42.000   4280235.8518  -4034419.5479  -2458279.6576   5   6   7.8357   7.1766   4.9035  -5.4916   4.1885  -4.3172   0.00    0.0
2019/02/12 08:50:43.000   4280217.9357  -4034421.9538  -2458262.2913   5   6   7.8368   7.1760   4.9038  -5.4917   4.1883  -4.3178   0.00    0.0
2019/02/12 08:50:44.000   4280202.3543  -4034410.1622  -2458255.2149   5   6   7.8378   7.1755   4.9040  -5.4918   4.1881  -4.3185   0.00    0.0
2019/02/12 08:50:45.000   4280192.5582  -4034403.2530  -2458249.1736   5   6   7.8389   7.1750   4.9042  -5.4919   4.1879  -4.3191   0.00    0.0
2019/02/12 08:50:46.000   4280221.9792  -4034402.5210  -2458263.5710   5   6   7.8399   7.1744   4.9044  -5.4920   4.1877  -4.3197   0.00    0.0
2019/02/12 08:50:49.000   4280210.1961  -4034373.7456  -2458256.6207   5   6   7.8430   7.1727   4.9051  -5.4922   4.1871  -4.3216   0.00    0.0
2019/02/12 08:50:50.000   4280212.7730  -4034388.4441  -2458251.2699   5   6   7.8440   7.1722   4.9053  -5.4923   4.1870  -4.3222   0.00    0.0
2019/02/12 08:50:54.000   4280252.6525  -4034378.7115  -2458264.4998   5   6   7.8481   7.1700   4.9062  -5.4926   4.1862  -4.3246   0.00    0.0
2019/02/12 08:51:02.000   4280233.1408  -4034376.6139  -2458237.6314   5   5   8.7258   7.2069   5.3195  -5.7534   4.3695  -5.1512   0.00    0.0
2019/02/12 08:51:03.000   4280225.5808  -4034405.2322  -2458245.9922   5   5   8.7277   7.2064   5.3198  -5.7537   4.3694  -5.1522   0.00    0.0
2019/02/12 08:51:04.000   4280250.9025  -4034389.4482  -2458265.7590   5   5   8.7297   7.2058   5.3201  -5.7541   4.3693  -5.1533   0.00    0.0
2019/02/12 08:51:05.000   4280237.6339  -4034365.0536  -2458239.4550   5   5   8.7316   7.2053   5.3204  -5.7544   4.3692  -5.1544   0.00    0.0
2019/02/12 08:51:07.000   4280224.8255  -4034365.2701  -2458243.3272   5   6   7.8615   7.1628   4.9092  -5.4935   4.1837  -4.3327   0.00    0.0
2019/02/12 08:51:08.000   4280240.4623  -4034372.8669  -2458256.2480   5   6   7.8626   7.1622   4.9094  -5.4936   4.1835  -4.3333   0.00    0.0
2019/02/12 08:51:10.000   4280251.3460  -4034433.0946  -2458283.0089   5   6   7.8646   7.1611   4.9098  -5.4937   4.1831  -4.3345   0.00    0.0
2019/02/12 08:51:15.000   4280181.2745  -4034406.6475  -2458257.3623   5   6   7.8698   7.1583   4.9110  -5.4941   4.1821  -4.3376   0.00    0.0
2019/02/12 08:51:16.000   4280251.3594  -4034435.2441  -2458272.1711   5   6   7.8708   7.1578   4.9112  -5.4941   4.1819  -4.3382   0.00    0.0
2019/02/12 08:51:20.000   4280234.9511  -4034428.5469  -2458270.1266   5   6   7.8749   7.1556   4.9121  -5.4944   4.1811  -4.3407   0.00    0.0
2019/02/12 08:51:21.000   4280223.1138  -4034414.5723  -2458268.2960   5   6   7.8760   7.1550   4.9123  -5.4945   4.1809  -4.3413   0.00    0.0
2019/02/12 08:51:22.000   4280188.9802  -4034385.1137  -2458251.4611   5   6   7.8770   7.1545   4.9125  -5.4946   4.1808  -4.3419   0.00    0.0
