% program   : RTKPOST ver.2.4.2
% inp file  : D:\Google Drive\UERJ\_Projeto Final\Python\tcc-guilherme\20190212_Sta91500_Smoothed.19o
% inp file  : D:\Google Drive\UERJ\_Projeto Final\20190212_Marco91500 IBGE\brdm0430.19p
% obs start : 2019/02/12 08:38:50.0 GPST (week2040 203930.0s)
% obs end   : 2019/02/12 10:17:44.0 GPST (week2040 209864.0s)
% pos mode  : single
% elev mask : 15.0 deg
% ionos opt : broadcast
% tropo opt : saastamoinen
% ephemeris : broadcast
% navi sys  : gps glonass
%
% (x/y/z-ecef=WGS84,Q=1:fix,2:float,3:sbas,4:dgps,5:single,6:ppp,ns=# of satellites)
%  GPST                      x-ecef(m)      y-ecef(m)      z-ecef(m)   Q  ns   sdx(m)   sdy(m)   sdz(m)  sdxy(m)  sdyz(m)  sdzx(m) age(s)  ratio
2019/02/12 09:13:31.000   4280224.6509  -4034418.3607  -2458267.5539   5  11   4.6875   4.9506   3.1272  -4.0203   3.4836  -3.1158   0.00    0.0
2019/02/12 09:13:32.000   4280224.8991  -4034418.9455  -2458267.6830   5  11   4.6870   4.9495   3.1267  -4.0192   3.4828  -3.1151   0.00    0.0
2019/02/12 09:13:33.000   4280225.3825  -4034419.4016  -2458267.8213   5  11   4.6865   4.9483   3.1263  -4.0181   3.4819  -3.1144   0.00    0.0
2019/02/12 09:13:34.000   4280225.3512  -4034419.4522  -2458267.7432   5  11   4.6860   4.9472   3.1258  -4.0171   3.4811  -3.1136   0.00    0.0
2019/02/12 09:14:15.000   4280233.5822  -4034415.0880  -2458267.2816   5  12   4.0761   4.8872   3.0766  -3.8668   3.4233  -2.9204   0.00    0.0
2019/02/12 09:18:12.000   4280220.0172  -4034406.4516  -2458260.7271   5  10   4.8927   6.3703   3.2334  -4.6580   3.9754  -3.2654   0.00    0.0
2019/02/12 09:18:13.000   4280219.7686  -4034406.1739  -2458260.4720   5  10   4.8918   6.3683   3.2327  -4.6563   3.9740  -3.2643   0.00    0.0
2019/02/12 09:18:14.000   4280219.4731  -4034405.9251  -2458260.3941   5  10   4.8910   6.3663   3.2320  -4.6545   3.9727  -3.2632   0.00    0.0
2019/02/12 09:18:15.000   4280219.4632  -4034405.7925  -2458260.4084   5  10   4.8901   6.3643   3.2313  -4.6528   3.9713  -3.2622   0.00    0.0
2019/02/12 09:18:16.000   4280219.3757  -4034405.3600  -2458260.2364   5  10   4.8892   6.3622   3.2306  -4.6511   3.9700  -3.2611   0.00    0.0
2019/02/12 09:18:17.000   4280219.2534  -4034404.8707  -2458260.0226   5  10   4.8884   6.3602   3.2300  -4.6493   3.9686  -3.2600   0.00    0.0
2019/02/12 09:18:18.000   4280219.1303  -4034404.7852  -2458259.9145   5  10   4.8875   6.3582   3.2293  -4.6476   3.9672  -3.2590   0.00    0.0
2019/02/12 09:18:19.000   4280219.5314  -4034404.9725  -2458259.9879   5  10   4.8866   6.3562   3.2286  -4.6459   3.9659  -3.2579   0.00    0.0
2019/02/12 09:18:20.000   4280219.9336  -4034405.4067  -2458260.2582   5  10   4.8857   6.3542   3.2279  -4.6441   3.9645  -3.2568   0.00    0.0
2019/02/12 09:18:21.000   4280219.9715  -4034405.6528  -2458260.3220   5  10   4.8849   6.3522   3.2272  -4.6424   3.9632  -3.2558   0.00    0.0
2019/02/12 09:18:22.000   4280219.9060  -4034405.4464  -2458260.3950   5  10   4.8840   6.3501   3.2265  -4.6406   3.9618  -3.2547   0.00    0.0
2019/02/12 09:18:24.000   4280218.1805  -4034400.2520  -2458259.4048   5  11   4.5391   4.6266   2.9949  -3.7004   3.2367  -2.9030   0.00    0.0
2019/02/12 09:18:25.000   4280220.5396  -4034405.8456  -2458260.9720   5  11   4.5386   4.6256   2.9945  -3.6993   3.2359  -2.9023   0.00    0.0
2019/02/12 09:19:55.000   4280225.5264  -4034424.3496  -2458265.8255   5  11   4.4939   4.5308   2.9553  -3.6007   3.1615  -2.8356   0.00    0.0
2019/02/12 09:19:56.000   4280225.5416  -4034424.8050  -2458266.1465   5  11   4.4934   4.5297   2.9549  -3.5996   3.1607  -2.8349   0.00    0.0
2019/02/12 09:19:57.000   4280225.3543  -4034424.8343  -2458266.2108   5  11   4.4929   4.5287   2.9545  -3.5985   3.1599  -2.8341   0.00    0.0
2019/02/12 09:19:58.000   4280225.5007  -4034424.9775  -2458266.4563   5  11   4.4924   4.5277   2.9540  -3.5974   3.1591  -2.8334   0.00    0.0
2019/02/12 09:19:59.000   4280225.9561  -4034424.9697  -2458266.5774   5  11   4.4919   4.5266   2.9536  -3.5963   3.1583  -2.8327   0.00    0.0
2019/02/12 09:20:00.000   4280226.0368  -4034424.8984  -2458266.6506   5  11   4.4914   4.5256   2.9532  -3.5952   3.1574  -2.8319   0.00    0.0
2019/02/12 09:20:01.000   4280225.9686  -4034425.0639  -2458266.7983   5  11   4.4909   4.5246   2.9527  -3.5941   3.1566  -2.8312   0.00    0.0
2019/02/12 09:20:02.000   4280225.9372  -4034425.1747  -2458266.8508   5  11   4.4904   4.5235   2.9523  -3.5930   3.1558  -2.8304   0.00    0.0
2019/02/12 09:20:03.000   4280225.9501  -4034425.5968  -2458267.2345   5  11   4.4899   4.5225   2.9519  -3.5919   3.1550  -2.8297   0.00    0.0
2019/02/12 09:20:04.000   4280225.8302  -4034425.6978  -2458267.3013   5  11   4.4895   4.5215   2.9515  -3.5908   3.1542  -2.8290   0.00    0.0
2019/02/12 09:20:05.000   4280225.9539  -4034425.9122  -2458267.2490   5  11   4.4890   4.5204   2.9510  -3.5898   3.1533  -2.8282   0.00    0.0
2019/02/12 09:20:06.000   4280225.9081  -4034426.3269  -2458267.2700   5  11   4.4885   4.5194   2.9506  -3.5887   3.1525  -2.8275   0.00    0.0
2019/02/12 09:20:07.000   4280225.7509  -4034426.7208  -2458267.4934   5  11   4.4880   4.5184   2.9502  -3.5876   3.1517  -2.8267   0.00    0.0
2019/02/12 09:20:08.000   4280225.5918  -4034426.9093  -2458267.6631   5  11   4.4875   4.5173   2.9497  -3.5865   3.1509  -2.8260   0.00    0.0
2019/02/12 09:20:11.000   4280225.7440  -4034427.1441  -2458267.8776   5  11   4.4860   4.5142   2.9485  -3.5832   3.1484  -2.8238   0.00    0.0
2019/02/12 09:20:12.000   4280225.7873  -4034426.9183  -2458267.6172   5  11   4.4855   4.5132   2.9480  -3.5821   3.1476  -2.8230   0.00    0.0
2019/02/12 09:20:13.000   4280225.6589  -4034426.7324  -2458267.3437   5  11   4.4851   4.5122   2.9476  -3.5810   3.1468  -2.8223   0.00    0.0
2019/02/12 09:20:14.000   4280225.7424  -4034426.9894  -2458267.4200   5  11   4.4846   4.5112   2.9472  -3.5799   3.1460  -2.8216   0.00    0.0
2019/02/12 09:20:15.000   4280225.7835  -4034427.2580  -2458267.5517   5  11   4.4841   4.5101   2.9468  -3.5788   3.1452  -2.8208   0.00    0.0
2019/02/12 09:20:24.000   4280224.2647  -4034426.4770  -2458267.1877   5  11   4.4797   4.5009   2.9429  -3.5690   3.1379  -2.8142   0.00    0.0
2019/02/12 09:20:25.000   4280224.1942  -4034426.5337  -2458267.1406   5  11   4.4792   4.4998   2.9425  -3.5679   3.1370  -2.8134   0.00    0.0
2019/02/12 09:20:26.000   4280223.9226  -4034426.4922  -2458266.9332   5  11   4.4787   4.4988   2.9421  -3.5668   3.1362  -2.8127   0.00    0.0
2019/02/12 09:20:43.000   4280218.1452  -4034413.2075  -2458262.0152   5  10   4.7651   6.0746   3.1335  -4.3994   3.7751  -3.1066   0.00    0.0
2019/02/12 09:20:44.000   4280218.4461  -4034413.2491  -2458262.6877   5  10   4.7643   6.0727   3.1328  -4.3977   3.7738  -3.1056   0.00    0.0
2019/02/12 09:20:45.000   4280218.6783  -4034413.4522  -2458263.2002   5  10   4.7635   6.0708   3.1322  -4.3961   3.7725  -3.1046   0.00    0.0
2019/02/12 09:20:46.000   4280218.6027  -4034413.5186  -2458263.3392   5  10   4.7626   6.0689   3.1316  -4.3944   3.7712  -3.1035   0.00    0.0
2019/02/12 09:20:47.000   4280218.3705  -4034413.3271  -2458263.2886   5  10   4.7618   6.0670   3.1309  -4.3927   3.7699  -3.1025   0.00    0.0
2019/02/12 09:20:48.000   4280218.0950  -4034413.0456  -2458263.0190   5  10   4.7610   6.0651   3.1303  -4.3910   3.7686  -3.1015   0.00    0.0
2019/02/12 09:20:49.000   4280218.0422  -4034413.4253  -2458262.9357   5  10   4.7602   6.0632   3.1296  -4.3893   3.7673  -3.1004   0.00    0.0
2019/02/12 09:20:50.000   4280220.6483  -4034420.0131  -2458264.5411   5  11   4.4671   4.4743   2.9319  -3.5407   3.1168  -2.7949   0.00    0.0
2019/02/12 09:21:13.000   4280221.7843  -4034422.1182  -2458264.2834   5  11   4.4561   4.4511   2.9223  -3.5157   3.0982  -2.7779   0.00    0.0
2019/02/12 09:21:14.000   4280221.9646  -4034422.4438  -2458264.4979   5  11   4.4556   4.4501   2.9219  -3.5147   3.0974  -2.7772   0.00    0.0
2019/02/12 09:21:15.000   4280222.1823  -4034422.6769  -2458264.7238   5  11   4.4551   4.4491   2.9215  -3.5136   3.0966  -2.7764   0.00    0.0
2019/02/12 09:21:16.000   4280222.4381  -4034422.7156  -2458264.8538   5  11   4.4547   4.4480   2.9211  -3.5125   3.0958  -2.7757   0.00    0.0
2019/02/12 09:21:17.000   4280222.5783  -4034422.8584  -2458264.9724   5  11   4.4542   4.4470   2.9206  -3.5114   3.0950  -2.7750   0.00    0.0
2019/02/12 09:21:18.000   4280222.5601  -4034423.4602  -2458265.1974   5  11   4.4537   4.4460   2.9202  -3.5103   3.0942  -2.7742   0.00    0.0
2019/02/12 09:21:19.000   4280223.2358  -4034424.2006  -2458265.5126   5  11   4.4532   4.4450   2.9198  -3.5092   3.0934  -2.7735   0.00    0.0
2019/02/12 09:21:20.000   4280223.4720  -4034424.7007  -2458265.6345   5  11   4.4527   4.4440   2.9194  -3.5082   3.0926  -2.7727   0.00    0.0
2019/02/12 09:21:21.000   4280223.2766  -4034425.1118  -2458265.7338   5  11   4.4523   4.4430   2.9190  -3.5071   3.0918  -2.7720   0.00    0.0
2019/02/12 09:21:22.000   4280223.0761  -4034425.0037  -2458265.5232   5  11   4.4518   4.4420   2.9186  -3.5060   3.0910  -2.7713   0.00    0.0
2019/02/12 09:21:23.000   4280223.1982  -4034424.8467  -2458265.3852   5  11   4.4513   4.4410   2.9181  -3.5049   3.0902  -2.7705   0.00    0.0
2019/02/12 09:21:42.000   4280225.0727  -4034426.8861  -2458266.9239   5  11   4.4423   4.4220   2.9103  -3.4843   3.0750  -2.7565   0.00    0.0
2019/02/12 09:21:43.000   4280224.7451  -4034427.1112  -2458266.8160   5  11   4.4418   4.4210   2.9099  -3.4833   3.0742  -2.7558   0.00    0.0
2019/02/12 09:21:44.000   4280224.8500  -4034427.4596  -2458266.8381   5  11   4.4414   4.4200   2.9095  -3.4822   3.0734  -2.7550   0.00    0.0
2019/02/12 09:21:45.000   4280224.9782  -4034427.8488  -2458266.9256   5  11   4.4409   4.4191   2.9091  -3.4811   3.0726  -2.7543   0.00    0.0
2019/02/12 09:21:46.000   4280225.1660  -4034427.9297  -2458266.8831   5  11   4.4404   4.4181   2.9086  -3.4800   3.0718  -2.7536   0.00    0.0
2019/02/12 09:21:47.000   4280225.0013  -4034427.7111  -2458266.8114   5  11   4.4400   4.4171   2.9082  -3.4789   3.0710  -2.7528   0.00    0.0
2019/02/12 09:21:48.000   4280224.6953  -4034427.1539  -2458266.5580   5  11   4.4395   4.4161   2.9078  -3.4779   3.0702  -2.7521   0.00    0.0
2019/02/12 09:21:49.000   4280224.0693  -4034426.5756  -2458266.4224   5  11   4.4390   4.4151   2.9074  -3.4768   3.0694  -2.7514   0.00    0.0
2019/02/12 09:21:50.000   4280223.5307  -4034426.0295  -2458266.2072   5  11   4.4385   4.4141   2.9070  -3.4757   3.0686  -2.7506   0.00    0.0
2019/02/12 09:21:51.000   4280223.3182  -4034425.5336  -2458266.0589   5  11   4.4381   4.4131   2.9066  -3.4746   3.0678  -2.7499   0.00    0.0
2019/02/12 09:21:52.000   4280223.0550  -4034424.9639  -2458265.8911   5  11   4.4376   4.4121   2.9062  -3.4735   3.0670  -2.7491   0.00    0.0
2019/02/12 09:22:21.000   4280224.6301  -4034422.8110  -2458265.7256   5  11   4.4241   4.3835   2.8944  -3.4423   3.0440  -2.7278   0.00    0.0
2019/02/12 09:22:22.000   4280224.9496  -4034422.9383  -2458265.5114   5  11   4.4236   4.3826   2.8940  -3.4412   3.0432  -2.7271   0.00    0.0
2019/02/12 09:22:23.000   4280225.1533  -4034423.1912  -2458265.4212   5  11   4.4231   4.3816   2.8936  -3.4402   3.0424  -2.7263   0.00    0.0
2019/02/12 09:22:24.000   4280225.2677  -4034423.2919  -2458265.4509   5  11   4.4227   4.3806   2.8931  -3.4391   3.0416  -2.7256   0.00    0.0
2019/02/12 09:22:25.000   4280225.2156  -4034423.2182  -2458265.2147   5  11   4.4222   4.3796   2.8927  -3.4380   3.0408  -2.7249   0.00    0.0
2019/02/12 09:22:26.000   4280225.1079  -4034423.0862  -2458264.9827   5  11   4.4218   4.3787   2.8923  -3.4369   3.0401  -2.7241   0.00    0.0
2019/02/12 09:22:27.000   4280224.9370  -4034422.6832  -2458264.6446   5  11   4.4213   4.3777   2.8919  -3.4359   3.0393  -2.7234   0.00    0.0
2019/02/12 09:22:28.000   4280224.6705  -4034422.4474  -2458264.5348   5  11   4.4208   4.3767   2.8915  -3.4348   3.0385  -2.7227   0.00    0.0
2019/02/12 09:22:29.000   4280224.3229  -4034422.3734  -2458264.4152   5  11   4.4204   4.3757   2.8911  -3.4337   3.0377  -2.7219   0.00    0.0
2019/02/12 09:22:30.000   4280224.1713  -4034422.4657  -2458264.5656   5  11   4.4199   4.3748   2.8907  -3.4326   3.0369  -2.7212   0.00    0.0
2019/02/12 09:22:31.000   4280224.1001  -4034422.6619  -2458264.9289   5  11   4.4194   4.3738   2.8903  -3.4316   3.0361  -2.7205   0.00    0.0
2019/02/12 09:22:32.000   4280224.0153  -4034422.9057  -2458265.1161   5  11   4.4190   4.3728   2.8899  -3.4305   3.0353  -2.7197   0.00    0.0
2019/02/12 09:22:33.000   4280224.0485  -4034423.0557  -2458265.0123   5  11   4.4185   4.3718   2.8895  -3.4294   3.0345  -2.7190   0.00    0.0
2019/02/12 09:22:34.000   4280223.8805  -4034422.9492  -2458264.6071   5  11   4.4181   4.3709   2.8891  -3.4283   3.0338  -2.7183   0.00    0.0
2019/02/12 09:22:35.000   4280224.0640  -4034422.6656  -2458264.3178   5  11   4.4176   4.3699   2.8887  -3.4273   3.0330  -2.7175   0.00    0.0
2019/02/12 09:22:36.000   4280224.3837  -4034422.6502  -2458264.3053   5  11   4.4171   4.3689   2.8883  -3.4262   3.0322  -2.7168   0.00    0.0
2019/02/12 09:22:37.000   4280224.5672  -4034422.6242  -2458264.4792   5  11   4.4167   4.3679   2.8879  -3.4251   3.0314  -2.7161   0.00    0.0
2019/02/12 09:22:38.000   4280224.6061  -4034422.6853  -2458264.6707   5  11   4.4162   4.3670   2.8875  -3.4241   3.0306  -2.7153   0.00    0.0
2019/02/12 09:22:39.000   4280224.3187  -4034422.6222  -2458264.5877   5  11   4.4158   4.3660   2.8871  -3.4230   3.0298  -2.7146   0.00    0.0
2019/02/12 09:23:22.000   4280225.2112  -4034417.8659  -2458265.0219   5  11   4.3962   4.3246   2.8700  -3.3770   2.9963  -2.6831   0.00    0.0
2019/02/12 09:23:23.000   4280225.3146  -4034417.9135  -2458264.9857   5  11   4.3958   4.3237   2.8696  -3.3760   2.9955  -2.6824   0.00    0.0
2019/02/12 09:23:24.000   4280225.4433  -4034417.8269  -2458264.8706   5  11   4.3953   4.3227   2.8692  -3.3749   2.9947  -2.6816   0.00    0.0
2019/02/12 09:23:25.000   4280225.4328  -4034417.5964  -2458264.9137   5  11   4.3949   4.3218   2.8688  -3.3738   2.9939  -2.6809   0.00    0.0
2019/02/12 09:23:26.000   4280225.8684  -4034417.3029  -2458264.7993   5  11   4.3944   4.3208   2.8684  -3.3728   2.9932  -2.6802   0.00    0.0
2019/02/12 09:23:27.000   4280226.2170  -4034417.4248  -2458264.8666   5  11   4.3940   4.3199   2.8680  -3.3717   2.9924  -2.6794   0.00    0.0
2019/02/12 09:23:28.000   4280226.1586  -4034417.3706  -2458264.8953   5  11   4.3935   4.3189   2.8677  -3.3706   2.9916  -2.6787   0.00    0.0
2019/02/12 09:23:29.000   4280225.6393  -4034417.0790  -2458264.7018   5  11   4.3931   4.3180   2.8673  -3.3696   2.9908  -2.6780   0.00    0.0
2019/02/12 09:23:30.000   4280225.0657  -4034416.8581  -2458264.4081   5  11   4.3926   4.3170   2.8669  -3.3685   2.9901  -2.6773   0.00    0.0
2019/02/12 09:23:31.000   4280224.5122  -4034416.9892  -2458264.3854   5  11   4.3922   4.3161   2.8665  -3.3674   2.9893  -2.6765   0.00    0.0
2019/02/12 09:23:32.000   4280224.0164  -4034416.6550  -2458264.0214   5  11   4.3917   4.3151   2.8661  -3.3664   2.9885  -2.6758   0.00    0.0
2019/02/12 09:23:33.000   4280223.4158  -4034416.2615  -2458263.7329   5  11   4.3913   4.3142   2.8657  -3.3653   2.9877  -2.6751   0.00    0.0
2019/02/12 09:23:34.000   4280223.1604  -4034416.0920  -2458263.7025   5  11   4.3908   4.3132   2.8653  -3.3643   2.9870  -2.6743   0.00    0.0
2019/02/12 09:23:35.000   4280222.9747  -4034416.3414  -2458263.8297   5  11   4.3904   4.3123   2.8649  -3.3632   2.9862  -2.6736   0.00    0.0
2019/02/12 09:23:36.000   4280223.1244  -4034416.4383  -2458263.9265   5  11   4.3899   4.3113   2.8645  -3.3621   2.9854  -2.6729   0.00    0.0
2019/02/12 09:23:37.000   4280223.0521  -4034416.0823  -2458263.6119   5  11   4.3895   4.3104   2.8641  -3.3611   2.9846  -2.6721   0.00    0.0
2019/02/12 09:23:38.000   4280222.9741  -4034415.8700  -2458263.3831   5  11   4.3890   4.3094   2.8637  -3.3600   2.9839  -2.6714   0.00    0.0
2019/02/12 09:23:39.000   4280223.0378  -4034415.8199  -2458263.2900   5  11   4.3886   4.3085   2.8634  -3.3589   2.9831  -2.6707   0.00    0.0
2019/02/12 09:23:40.000   4280223.0942  -4034415.7056  -2458263.2145   5  11   4.3882   4.3076   2.8630  -3.3579   2.9823  -2.6700   0.00    0.0
2019/02/12 09:23:41.000   4280223.1136  -4034415.6797  -2458263.2093   5  11   4.3877   4.3066   2.8626  -3.3568   2.9816  -2.6692   0.00    0.0
2019/02/12 09:23:42.000   4280223.2291  -4034415.5847  -2458263.2544   5  11   4.3873   4.3057   2.8622  -3.3558   2.9808  -2.6685   0.00    0.0
2019/02/12 09:23:43.000   4280223.3646  -4034415.6075  -2458263.2771   5  11   4.3868   4.3047   2.8618  -3.3547   2.9800  -2.6678   0.00    0.0
2019/02/12 09:23:52.000   4280221.8775  -4034414.4578  -2458262.8107   5  11   4.3828   4.2962   2.8583  -3.3452   2.9731  -2.6612   0.00    0.0
2019/02/12 09:23:57.000   4280221.7977  -4034414.6925  -2458262.5324   5  11   4.3806   4.2916   2.8564  -3.3399   2.9693  -2.6576   0.00    0.0
2019/02/12 09:23:58.000   4280221.3662  -4034414.4818  -2458262.3045   5  11   4.3802   4.2906   2.8560  -3.3388   2.9685  -2.6568   0.00    0.0
2019/02/12 09:23:59.000   4280221.0361  -4034414.0967  -2458261.9549   5  11   4.3797   4.2897   2.8556  -3.3377   2.9677  -2.6561   0.00    0.0
2019/02/12 09:24:00.000   4280220.9548  -4034413.9170  -2458261.7425   5  11   4.3793   4.2887   2.8552  -3.3367   2.9669  -2.6554   0.00    0.0
2019/02/12 09:24:01.000   4280220.6664  -4034413.5138  -2458261.5846   5  11   4.3789   4.2878   2.8548  -3.3356   2.9662  -2.6547   0.00    0.0
2019/02/12 09:24:02.000   4280220.3659  -4034412.9016  -2458261.3633   5  11   4.3784   4.2869   2.8544  -3.3346   2.9654  -2.6539   0.00    0.0
2019/02/12 09:24:03.000   4280220.2224  -4034412.4537  -2458261.2848   5  11   4.3780   4.2859   2.8540  -3.3335   2.9647  -2.6532   0.00    0.0
2019/02/12 09:24:04.000   4280220.0817  -4034412.0324  -2458261.3150   5  11   4.3775   4.2850   2.8537  -3.3324   2.9639  -2.6525   0.00    0.0
2019/02/12 09:24:05.000   4280219.7903  -4034411.5038  -2458261.3689   5  11   4.3771   4.2841   2.8533  -3.3314   2.9631  -2.6518   0.00    0.0
2019/02/12 09:24:32.000   4280218.9548  -4034410.7630  -2458262.6816   5  11   4.3653   4.2590   2.8430  -3.3029   2.9425  -2.6322   0.00    0.0
2019/02/12 09:24:39.000   4280219.3607  -4034409.7804  -2458262.4074   5  11   4.3623   4.2526   2.8403  -3.2955   2.9372  -2.6271   0.00    0.0
2019/02/12 09:24:40.000   4280219.6516  -4034410.0465  -2458262.6746   5  11   4.3619   4.2517   2.8399  -3.2945   2.9365  -2.6264   0.00    0.0
2019/02/12 09:24:41.000   4280220.0525  -4034410.2339  -2458262.8236   5  11   4.3615   4.2508   2.8396  -3.2934   2.9357  -2.6256   0.00    0.0
2019/02/12 09:24:42.000   4280220.4750  -4034410.3389  -2458262.8986   5  11   4.3610   4.2498   2.8392  -3.2924   2.9350  -2.6249   0.00    0.0
2019/02/12 09:24:43.000   4280220.5850  -4034410.2368  -2458262.9092   5  11   4.3606   4.2489   2.8388  -3.2913   2.9342  -2.6242   0.00    0.0
2019/02/12 09:24:44.000   4280220.5964  -4034410.2753  -2458262.9797   5  11   4.3602   4.2480   2.8384  -3.2903   2.9335  -2.6235   0.00    0.0
2019/02/12 09:24:45.000   4280220.7730  -4034410.5194  -2458263.3272   5  11   4.3597   4.2471   2.8380  -3.2892   2.9327  -2.6227   0.00    0.0
2019/02/12 09:24:46.000   4280220.4327  -4034410.5331  -2458263.4165   5  11   4.3593   4.2462   2.8377  -3.2882   2.9320  -2.6220   0.00    0.0
2019/02/12 09:24:47.000   4280219.9714  -4034410.5337  -2458263.4803   5  11   4.3589   4.2453   2.8373  -3.2871   2.9312  -2.6213   0.00    0.0
2019/02/12 09:24:48.000   4280219.6890  -4034410.8093  -2458263.5739   5  11   4.3585   4.2443   2.8369  -3.2861   2.9304  -2.6206   0.00    0.0
2019/02/12 09:25:11.000   4280220.1446  -4034409.5350  -2458263.9674   5  11   4.3487   4.2234   2.8283  -3.2620   2.9132  -2.6040   0.00    0.0
2019/02/12 09:25:40.000   4280218.5946  -4034410.0157  -2458265.1663   5  11   4.3366   4.1974   2.8176  -3.2318   2.8916  -2.5831   0.00    0.0
2019/02/12 09:25:41.000   4280218.7642  -4034410.0805  -2458265.1754   5  11   4.3361   4.1965   2.8173  -3.2308   2.8908  -2.5824   0.00    0.0
2019/02/12 09:25:42.000   4280218.9199  -4034410.0063  -2458265.1839   5  11   4.3357   4.1956   2.8169  -3.2297   2.8901  -2.5817   0.00    0.0
2019/02/12 09:25:43.000   4280218.9252  -4034409.9894  -2458265.2271   5  11   4.3353   4.1947   2.8165  -3.2287   2.8893  -2.5810   0.00    0.0
2019/02/12 09:25:44.000   4280218.6548  -4034410.2376  -2458265.3454   5  11   4.3349   4.1938   2.8162  -3.2276   2.8886  -2.5802   0.00    0.0
2019/02/12 09:25:45.000   4280218.6337  -4034410.9184  -2458265.4492   5  11   4.3345   4.1930   2.8158  -3.2266   2.8879  -2.5795   0.00    0.0
2019/02/12 09:25:46.000   4280218.6601  -4034411.4978  -2458265.5814   5  11   4.3341   4.1921   2.8155  -3.2256   2.8871  -2.5788   0.00    0.0
2019/02/12 09:25:47.000   4280218.8515  -4034412.1519  -2458265.9907   5  11   4.3337   4.1912   2.8151  -3.2245   2.8864  -2.5781   0.00    0.0
2019/02/12 09:25:48.000   4280219.3109  -4034412.6043  -2458266.3195   5  11   4.3333   4.1903   2.8147  -3.2235   2.8856  -2.5774   0.00    0.0
2019/02/12 09:25:49.000   4280219.5949  -4034413.0277  -2458266.6142   5  11   4.3328   4.1894   2.8144  -3.2224   2.8849  -2.5767   0.00    0.0
2019/02/12 09:25:50.000   4280219.7148  -4034413.0788  -2458266.5970   5  11   4.3324   4.1885   2.8140  -3.2214   2.8842  -2.5759   0.00    0.0
2019/02/12 09:25:51.000   4280220.3039  -4034413.2834  -2458266.7714   5  11   4.3320   4.1876   2.8136  -3.2204   2.8834  -2.5752   0.00    0.0
2019/02/12 09:25:52.000   4280220.5913  -4034413.5561  -2458267.0219   5  11   4.3316   4.1867   2.8133  -3.2193   2.8827  -2.5745   0.00    0.0
2019/02/12 09:25:53.000   4280220.7070  -4034413.6214  -2458267.0527   5  11   4.3312   4.1859   2.8129  -3.2183   2.8819  -2.5738   0.00    0.0
2019/02/12 09:25:54.000   4280220.5592  -4034413.7320  -2458266.8741   5  11   4.3308   4.1850   2.8125  -3.2173   2.8812  -2.5731   0.00    0.0
2019/02/12 09:25:55.000   4280220.3316  -4034414.0729  -2458266.7790   5  11   4.3304   4.1841   2.8122  -3.2162   2.8805  -2.5724   0.00    0.0
2019/02/12 09:25:56.000   4280220.4416  -4034414.5459  -2458266.8362   5  11   4.3300   4.1832   2.8118  -3.2152   2.8797  -2.5716   0.00    0.0
2019/02/12 09:25:57.000   4280220.6842  -4034414.8057  -2458266.9054   5  11   4.3296   4.1823   2.8115  -3.2142   2.8790  -2.5709   0.00    0.0
2019/02/12 09:25:58.000   4280221.1514  -4034415.2796  -2458267.0333   5  11   4.3292   4.1814   2.8111  -3.2131   2.8783  -2.5702   0.00    0.0
2019/02/12 09:25:59.000   4280221.4718  -4034415.5217  -2458267.0505   5  11   4.3287   4.1806   2.8107  -3.2121   2.8775  -2.5695   0.00    0.0
2019/02/12 09:26:00.000   4280221.6790  -4034415.5752  -2458266.8284   5  11   4.3283   4.1797   2.8104  -3.2111   2.8768  -2.5688   0.00    0.0
2019/02/12 09:26:01.000   4280221.5057  -4034415.2725  -2458266.2966   5  11   4.3279   4.1788   2.8100  -3.2100   2.8761  -2.5681   0.00    0.0
2019/02/12 09:26:02.000   4280221.0797  -4034414.9116  -2458265.8047   5  11   4.3275   4.1779   2.8097  -3.2090   2.8753  -2.5674   0.00    0.0
2019/02/12 09:26:03.000   4280220.5903  -4034414.7300  -2458265.5388   5  11   4.3271   4.1770   2.8093  -3.2079   2.8746  -2.5666   0.00    0.0
2019/02/12 09:26:04.000   4280220.5409  -4034414.9117  -2458265.6371   5  11   4.3267   4.1762   2.8089  -3.2069   2.8738  -2.5659   0.00    0.0
2019/02/12 09:26:05.000   4280221.0730  -4034415.6519  -2458266.1778   5  11   4.3263   4.1753   2.8086  -3.2059   2.8731  -2.5652   0.00    0.0
2019/02/12 09:26:06.000   4280221.9478  -4034416.7113  -2458266.9515   5  11   4.3259   4.1744   2.8082  -3.2048   2.8724  -2.5645   0.00    0.0
2019/02/12 09:26:07.000   4280222.9461  -4034417.7956  -2458267.9594   5  10   4.4909   4.4631   3.5567  -3.4891   3.4204  -3.0347   0.00    0.0
2019/02/12 09:26:08.000   4280223.2622  -4034417.9540  -2458267.9240   5  10   4.4905   4.4623   3.5566  -3.4882   3.4198  -3.0341   0.00    0.0
2019/02/12 09:26:09.000   4280223.0714  -4034417.4348  -2458267.2820   5  11   4.3247   4.1718   2.8071  -3.2017   2.8702  -2.5623   0.00    0.0
2019/02/12 09:26:10.000   4280223.2159  -4034417.4076  -2458267.3073   5  11   4.3243   4.1709   2.8068  -3.2007   2.8694  -2.5616   0.00    0.0
2019/02/12 09:26:11.000   4280223.0704  -4034417.3828  -2458267.2016   5  11   4.3239   4.1700   2.8064  -3.1997   2.8687  -2.5609   0.00    0.0
2019/02/12 09:26:26.000   4280222.3593  -4034416.9466  -2458267.0184   5  11   4.3178   4.1569   2.8011  -3.1842   2.8577  -2.5502   0.00    0.0
2019/02/12 09:26:27.000   4280222.2687  -4034417.1664  -2458267.1765   5  11   4.3174   4.1560   2.8007  -3.1832   2.8570  -2.5495   0.00    0.0
2019/02/12 09:26:28.000   4280222.1037  -4034417.2503  -2458267.2756   5  11   4.3170   4.1552   2.8004  -3.1822   2.8563  -2.5488   0.00    0.0
2019/02/12 09:26:31.000   4280222.2188  -4034416.3606  -2458267.3998   5  11   4.3158   4.1526   2.7993  -3.1791   2.8541  -2.5467   0.00    0.0
2019/02/12 09:26:32.000   4280222.0102  -4034415.7069  -2458267.2825   5  11   4.3154   4.1517   2.7989  -3.1780   2.8534  -2.5459   0.00    0.0
2019/02/12 09:26:33.000   4280221.6640  -4034415.2551  -2458267.1934   5  11   4.3150   4.1508   2.7986  -3.1770   2.8527  -2.5452   0.00    0.0
2019/02/12 09:26:34.000   4280221.4785  -4034415.0883  -2458267.1577   5  11   4.3146   4.1500   2.7982  -3.1760   2.8519  -2.5445   0.00    0.0
2019/02/12 09:26:35.000   4280221.3165  -4034414.9824  -2458267.0677   5  11   4.3142   4.1491   2.7979  -3.1750   2.8512  -2.5438   0.00    0.0
2019/02/12 09:26:36.000   4280221.2599  -4034414.7404  -2458267.0362   5  11   4.3138   4.1482   2.7975  -3.1739   2.8505  -2.5431   0.00    0.0
2019/02/12 09:26:37.000   4280221.3596  -4034414.4214  -2458267.1021   5  11   4.3134   4.1474   2.7972  -3.1729   2.8497  -2.5424   0.00    0.0
2019/02/12 09:26:38.000   4280220.9048  -4034412.5514  -2458266.8696   5  10   4.5069   5.4636   2.9299  -3.8358   3.3501  -2.7572   0.00    0.0
2019/02/12 09:26:39.000   4280221.9115  -4034414.2994  -2458267.4922   5  11   4.3126   4.1456   2.7965  -3.1709   2.8483  -2.5410   0.00    0.0
2019/02/12 09:26:40.000   4280222.0976  -4034414.1911  -2458267.5190   5  11   4.3122   4.1448   2.7961  -3.1698   2.8476  -2.5403   0.00    0.0
2019/02/12 09:26:41.000   4280222.3042  -4034414.0668  -2458267.5955   5  11   4.3118   4.1439   2.7958  -3.1688   2.8468  -2.5395   0.00    0.0
2019/02/12 09:26:42.000   4280222.5197  -4034413.9280  -2458267.5534   5  11   4.3114   4.1431   2.7954  -3.1678   2.8461  -2.5388   0.00    0.0
2019/02/12 09:26:43.000   4280222.4784  -4034413.6738  -2458267.3164   5  11   4.3110   4.1422   2.7951  -3.1668   2.8454  -2.5381   0.00    0.0
2019/02/12 09:26:44.000   4280221.9560  -4034413.1873  -2458267.0971   5  11   4.3106   4.1413   2.7947  -3.1657   2.8447  -2.5374   0.00    0.0
2019/02/12 09:26:45.000   4280221.5045  -4034412.6486  -2458266.8706   5  11   4.3102   4.1405   2.7944  -3.1647   2.8439  -2.5367   0.00    0.0
2019/02/12 09:26:46.000   4280221.3914  -4034412.5473  -2458266.8902   5  11   4.3098   4.1396   2.7940  -3.1637   2.8432  -2.5360   0.00    0.0
2019/02/12 09:26:47.000   4280221.3400  -4034412.7372  -2458267.1436   5  11   4.3095   4.1388   2.7937  -3.1627   2.8425  -2.5353   0.00    0.0
2019/02/12 09:26:48.000   4280222.0908  -4034413.7006  -2458267.7394   5  10   4.5304   4.2745   2.8868  -3.3905   2.9761  -2.7282   0.00    0.0
2019/02/12 09:26:49.000   4280219.3016  -4034411.6869  -2458266.2866   5  11   4.3087   4.1370   2.7930  -3.1606   2.8411  -2.5339   0.00    0.0
2019/02/12 09:26:50.000   4280223.2458  -4034414.6994  -2458268.1623   5  11   4.3083   4.1362   2.7926  -3.1596   2.8403  -2.5331   0.00    0.0
2019/02/12 09:26:51.000   4280221.1774  -4034413.2704  -2458267.0310   5  11   4.3079   4.1353   2.7923  -3.1586   2.8396  -2.5324   0.00    0.0
2019/02/12 09:26:52.000   4280217.9537  -4034411.1592  -2458265.4437   5  11   4.3075   4.1345   2.7919  -3.1575   2.8389  -2.5317   0.00    0.0
2019/02/12 09:26:53.000   4280224.2583  -4034416.3534  -2458268.7423   5  11   4.3071   4.1336   2.7916  -3.1565   2.8382  -2.5310   0.00    0.0
2019/02/12 09:26:54.000   4280224.7078  -4034417.1504  -2458269.0284   5  11   4.3067   4.1327   2.7912  -3.1555   2.8374  -2.5303   0.00    0.0
2019/02/12 09:26:55.000   4280220.7666  -4034414.2813  -2458266.9690   5  11   4.3063   4.1319   2.7909  -3.1545   2.8367  -2.5296   0.00    0.0
2019/02/12 09:26:56.000   4280219.4032  -4034413.3628  -2458266.2105   5  11   4.3059   4.1310   2.7905  -3.1534   2.8360  -2.5289   0.00    0.0
2019/02/12 09:26:57.000   4280220.1346  -4034414.0406  -2458266.6381   5  11   4.3055   4.1302   2.7902  -3.1524   2.8353  -2.5282   0.00    0.0
2019/02/12 09:27:08.000   4280218.0437  -4034413.8960  -2458265.1684   5  11   4.3012   4.1208   2.7863  -3.1412   2.8274  -2.5204   0.00    0.0
2019/02/12 09:27:09.000   4280218.7555  -4034414.4762  -2458265.5882   5  11   4.3008   4.1199   2.7860  -3.1402   2.8267  -2.5197   0.00    0.0
2019/02/12 09:27:10.000   4280219.4665  -4034415.0286  -2458265.9610   5  11   4.3004   4.1191   2.7856  -3.1391   2.8259  -2.5190   0.00    0.0
2019/02/12 09:27:11.000   4280219.8162  -4034415.3874  -2458266.2414   5  11   4.3001   4.1182   2.7853  -3.1381   2.8252  -2.5183   0.00    0.0
2019/02/12 09:27:12.000   4280219.8476  -4034415.6639  -2458266.3599   5  11   4.2997   4.1174   2.7850  -3.1371   2.8245  -2.5176   0.00    0.0
2019/02/12 09:27:13.000   4280219.7176  -4034415.6632  -2458266.4881   5  11   4.2993   4.1165   2.7846  -3.1361   2.8238  -2.5169   0.00    0.0
2019/02/12 09:27:14.000   4280219.6265  -4034415.8142  -2458266.6258   5  11   4.2989   4.1157   2.7843  -3.1351   2.8231  -2.5161   0.00    0.0
2019/02/12 09:27:15.000   4280219.5642  -4034415.8729  -2458266.6847   5  11   4.2985   4.1149   2.7839  -3.1340   2.8224  -2.5154   0.00    0.0
2019/02/12 09:27:16.000   4280219.7877  -4034416.3036  -2458266.7794   5  11   4.2981   4.1140   2.7836  -3.1330   2.8216  -2.5147   0.00    0.0
2019/02/12 09:27:17.000   4280219.9870  -4034416.6557  -2458266.7711   5  11   4.2977   4.1132   2.7832  -3.1320   2.8209  -2.5140   0.00    0.0
2019/02/12 09:27:18.000   4280220.3950  -4034417.0642  -2458266.7579   5  11   4.2973   4.1123   2.7829  -3.1310   2.8202  -2.5133   0.00    0.0
2019/02/12 09:27:19.000   4280220.5930  -4034417.3079  -2458266.7636   5  11   4.2970   4.1115   2.7825  -3.1300   2.8195  -2.5126   0.00    0.0
2019/02/12 09:27:20.000   4280220.7783  -4034417.3275  -2458266.7797   5  11   4.2966   4.1106   2.7822  -3.1290   2.8188  -2.5119   0.00    0.0
2019/02/12 09:27:21.000   4280220.7676  -4034417.2941  -2458266.8333   5  11   4.2962   4.1098   2.7819  -3.1279   2.8181  -2.5112   0.00    0.0
2019/02/12 09:27:22.000   4280220.8746  -4034417.5708  -2458266.9052   5  11   4.2958   4.1089   2.7815  -3.1269   2.8174  -2.5105   0.00    0.0
2019/02/12 09:27:23.000   4280221.0703  -4034418.0622  -2458267.1903   5  11   4.2954   4.1081   2.7812  -3.1259   2.8166  -2.5098   0.00    0.0
2019/02/12 09:27:24.000   4280221.1948  -4034418.3667  -2458267.3601   5  11   4.2950   4.1072   2.7808  -3.1249   2.8159  -2.5091   0.00    0.0
2019/02/12 09:27:25.000   4280221.0308  -4034418.5077  -2458267.3451   5  11   4.2947   4.1064   2.7805  -3.1239   2.8152  -2.5084   0.00    0.0
2019/02/12 09:27:26.000   4280221.0429  -4034418.5040  -2458267.2270   5  11   4.2943   4.1056   2.7801  -3.1228   2.8145  -2.5077   0.00    0.0
2019/02/12 09:27:27.000   4280220.6291  -4034418.1762  -2458266.9190   5  11   4.2939   4.1047   2.7798  -3.1218   2.8138  -2.5070   0.00    0.0
2019/02/12 09:27:28.000   4280220.4461  -4034418.0866  -2458266.7357   5  11   4.2935   4.1039   2.7795  -3.1208   2.8131  -2.5063   0.00    0.0
2019/02/12 09:27:29.000   4280220.4141  -4034417.8555  -2458266.5806   5  11   4.2931   4.1030   2.7791  -3.1198   2.8124  -2.5056   0.00    0.0
2019/02/12 09:27:30.000   4280220.3889  -4034417.7585  -2458266.5454   5  11   4.2927   4.1022   2.7788  -3.1188   2.8117  -2.5049   0.00    0.0
2019/02/12 09:27:31.000   4280220.6011  -4034417.9238  -2458266.6453   5  11   4.2924   4.1014   2.7784  -3.1178   2.8109  -2.5041   0.00    0.0
2019/02/12 09:27:32.000   4280220.8351  -4034418.0889  -2458266.7081   5  11   4.2920   4.1005   2.7781  -3.1168   2.8102  -2.5034   0.00    0.0
2019/02/12 09:27:33.000   4280221.0445  -4034418.2846  -2458266.8244   5  11   4.2916   4.0997   2.7778  -3.1157   2.8095  -2.5027   0.00    0.0
2019/02/12 09:27:34.000   4280221.5104  -4034418.9182  -2458267.2543   5  11   4.2912   4.0988   2.7774  -3.1147   2.8088  -2.5020   0.00    0.0
2019/02/12 09:27:35.000   4280221.8919  -4034419.4925  -2458267.6383   5  11   4.2908   4.0980   2.7771  -3.1137   2.8081  -2.5013   0.00    0.0
2019/02/12 09:27:36.000   4280222.0644  -4034419.7927  -2458267.7968   5  11   4.2905   4.0972   2.7767  -3.1127   2.8074  -2.5006   0.00    0.0
2019/02/12 09:27:37.000   4280221.7996  -4034420.1594  -2458267.9314   5  11   4.2901   4.0963   2.7764  -3.1117   2.8067  -2.4999   0.00    0.0
2019/02/12 09:27:38.000   4280221.6068  -4034420.7509  -2458268.0763   5  11   4.2897   4.0955   2.7761  -3.1107   2.8060  -2.4992   0.00    0.0
2019/02/12 09:27:39.000   4280221.5514  -4034421.2190  -2458268.1566   5  11   4.2893   4.0947   2.7757  -3.1097   2.8053  -2.4985   0.00    0.0
2019/02/12 09:27:40.000   4280221.5421  -4034421.5233  -2458268.2569   5  11   4.2889   4.0938   2.7754  -3.1086   2.8046  -2.4978   0.00    0.0
2019/02/12 09:27:41.000   4280224.9228  -4034427.0273  -2458269.9805   5  10   4.5038   4.6025   2.8687  -3.5430   3.0647  -2.6900   0.00    0.0
2019/02/12 09:27:42.000   4280221.2798  -4034421.5741  -2458267.9243   5  11   4.2882   4.0921   2.7747  -3.1066   2.8031  -2.4964   0.00    0.0
2019/02/12 09:27:43.000   4280221.6932  -4034421.8604  -2458267.9934   5  11   4.2878   4.0913   2.7744  -3.1056   2.8024  -2.4957   0.00    0.0
2019/02/12 09:27:44.000   4280221.9850  -4034421.8002  -2458268.0179   5  11   4.2874   4.0905   2.7740  -3.1046   2.8017  -2.4950   0.00    0.0
2019/02/12 09:27:45.000   4280217.5267  -4034409.4213  -2458265.1410   5  10   4.4656   5.3621   2.8968  -3.7374   3.2777  -2.6956   0.00    0.0
2019/02/12 09:27:46.000   4280217.8256  -4034409.8061  -2458265.5321   5  10   4.4650   5.3606   2.8964  -3.7359   3.2767  -2.6947   0.00    0.0
2019/02/12 09:27:47.000   4280217.7064  -4034409.9768  -2458265.5620   5  10   4.4644   5.3591   2.8959  -3.7345   3.2756  -2.6938   0.00    0.0
2019/02/12 09:27:48.000   4280217.8004  -4034410.4258  -2458265.5868   5  10   4.4638   5.3576   2.8954  -3.7330   3.2746  -2.6929   0.00    0.0
2019/02/12 09:27:49.000   4280217.6988  -4034410.6491  -2458265.4861   5  10   4.4632   5.3561   2.8949  -3.7316   3.2735  -2.6920   0.00    0.0
2019/02/12 09:27:50.000   4280217.5310  -4034410.8580  -2458265.3639   5  10   4.4626   5.3546   2.8944  -3.7301   3.2725  -2.6911   0.00    0.0
2019/02/12 09:27:51.000   4280217.4855  -4034410.5136  -2458265.2613   5  10   4.4620   5.3532   2.8940  -3.7287   3.2714  -2.6902   0.00    0.0
2019/02/12 09:27:52.000   4280217.5748  -4034410.0555  -2458265.2222   5  10   4.4614   5.3517   2.8935  -3.7272   3.2703  -2.6892   0.00    0.0
2019/02/12 09:27:53.000   4280217.4086  -4034409.3149  -2458265.0479   5  10   4.4608   5.3502   2.8930  -3.7258   3.2693  -2.6883   0.00    0.0
2019/02/12 09:27:54.000   4280217.0207  -4034408.7679  -2458264.8865   5  10   4.4603   5.3487   2.8925  -3.7243   3.2682  -2.6874   0.00    0.0
2019/02/12 09:27:55.000   4280216.8231  -4034408.6111  -2458264.6878   5  10   4.4597   5.3473   2.8920  -3.7229   3.2672  -2.6865   0.00    0.0
2019/02/12 09:27:56.000   4280216.6858  -4034408.4000  -2458264.4800   5  10   4.4591   5.3458   2.8916  -3.7214   3.2661  -2.6856   0.00    0.0
2019/02/12 09:27:57.000   4280216.8756  -4034408.5238  -2458264.5369   5  10   4.4585   5.3443   2.8911  -3.7200   3.2651  -2.6847   0.00    0.0
2019/02/12 09:27:58.000   4280217.2262  -4034408.6427  -2458264.5275   5  10   4.4579   5.3428   2.8906  -3.7185   3.2640  -2.6838   0.00    0.0
2019/02/12 09:27:59.000   4280217.7145  -4034409.0454  -2458264.8103   5  10   4.4573   5.3414   2.8901  -3.7171   3.2630  -2.6829   0.00    0.0
2019/02/12 09:28:00.000   4280217.7091  -4034409.2437  -2458264.8515   5  10   4.4567   5.3399   2.8897  -3.7157   3.2619  -2.6820   0.00    0.0
2019/02/12 09:28:01.000   4280217.2446  -4034409.1244  -2458264.5407   5  10   4.4561   5.3384   2.8892  -3.7142   3.2608  -2.6811   0.00    0.0
2019/02/12 09:28:02.000   4280217.0589  -4034408.9821  -2458264.4183   5  10   4.4555   5.3370   2.8887  -3.7128   3.2598  -2.6802   0.00    0.0
2019/02/12 09:28:03.000   4280216.9710  -4034408.9322  -2458264.2684   5  10   4.4549   5.3355   2.8882  -3.7113   3.2587  -2.6793   0.00    0.0
2019/02/12 09:28:04.000   4280217.2811  -4034409.2257  -2458264.3735   5  10   4.4543   5.3340   2.8878  -3.7099   3.2577  -2.6784   0.00    0.0
2019/02/12 09:28:05.000   4280217.9226  -4034409.4974  -2458264.6787   5  10   4.4538   5.3326   2.8873  -3.7085   3.2566  -2.6775   0.00    0.0
2019/02/12 09:28:06.000   4280218.3199  -4034409.9376  -2458265.0751   5  10   4.4532   5.3311   2.8868  -3.7070   3.2556  -2.6766   0.00    0.0
2019/02/12 09:28:07.000   4280218.8137  -4034410.2125  -2458265.5422   5  10   4.4526   5.3296   2.8863  -3.7056   3.2545  -2.6757   0.00    0.0
2019/02/12 09:28:08.000   4280219.1364  -4034410.5077  -2458265.8577   5  10   4.4520   5.3282   2.8859  -3.7041   3.2535  -2.6748   0.00    0.0
2019/02/12 09:28:09.000   4280219.0740  -4034410.6456  -2458265.8832   5  10   4.4514   5.3267   2.8854  -3.7027   3.2525  -2.6739   0.00    0.0
2019/02/12 09:28:13.000   4280217.3538  -4034409.2424  -2458263.4941   5  10   4.4491   5.3209   2.8835  -3.6970   3.2483  -2.6703   0.00    0.0
2019/02/12 09:29:01.000   4280216.1395  -4034412.0815  -2458265.1267   5  10   4.4217   5.2520   2.8613  -3.6288   3.1987  -2.6275   0.00    0.0
2019/02/12 09:29:02.000   4280215.9248  -4034411.7846  -2458265.0343   5  10   4.4211   5.2506   2.8609  -3.6273   3.1977  -2.6266   0.00    0.0
2019/02/12 09:29:03.000   4280215.9176  -4034411.8058  -2458265.1384   5  10   4.4206   5.2492   2.8604  -3.6259   3.1967  -2.6257   0.00    0.0
2019/02/12 09:29:04.000   4280215.5999  -4034411.9834  -2458265.2790   5  10   4.4200   5.2478   2.8600  -3.6245   3.1957  -2.6249   0.00    0.0
2019/02/12 09:29:05.000   4280215.4175  -4034412.1345  -2458265.3663   5  10   4.4195   5.2464   2.8595  -3.6231   3.1947  -2.6240   0.00    0.0
2019/02/12 09:29:08.000   4280216.0252  -4034412.4968  -2458265.0053   5  10   4.4178   5.2422   2.8582  -3.6189   3.1916  -2.6213   0.00    0.0
2019/02/12 09:29:09.000   4280216.5170  -4034412.7933  -2458264.9638   5  10   4.4172   5.2408   2.8577  -3.6175   3.1906  -2.6205   0.00    0.0
2019/02/12 09:29:10.000   4280217.1268  -4034413.2074  -2458265.2118   5  10   4.4167   5.2394   2.8573  -3.6161   3.1896  -2.6196   0.00    0.0
2019/02/12 09:29:11.000   4280217.6398  -4034413.4173  -2458265.2876   5  10   4.4161   5.2379   2.8568  -3.6147   3.1886  -2.6187   0.00    0.0
2019/02/12 09:29:12.000   4280217.9288  -4034413.4306  -2458265.1551   5  10   4.4156   5.2365   2.8564  -3.6133   3.1876  -2.6178   0.00    0.0
2019/02/12 09:29:13.000   4280218.1324  -4034413.2587  -2458264.8580   5  10   4.4150   5.2351   2.8559  -3.6119   3.1866  -2.6169   0.00    0.0
2019/02/12 09:29:14.000   4280218.1779  -4034413.4182  -2458264.9158   5  10   4.4145   5.2337   2.8555  -3.6105   3.1855  -2.6160   0.00    0.0
2019/02/12 09:29:15.000   4280218.5331  -4034413.7263  -2458265.0909   5  10   4.4139   5.2323   2.8550  -3.6091   3.1845  -2.6152   0.00    0.0
2019/02/12 09:29:16.000   4280218.6974  -4034413.8596  -2458265.2211   5  10   4.4134   5.2309   2.8546  -3.6077   3.1835  -2.6143   0.00    0.0
2019/02/12 09:29:17.000   4280219.0573  -4034413.9185  -2458265.4295   5  10   4.4128   5.2295   2.8542  -3.6063   3.1825  -2.6134   0.00    0.0
2019/02/12 09:29:27.000   4280223.4345  -4034425.0343  -2458267.5732   5  11   4.2501   4.0071   2.7404  -3.0015   2.7303  -2.4232   0.00    0.0
2019/02/12 09:29:28.000   4280224.0740  -4034426.8685  -2458268.0752   5  11   4.2497   4.0063   2.7401  -3.0005   2.7296  -2.4225   0.00    0.0
2019/02/12 09:29:29.000   4280223.4470  -4034425.7430  -2458267.6905   5  11   4.2494   4.0055   2.7398  -2.9995   2.7289  -2.4218   0.00    0.0
2019/02/12 09:29:30.000   4280222.7399  -4034424.2185  -2458267.1245   5  11   4.2490   4.0047   2.7394  -2.9986   2.7283  -2.4211   0.00    0.0
2019/02/12 09:29:31.000   4280221.2388  -4034421.0249  -2458266.0387   5  11   4.2487   4.0039   2.7391  -2.9976   2.7276  -2.4205   0.00    0.0
2019/02/12 09:29:32.000   4280220.1676  -4034419.4024  -2458265.4435   5  11   4.2484   4.0031   2.7388  -2.9966   2.7269  -2.4198   0.00    0.0
2019/02/12 09:29:33.000   4280219.7399  -4034419.3494  -2458265.3974   5  11   4.2480   4.0024   2.7385  -2.9956   2.7262  -2.4191   0.00    0.0
2019/02/12 09:29:34.000   4280220.4958  -4034421.6075  -2458266.0862   5  11   4.2477   4.0016   2.7382  -2.9946   2.7256  -2.4184   0.00    0.0
2019/02/12 09:29:35.000   4280221.3227  -4034423.8798  -2458266.6883   5  11   4.2473   4.0008   2.7379  -2.9936   2.7249  -2.4177   0.00    0.0
2019/02/12 09:29:36.000   4280221.5868  -4034424.4076  -2458266.7416   5  11   4.2470   4.0000   2.7376  -2.9926   2.7242  -2.4170   0.00    0.0
2019/02/12 09:29:37.000   4280221.7341  -4034424.3092  -2458266.5991   5  11   4.2466   3.9992   2.7372  -2.9916   2.7235  -2.4163   0.00    0.0
2019/02/12 09:29:38.000   4280221.8123  -4034424.1522  -2458266.5569   5  11   4.2463   3.9985   2.7369  -2.9907   2.7229  -2.4156   0.00    0.0
2019/02/12 09:29:39.000   4280221.8528  -4034424.3944  -2458266.7859   5  11   4.2459   3.9977   2.7366  -2.9897   2.7222  -2.4149   0.00    0.0
2019/02/12 09:29:40.000   4280222.0899  -4034424.6151  -2458266.9781   5  11   4.2456   3.9969   2.7363  -2.9887   2.7215  -2.4142   0.00    0.0
2019/02/12 09:29:41.000   4280222.0248  -4034425.0872  -2458267.1365   5  11   4.2453   3.9961   2.7360  -2.9877   2.7208  -2.4136   0.00    0.0
2019/02/12 09:29:42.000   4280221.5376  -4034425.2378  -2458267.1812   5  11   4.2449   3.9953   2.7357  -2.9867   2.7201  -2.4129   0.00    0.0
2019/02/12 09:29:43.000   4280221.1745  -4034425.2997  -2458267.2547   5  11   4.2446   3.9946   2.7354  -2.9857   2.7195  -2.4122   0.00    0.0
2019/02/12 09:29:44.000   4280221.5385  -4034425.3451  -2458267.4821   5  11   4.2442   3.9938   2.7351  -2.9847   2.7188  -2.4115   0.00    0.0
2019/02/12 09:29:45.000   4280221.7684  -4034425.4387  -2458267.6749   5  11   4.2439   3.9930   2.7348  -2.9838   2.7181  -2.4108   0.00    0.0
2019/02/12 09:29:46.000   4280221.9039  -4034425.5744  -2458267.8020   5  11   4.2436   3.9922   2.7344  -2.9828   2.7175  -2.4101   0.00    0.0
2019/02/12 09:29:47.000   4280222.0399  -4034425.8005  -2458267.9808   5  11   4.2432   3.9914   2.7341  -2.9818   2.7168  -2.4094   0.00    0.0
2019/02/12 09:29:48.000   4280222.2569  -4034425.8782  -2458267.9672   5  11   4.2429   3.9907   2.7338  -2.9808   2.7161  -2.4087   0.00    0.0
2019/02/12 09:29:49.000   4280222.2356  -4034425.8078  -2458267.7534   5  11   4.2425   3.9899   2.7335  -2.9798   2.7154  -2.4081   0.00    0.0
2019/02/12 09:29:50.000   4280222.3657  -4034425.7797  -2458267.5938   5  11   4.2422   3.9891   2.7332  -2.9788   2.7148  -2.4074   0.00    0.0
2019/02/12 09:29:51.000   4280222.6351  -4034425.8320  -2458267.6165   5  11   4.2419   3.9883   2.7329  -2.9779   2.7141  -2.4067   0.00    0.0
2019/02/12 09:29:52.000   4280223.2948  -4034426.1187  -2458267.8542   5  11   4.2415   3.9876   2.7326  -2.9769   2.7134  -2.4060   0.00    0.0
2019/02/12 09:29:53.000   4280223.6813  -4034425.9889  -2458267.7783   5  11   4.2412   3.9868   2.7323  -2.9759   2.7127  -2.4053   0.00    0.0
2019/02/12 09:29:54.000   4280223.7191  -4034425.5912  -2458267.5455   5  11   4.2408   3.9860   2.7320  -2.9749   2.7121  -2.4046   0.00    0.0
2019/02/12 09:29:55.000   4280223.8291  -4034425.5374  -2458267.5461   5  11   4.2405   3.9852   2.7317  -2.9739   2.7114  -2.4039   0.00    0.0
2019/02/12 09:29:56.000   4280223.8842  -4034425.8579  -2458267.7696   5  11   4.2402   3.9845   2.7313  -2.9729   2.7107  -2.4032   0.00    0.0
2019/02/12 09:29:57.000   4280223.8214  -4034426.3294  -2458268.0439   5  11   4.2398   3.9837   2.7310  -2.9720   2.7101  -2.4026   0.00    0.0
2019/02/12 09:29:58.000   4280223.9010  -4034426.8697  -2458268.2769   5  11   4.2395   3.9829   2.7307  -2.9710   2.7094  -2.4019   0.00    0.0
2019/02/12 09:29:59.000   4280224.0245  -4034427.4425  -2458268.5313   5  11   4.2392   3.9822   2.7304  -2.9700   2.7087  -2.4012   0.00    0.0
2019/02/12 09:30:00.000   4280224.1972  -4034427.4657  -2458268.6844   5  11   4.2388   3.9814   2.7301  -2.9690   2.7080  -2.4005   0.00    0.0
2019/02/12 09:30:01.000   4280223.8246  -4034427.1876  -2458268.5710   5  11   4.2385   3.9806   2.7298  -2.9680   2.7074  -2.3998   0.00    0.0
2019/02/12 09:30:02.000   4280223.2024  -4034426.6710  -2458268.3706   5  11   4.2381   3.9798   2.7295  -2.9670   2.7067  -2.3991   0.00    0.0
2019/02/12 09:30:03.000   4280222.4711  -4034426.0239  -2458268.0587   5  11   4.2378   3.9791   2.7292  -2.9661   2.7060  -2.3984   0.00    0.0
2019/02/12 09:30:04.000   4280218.3513  -4034414.6276  -2458265.4806   5  10   4.3876   5.1649   2.8336  -3.5412   3.1357  -2.5725   0.00    0.0
2019/02/12 09:30:05.000   4280218.1398  -4034414.4647  -2458265.5003   5  10   4.3871   5.1635   2.8331  -3.5398   3.1347  -2.5716   0.00    0.0
2019/02/12 09:30:06.000   4280218.2603  -4034414.2628  -2458265.3912   5  10   4.3866   5.1622   2.8327  -3.5384   3.1337  -2.5707   0.00    0.0
2019/02/12 09:30:07.000   4280218.5704  -4034414.2715  -2458265.2046   5  10   4.3860   5.1608   2.8323  -3.5371   3.1327  -2.5699   0.00    0.0
2019/02/12 09:30:08.000   4280218.9904  -4034414.6392  -2458265.2197   5  10   4.3855   5.1595   2.8318  -3.5357   3.1317  -2.5690   0.00    0.0
2019/02/12 09:30:09.000   4280219.0285  -4034414.6895  -2458265.2795   5  10   4.3850   5.1581   2.8314  -3.5343   3.1307  -2.5681   0.00    0.0
2019/02/12 09:30:10.000   4280218.4351  -4034414.5375  -2458265.3872   5  10   4.3845   5.1568   2.8310  -3.5330   3.1298  -2.5673   0.00    0.0
2019/02/12 09:30:11.000   4280217.5313  -4034414.1882  -2458265.5614   5  10   4.3840   5.1554   2.8306  -3.5316   3.1288  -2.5664   0.00    0.0
2019/02/12 09:30:12.000   4280216.5277  -4034413.5691  -2458265.5135   5  10   4.3834   5.1541   2.8301  -3.5302   3.1278  -2.5656   0.00    0.0
2019/02/12 09:30:13.000   4280215.8439  -4034413.0979  -2458265.5488   5  10   4.3829   5.1527   2.8297  -3.5288   3.1268  -2.5647   0.00    0.0
2019/02/12 09:30:14.000   4280215.7887  -4034413.0262  -2458265.4868   5  10   4.3824   5.1514   2.8293  -3.5275   3.1258  -2.5638   0.00    0.0
2019/02/12 09:30:15.000   4280215.7427  -4034413.0647  -2458265.3521   5  10   4.3819   5.1500   2.8289  -3.5261   3.1249  -2.5630   0.00    0.0
2019/02/12 09:30:16.000   4280215.8589  -4034413.0161  -2458265.1849   5  10   4.3814   5.1487   2.8284  -3.5247   3.1239  -2.5621   0.00    0.0
2019/02/12 09:30:17.000   4280215.9121  -4034412.9623  -2458265.0199   5  10   4.3808   5.1474   2.8280  -3.5234   3.1229  -2.5613   0.00    0.0
2019/02/12 09:30:18.000   4280216.1913  -4034412.9260  -2458264.8261   5  10   4.3803   5.1460   2.8276  -3.5220   3.1219  -2.5604   0.00    0.0
2019/02/12 09:30:19.000   4280216.7614  -4034413.3137  -2458264.6177   5  10   4.3798   5.1447   2.8272  -3.5207   3.1210  -2.5595   0.00    0.0
2019/02/12 09:30:20.000   4280217.3277  -4034413.3867  -2458264.6230   5  10   4.3793   5.1433   2.8267  -3.5193   3.1200  -2.5587   0.00    0.0
2019/02/12 09:30:21.000   4280217.6630  -4034413.5760  -2458264.7944   5  10   4.3788   5.1420   2.8263  -3.5179   3.1190  -2.5578   0.00    0.0
2019/02/12 09:30:22.000   4280217.5099  -4034413.6327  -2458265.0062   5  10   4.3783   5.1407   2.8259  -3.5166   3.1180  -2.5570   0.00    0.0
2019/02/12 09:30:23.000   4280217.0264  -4034413.5675  -2458264.9800   5  10   4.3778   5.1393   2.8255  -3.5152   3.1171  -2.5561   0.00    0.0
2019/02/12 09:30:24.000   4280216.5266  -4034413.4860  -2458264.7128   5  10   4.3772   5.1380   2.8250  -3.5138   3.1161  -2.5552   0.00    0.0
2019/02/12 09:30:25.000   4280216.8662  -4034413.7337  -2458264.6163   5  10   4.3767   5.1366   2.8246  -3.5125   3.1151  -2.5544   0.00    0.0
2019/02/12 09:30:26.000   4280217.5793  -4034414.1236  -2458264.7629   5  10   4.3762   5.1353   2.8242  -3.5111   3.1141  -2.5535   0.00    0.0
2019/02/12 09:30:27.000   4280218.2073  -4034414.3760  -2458264.9311   5  10   4.3757   5.1340   2.8238  -3.5098   3.1132  -2.5527   0.00    0.0
2019/02/12 09:30:28.000   4280218.9299  -4034414.8193  -2458265.3396   5  10   4.3752   5.1326   2.8234  -3.5084   3.1122  -2.5518   0.00    0.0
2019/02/12 09:30:29.000   4280219.1091  -4034415.0328  -2458265.6631   5  10   4.3747   5.1313   2.8229  -3.5070   3.1112  -2.5510   0.00    0.0
2019/02/12 09:30:30.000   4280218.8457  -4034414.9023  -2458265.6899   5  10   4.3742   5.1300   2.8225  -3.5057   3.1103  -2.5501   0.00    0.0
2019/02/12 09:30:31.000   4280218.7697  -4034415.1379  -2458265.9007   5  10   4.3737   5.1287   2.8221  -3.5043   3.1093  -2.5492   0.00    0.0
2019/02/12 09:30:32.000   4280218.6121  -4034415.2921  -2458265.9512   5  10   4.3731   5.1273   2.8217  -3.5030   3.1083  -2.5484   0.00    0.0
2019/02/12 09:30:33.000   4280218.2802  -4034415.3705  -2458265.9438   5  10   4.3726   5.1260   2.8213  -3.5016   3.1073  -2.5475   0.00    0.0
2019/02/12 09:30:34.000   4280218.1127  -4034415.3765  -2458265.8150   5  10   4.3721   5.1247   2.8208  -3.5002   3.1064  -2.5467   0.00    0.0
2019/02/12 09:30:35.000   4280217.9305  -4034415.0822  -2458265.6697   5  10   4.3716   5.1233   2.8204  -3.4989   3.1054  -2.5458   0.00    0.0
2019/02/12 09:30:36.000   4280217.4494  -4034414.9503  -2458265.5960   5  10   4.3711   5.1220   2.8200  -3.4975   3.1044  -2.5450   0.00    0.0
2019/02/12 09:30:37.000   4280217.3309  -4034414.9071  -2458265.6001   5  10   4.3706   5.1207   2.8196  -3.4962   3.1035  -2.5441   0.00    0.0
2019/02/12 09:30:38.000   4280217.4661  -4034414.9663  -2458265.6481   5  10   4.3701   5.1194   2.8192  -3.4948   3.1025  -2.5433   0.00    0.0
2019/02/12 09:30:39.000   4280217.5349  -4034414.9280  -2458265.6982   5  10   4.3696   5.1180   2.8188  -3.4935   3.1015  -2.5424   0.00    0.0
2019/02/12 09:30:40.000   4280217.8132  -4034414.7904  -2458265.6798   5  10   4.3691   5.1167   2.8183  -3.4921   3.1006  -2.5416   0.00    0.0
2019/02/12 09:30:41.000   4280218.0323  -4034414.5799  -2458265.6424   5  10   4.3686   5.1154   2.8179  -3.4908   3.0996  -2.5407   0.00    0.0
2019/02/12 09:30:42.000   4280218.3866  -4034414.4229  -2458265.6123   5  10   4.3681   5.1141   2.8175  -3.4894   3.0987  -2.5399   0.00    0.0
2019/02/12 09:30:43.000   4280218.6671  -4034414.4360  -2458265.5771   5  10   4.3676   5.1128   2.8171  -3.4881   3.0977  -2.5390   0.00    0.0
2019/02/12 09:30:44.000   4280218.6958  -4034414.4491  -2458265.5409   5  10   4.3671   5.1114   2.8167  -3.4867   3.0967  -2.5381   0.00    0.0
2019/02/12 09:30:45.000   4280218.8928  -4034415.0567  -2458265.7006   5  10   4.3666   5.1101   2.8163  -3.4854   3.0958  -2.5373   0.00    0.0
2019/02/12 09:30:46.000   4280218.9986  -4034415.5344  -2458265.8404   5  10   4.3661   5.1088   2.8158  -3.4840   3.0948  -2.5364   0.00    0.0
2019/02/12 09:30:47.000   4280219.2685  -4034415.7727  -2458265.9429   5  10   4.3656   5.1075   2.8154  -3.4827   3.0938  -2.5356   0.00    0.0
2019/02/12 09:30:48.000   4280219.6424  -4034415.7043  -2458265.9095   5  10   4.3651   5.1062   2.8150  -3.4813   3.0929  -2.5347   0.00    0.0
2019/02/12 09:30:49.000   4280220.0346  -4034416.1051  -2458265.9781   5  10   4.3646   5.1049   2.8146  -3.4800   3.0919  -2.5339   0.00    0.0
2019/02/12 09:30:50.000   4280219.8689  -4034416.2498  -2458265.9056   5  10   4.3641   5.1035   2.8142  -3.4786   3.0910  -2.5330   0.00    0.0
2019/02/12 09:30:51.000   4280219.8020  -4034416.2911  -2458265.8300   5  10   4.3636   5.1022   2.8138  -3.4773   3.0900  -2.5322   0.00    0.0
2019/02/12 09:30:52.000   4280220.0366  -4034416.3080  -2458265.8393   5  10   4.3631   5.1009   2.8134  -3.4759   3.0890  -2.5313   0.00    0.0
2019/02/12 09:30:53.000   4280220.1552  -4034416.5586  -2458266.0115   5  10   4.3626   5.0996   2.8130  -3.4746   3.0881  -2.5305   0.00    0.0
2019/02/12 09:30:54.000   4280219.9848  -4034416.5934  -2458266.1266   5  10   4.3621   5.0983   2.8125  -3.4732   3.0871  -2.5296   0.00    0.0
2019/02/12 09:30:55.000   4280219.6319  -4034416.3401  -2458266.1885   5  10   4.3616   5.0970   2.8121  -3.4719   3.0862  -2.5288   0.00    0.0
2019/02/12 09:30:56.000   4280219.5625  -4034415.8496  -2458266.1137   5  10   4.3611   5.0957   2.8117  -3.4705   3.0852  -2.5280   0.00    0.0
2019/02/12 09:30:57.000   4280219.7698  -4034415.2987  -2458265.9234   5  10   4.3606   5.0944   2.8113  -3.4692   3.0843  -2.5271   0.00    0.0
2019/02/12 09:30:58.000   4280219.8953  -4034415.1528  -2458265.9915   5  10   4.3601   5.0931   2.8109  -3.4679   3.0833  -2.5263   0.00    0.0
2019/02/12 09:30:59.000   4280220.0554  -4034415.2281  -2458266.0452   5  10   4.3596   5.0918   2.8105  -3.4665   3.0823  -2.5254   0.00    0.0
2019/02/12 09:31:00.000   4280220.3713  -4034415.3315  -2458266.1908   5  10   4.3591   5.0905   2.8101  -3.4652   3.0814  -2.5246   0.00    0.0
2019/02/12 09:31:01.000   4280220.6619  -4034415.4029  -2458266.3140   5  10   4.3586   5.0892   2.8097  -3.4638   3.0804  -2.5237   0.00    0.0
2019/02/12 09:31:06.000   4280220.1688  -4034415.0273  -2458266.1831   5  10   4.3561   5.0827   2.8076  -3.4571   3.0757  -2.5195   0.00    0.0
2019/02/12 09:31:07.000   4280220.0760  -4034414.6829  -2458266.0074   5  10   4.3556   5.0814   2.8072  -3.4558   3.0747  -2.5186   0.00    0.0
2019/02/12 09:31:14.000   4280221.8113  -4034416.4501  -2458266.8528   5  10   4.3522   5.0723   2.8044  -3.4464   3.0681  -2.5127   0.00    0.0
2019/02/12 09:31:15.000   4280221.6982  -4034416.5573  -2458266.7613   5  10   4.3517   5.0710   2.8040  -3.4451   3.0671  -2.5119   0.00    0.0
2019/02/12 09:31:16.000   4280221.6126  -4034416.4809  -2458266.4665   5  10   4.3513   5.0697   2.8036  -3.4438   3.0662  -2.5111   0.00    0.0
2019/02/12 09:31:17.000   4280221.3239  -4034416.1953  -2458266.1049   5  10   4.3508   5.0684   2.8032  -3.4424   3.0653  -2.5102   0.00    0.0
2019/02/12 09:31:18.000   4280221.0499  -4034415.6933  -2458265.7969   5  10   4.3503   5.0671   2.8028  -3.4411   3.0643  -2.5094   0.00    0.0
2019/02/12 09:31:19.000   4280220.6810  -4034415.2391  -2458265.6098   5  10   4.3498   5.0658   2.8024  -3.4398   3.0634  -2.5085   0.00    0.0
2019/02/12 09:31:20.000   4280220.6658  -4034414.6520  -2458265.2561   5  10   4.3493   5.0646   2.8020  -3.4384   3.0624  -2.5077   0.00    0.0
2019/02/12 09:31:21.000   4280221.1639  -4034414.5839  -2458265.3957   5  10   4.3488   5.0633   2.8016  -3.4371   3.0615  -2.5068   0.00    0.0
2019/02/12 09:31:22.000   4280221.8049  -4034415.1213  -2458265.6079   5  10   4.3483   5.0620   2.8012  -3.4358   3.0605  -2.5060   0.00    0.0
2019/02/12 09:31:23.000   4280222.2057  -4034415.5873  -2458265.8955   5  10   4.3479   5.0607   2.8008  -3.4344   3.0596  -2.5052   0.00    0.0
2019/02/12 09:31:24.000   4280222.1329  -4034416.2043  -2458266.3096   5  10   4.3474   5.0594   2.8004  -3.4331   3.0586  -2.5043   0.00    0.0
2019/02/12 09:31:25.000   4280221.7478  -4034416.5511  -2458266.7787   5  10   4.3469   5.0581   2.8000  -3.4318   3.0577  -2.5035   0.00    0.0
2019/02/12 09:31:26.000   4280221.0124  -4034416.2572  -2458266.6934   5  10   4.3464   5.0569   2.7996  -3.4305   3.0568  -2.5026   0.00    0.0
2019/02/12 09:31:27.000   4280220.3840  -4034415.9889  -2458266.4473   5  10   4.3459   5.0556   2.7992  -3.4291   3.0558  -2.5018   0.00    0.0
2019/02/12 09:31:28.000   4280220.2674  -4034416.0301  -2458266.3975   5  10   4.3455   5.0543   2.7988  -3.4278   3.0549  -2.5010   0.00    0.0
2019/02/12 09:31:29.000   4280219.9959  -4034416.0325  -2458266.1101   5  10   4.3450   5.0530   2.7984  -3.4265   3.0539  -2.5001   0.00    0.0
2019/02/12 09:31:30.000   4280219.2119  -4034415.6902  -2458265.6613   5  10   4.3445   5.0517   2.7980  -3.4252   3.0530  -2.4993   0.00    0.0
2019/02/12 09:31:31.000   4280218.5386  -4034415.4360  -2458265.3706   5  10   4.3440   5.0505   2.7976  -3.4238   3.0521  -2.4985   0.00    0.0
2019/02/12 09:31:32.000   4280218.3295  -4034415.3980  -2458265.4345   5  10   4.3435   5.0492   2.7972  -3.4225   3.0511  -2.4976   0.00    0.0
2019/02/12 09:31:35.000   4280218.8366  -4034415.9692  -2458265.8728   5  10   4.3421   5.0454   2.7960  -3.4185   3.0483  -2.4951   0.00    0.0
2019/02/12 09:31:36.000   4280219.1868  -4034416.5659  -2458266.1022   5  10   4.3416   5.0441   2.7956  -3.4172   3.0474  -2.4943   0.00    0.0
2019/02/12 09:31:37.000   4280219.6176  -4034416.8988  -2458266.2531   5  10   4.3412   5.0428   2.7952  -3.4159   3.0465  -2.4934   0.00    0.0
2019/02/12 09:31:38.000   4280219.7633  -4034417.0590  -2458266.1270   5  10   4.3407   5.0415   2.7948  -3.4146   3.0455  -2.4926   0.00    0.0
2019/02/12 09:31:39.000   4280219.6187  -4034417.1675  -2458265.9377   5  10   4.3402   5.0403   2.7944  -3.4132   3.0446  -2.4918   0.00    0.0
2019/02/12 09:31:40.000   4280219.4512  -4034417.3670  -2458265.8471   5  10   4.3397   5.0390   2.7940  -3.4119   3.0437  -2.4909   0.00    0.0
2019/02/12 09:31:41.000   4280218.9958  -4034417.6346  -2458265.8563   5  10   4.3393   5.0377   2.7936  -3.4106   3.0427  -2.4901   0.00    0.0
2019/02/12 09:31:42.000   4280218.3889  -4034417.8413  -2458265.9867   5  10   4.3388   5.0365   2.7932  -3.4093   3.0418  -2.4893   0.00    0.0
2019/02/12 09:31:43.000   4280218.1754  -4034418.1197  -2458266.1141   5  10   4.3383   5.0352   2.7928  -3.4080   3.0409  -2.4884   0.00    0.0
2019/02/12 09:31:44.000   4280218.1301  -4034418.3123  -2458266.1415   5  10   4.3378   5.0339   2.7924  -3.4066   3.0399  -2.4876   0.00    0.0
2019/02/12 09:31:45.000   4280218.3239  -4034418.2898  -2458266.2176   5  10   4.3374   5.0327   2.7920  -3.4053   3.0390  -2.4868   0.00    0.0
2019/02/12 09:31:46.000   4280218.9095  -4034418.3832  -2458266.4374   5  10   4.3369   5.0314   2.7916  -3.4040   3.0381  -2.4859   0.00    0.0
2019/02/12 09:31:47.000   4280219.0933  -4034418.2103  -2458266.5114   5  10   4.3364   5.0301   2.7912  -3.4027   3.0371  -2.4851   0.00    0.0
2019/02/12 09:31:52.000   4280218.3510  -4034418.3275  -2458266.9911   5  10   4.3341   5.0238   2.7893  -3.3961   3.0325  -2.4809   0.00    0.0
2019/02/12 09:31:53.000   4280219.0117  -4034418.7700  -2458267.5952   5  10   4.3336   5.0226   2.7889  -3.3948   3.0316  -2.4801   0.00    0.0
2019/02/12 09:31:54.000   4280219.7495  -4034419.4077  -2458268.2723   5  10   4.3332   5.0213   2.7885  -3.3935   3.0306  -2.4793   0.00    0.0
2019/02/12 09:31:55.000   4280220.4583  -4034419.9797  -2458268.6757   5  10   4.3327   5.0201   2.7881  -3.3922   3.0297  -2.4784   0.00    0.0
2019/02/12 09:31:56.000   4280221.1205  -4034420.6293  -2458269.0456   5  10   4.3322   5.0188   2.7877  -3.3909   3.0288  -2.4776   0.00    0.0
2019/02/12 09:31:57.000   4280221.4228  -4034420.8984  -2458269.2095   5  10   4.3318   5.0176   2.7873  -3.3895   3.0279  -2.4768   0.00    0.0
