% program   : RTKPOST ver.2.4.2
% inp file  : D:\Google Drive\UERJ\_Projeto Final\20190115_Marco 91500 IBGE\20190115_LevantamentoCompleto.19o
% inp file  : D:\Google Drive\UERJ\_Projeto Final\20190115_Marco 91500 IBGE\riod0151.19d
% inp file  : D:\Google Drive\UERJ\_Projeto Final\20190115_Marco 91500 IBGE\brdm0150.19p
% obs start : 2019/01/15 09:25:22.0 GPST (week2036 206722.0s)
% obs end   : 2019/01/15 10:25:42.0 GPST (week2036 210342.0s)
% pos mode  : static
% freqs     : L1
% solution  : forward
% elev mask : 15.0 deg
% dynamics  : off
% tidecorr  : off
% ionos opt : broadcast
% tropo opt : saastamoinen
% ephemeris : broadcast
% navi sys  : gps glonass
% amb res   : fix and hold
% amb glo   : on
% val thres : 3.0
% antenna1  :                       ( 0.0000  0.0000  0.0000)
% antenna2  :                       ( 0.0000  0.0000  0.0080)
% ref pos   :  4280294.8840  -4034431.2298  -2458141.3831
%
% (x/y/z-ecef=WGS84,Q=1:fix,2:float,3:sbas,4:dgps,5:single,6:ppp,ns=# of satellites)
%  GPST                      x-ecef(m)      y-ecef(m)      z-ecef(m)   Q  ns   sdx(m)   sdy(m)   sdz(m)  sdxy(m)  sdyz(m)  sdzx(m) age(s)  ratio
2019/01/15 09:25:24.000   4280234.5787  -4034439.1696  -2458271.2780   2   9   1.0314   1.1092   0.9150  -0.8837   0.3305  -0.5325   9.00    2.9
2019/01/15 09:25:25.000   4280230.8583  -4034436.0718  -2458269.8460   2   8   0.7516   0.8115   0.7533  -0.6524   0.3564  -0.4523  10.00    1.2
2019/01/15 09:25:29.000   4280227.1285  -4034429.1972  -2458271.6610   2   7   0.6491   0.6833   0.6577  -0.5630   0.3261  -0.3892  14.00    1.8
2019/01/15 09:25:31.000   4280225.2185  -4034425.6605  -2458270.2960   2   8   0.5806   0.6030   0.6101  -0.5005   0.2893  -0.3555   1.00    1.0
2019/01/15 09:25:32.000   4280222.5319  -4034422.4787  -2458268.6188   2   7   0.5291   0.5450   0.5557  -0.4566   0.2710  -0.3221   2.00    1.2
2019/01/15 09:25:36.000   4280224.6920  -4034424.0232  -2458268.2663   2   8   0.4771   0.4966   0.5124  -0.4137   0.2585  -0.3012   6.00    1.4
2019/01/15 09:25:37.000   4280225.8618  -4034424.9811  -2458269.7167   2   7   0.4472   0.4627   0.4785  -0.3877   0.2441  -0.2802   7.00    2.8
2019/01/15 09:25:41.000   4280226.2663  -4034425.4116  -2458271.7698   2   8   0.4150   0.4167   0.4484  -0.3526   0.2427  -0.2690  11.00    1.0
2019/01/15 09:25:42.000   4280226.3237  -4034424.9791  -2458272.3001   2   8   0.3896   0.3832   0.4238  -0.3264   0.2373  -0.2578  12.00    2.9
2019/01/15 09:25:43.000   4280225.1935  -4034423.5270  -2458272.6923   2   9   0.3686   0.3570   0.3917  -0.3057   0.2294  -0.2469  13.00    1.6
2019/01/15 09:25:44.000   4280225.3839  -4034424.2577  -2458273.2229   2   8   0.3509   0.3359   0.3753  -0.2887   0.2225  -0.2373  14.00    1.4
2019/01/15 09:25:47.000   4280225.2637  -4034424.1334  -2458273.3139   2  10   0.3306   0.3163   0.3492  -0.2708   0.2129  -0.2250   2.00    1.1
2019/01/15 09:25:48.000   4280224.9584  -4034423.9296  -2458273.5911   2   8   0.3174   0.3012   0.3356  -0.2586   0.2065  -0.2170   3.00    1.1
2019/01/15 09:25:49.000   4280225.0784  -4034423.7778  -2458273.8438   2  10   0.3023   0.2871   0.3179  -0.2457   0.1984  -0.2075   4.00    1.0
2019/01/15 09:25:50.000   4280224.7440  -4034422.9059  -2458273.3152   2  10   0.2921   0.2752   0.3081  -0.2367   0.1933  -0.2014   5.00    1.5
2019/01/15 09:25:52.000   4280225.0874  -4034422.5492  -2458273.1927   2  10   0.2829   0.2648   0.2993  -0.2288   0.1884  -0.1957   7.00    1.1
2019/01/15 09:25:54.000   4280225.1661  -4034422.3685  -2458273.4058   2   6   0.2730   0.2541   0.2875  -0.2194   0.1833  -0.1906   9.00    1.3
2019/01/15 09:25:55.000   4280224.3735  -4034421.3087  -2458273.1338   2   6   0.2646   0.2453   0.2773  -0.2116   0.1780  -0.1854  10.00    1.1
2019/01/15 09:25:56.000   4280223.8995  -4034420.5525  -2458272.1755   2   6   0.2566   0.2369   0.2680  -0.2043   0.1733  -0.1808  11.00    1.9
2019/01/15 09:25:57.000   4280224.0312  -4034419.9491  -2458272.3032   2  11   0.2503   0.2303   0.2590  -0.1992   0.1693  -0.1761  12.00    1.5
2019/01/15 09:26:02.000   4280223.4373  -4034419.2863  -2458271.2861   2  10   0.2439   0.2236   0.2511  -0.1938   0.1651  -0.1713   2.00    1.3
2019/01/15 09:26:03.000   4280223.3302  -4034418.8723  -2458271.2852   2  10   0.2381   0.2177   0.2446  -0.1890   0.1613  -0.1671   3.00    1.5
2019/01/15 09:26:04.000   4280223.2282  -4034418.6828  -2458271.0470   2  11   0.2328   0.2123   0.2388  -0.1846   0.1579  -0.1633   4.00    1.3
2019/01/15 09:26:05.000   4280223.1514  -4034418.3294  -2458270.5570   2  11   0.2278   0.2073   0.2316  -0.1805   0.1545  -0.1595   5.00    1.1
2019/01/15 09:26:10.000   4280222.8006  -4034418.1839  -2458270.7014   2  12   0.2218   0.2020   0.2254  -0.1757   0.1510  -0.1555  10.00    1.1
2019/01/15 09:26:15.000   4280222.9561  -4034418.2117  -2458270.2318   2  11   0.2158   0.1965   0.2179  -0.1705   0.1472  -0.1515   0.00    1.0
2019/01/15 09:26:16.000   4280222.9898  -4034418.2699  -2458269.9631   2  11   0.2112   0.1919   0.2100  -0.1666   0.1436  -0.1476   1.00    1.0
2019/01/15 09:26:17.000   4280223.0296  -4034418.1213  -2458269.7134   2  12   0.2060   0.1873   0.2033  -0.1622   0.1401  -0.1437   2.00    1.0
2019/01/15 09:26:18.000   4280222.9574  -4034418.0915  -2458269.4574   2  12   0.2012   0.1831   0.1978  -0.1583   0.1370  -0.1403   3.00    1.0
2019/01/15 09:26:22.000   4280222.5589  -4034417.8537  -2458269.7375   2  12   0.1969   0.1793   0.1933  -0.1548   0.1343  -0.1373   7.00    1.2
2019/01/15 09:26:29.000   4280222.6210  -4034418.1180  -2458269.4880   2  12   0.1930   0.1758   0.1895  -0.1516   0.1319  -0.1346  14.00    1.1
2019/01/15 09:26:32.000   4280222.9176  -4034418.3771  -2458269.2893   2  12   0.1883   0.1716   0.1826  -0.1476   0.1283  -0.1308   2.00    1.5
2019/01/15 09:26:34.000   4280223.0498  -4034418.4079  -2458269.1977   2  11   0.1844   0.1681   0.1784  -0.1443   0.1258  -0.1282   4.00    1.5
2019/01/15 09:26:36.000   4280223.2218  -4034418.5983  -2458269.0322   2   6   0.1814   0.1649   0.1746  -0.1415   0.1235  -0.1261   6.00    1.2
2019/01/15 09:26:37.000   4280223.5049  -4034418.9075  -2458269.1741   2   6   0.1785   0.1620   0.1713  -0.1389   0.1214  -0.1242   7.00    1.7
2019/01/15 09:26:40.000   4280223.8174  -4034419.2133  -2458269.6106   2   6   0.1759   0.1594   0.1685  -0.1366   0.1195  -0.1224  10.00    1.4
2019/01/15 09:26:41.000   4280223.6724  -4034419.1690  -2458269.2794   2  11   0.1735   0.1570   0.1656  -0.1347   0.1177  -0.1205  11.00    2.3
2019/01/15 09:26:46.000   4280223.9699  -4034419.3034  -2458269.4495   2  11   0.1700   0.1537   0.1592  -0.1315   0.1145  -0.1172   1.00    1.8
2019/01/15 09:26:47.000   4280224.1309  -4034419.4754  -2458269.4902   2  11   0.1670   0.1508   0.1542  -0.1289   0.1119  -0.1144   2.00    1.6
2019/01/15 09:26:54.000   4280224.4215  -4034419.7675  -2458269.7138   2  11   0.1646   0.1485   0.1514  -0.1270   0.1101  -0.1126   9.00    1.6
2019/01/15 09:26:57.000   4280224.4166  -4034419.7167  -2458269.6626   2  11   0.1625   0.1465   0.1491  -0.1253   0.1086  -0.1109  12.00    1.5
2019/01/15 09:27:01.000   4280224.2732  -4034419.5107  -2458269.4329   2  11   0.1591   0.1433   0.1429  -0.1221   0.1054  -0.1077   1.00    1.4
2019/01/15 09:27:02.000   4280224.0837  -4034419.4809  -2458269.1525   2  11   0.1561   0.1404   0.1381  -0.1194   0.1028  -0.1050   2.00    1.4
2019/01/15 09:27:04.000   4280223.7757  -4034419.2696  -2458268.7863   2  12   0.1531   0.1379   0.1347  -0.1168   0.1007  -0.1027   4.00    1.6
2019/01/15 09:27:05.000   4280223.7488  -4034419.3905  -2458268.8156   2  11   0.1509   0.1358   0.1319  -0.1149   0.0989  -0.1009   5.00    1.5
2019/01/15 09:27:09.000   4280223.4578  -4034419.2106  -2458268.7449   2  12   0.1486   0.1339   0.1299  -0.1131   0.0975  -0.0993   9.00    1.1
2019/01/15 09:27:13.000   4280223.4158  -4034419.1012  -2458268.5054   2  12   0.1466   0.1322   0.1283  -0.1115   0.0962  -0.0979  13.00    1.2
2019/01/15 09:27:14.000   4280223.2923  -4034419.0587  -2458268.4487   2  12   0.1447   0.1305   0.1268  -0.1101   0.0951  -0.0966  14.00    1.1
2019/01/15 09:27:18.000   4280223.4262  -4034419.0242  -2458268.4400   2  12   0.1418   0.1280   0.1229  -0.1074   0.0927  -0.0942   3.00    1.0
2019/01/15 09:27:20.000   4280223.1271  -4034418.6811  -2458268.2920   2  11   0.1395   0.1260   0.1206  -0.1055   0.0912  -0.0926   5.00    1.1
2019/01/15 09:27:23.000   4280222.9249  -4034418.4550  -2458268.2029   2   6   0.1380   0.1244   0.1189  -0.1041   0.0901  -0.0916   8.00    1.1
2019/01/15 09:27:27.000   4280222.7679  -4034418.3219  -2458268.0155   2   6   0.1367   0.1231   0.1177  -0.1030   0.0892  -0.0908  12.00    1.0
2019/01/15 09:27:40.000   4280222.8065  -4034418.2465  -2458268.1246   2  10   0.1352   0.1217   0.1159  -0.1018   0.0880  -0.0896  10.00    1.1
2019/01/15 09:27:44.000   4280223.0599  -4034418.3545  -2458268.2153   2  11   0.1337   0.1203   0.1146  -0.1005   0.0870  -0.0884  14.00    1.0
2019/01/15 09:27:47.000   4280223.1147  -4034418.2054  -2458268.2532   2  10   0.1310   0.1177   0.1094  -0.0978   0.0844  -0.0858   2.00    1.3
2019/01/15 09:27:49.000   4280223.2017  -4034418.2996  -2458268.2668   2  11   0.1287   0.1155   0.1061  -0.0956   0.0824  -0.0838   4.00    1.0
2019/01/15 09:27:50.000   4280223.1874  -4034418.2239  -2458268.1877   2  10   0.1269   0.1138   0.1036  -0.0940   0.0809  -0.0822   5.00    1.0
2019/01/15 09:27:52.000   4280223.1883  -4034418.2417  -2458268.1863   2  10   0.1255   0.1124   0.1018  -0.0927   0.0797  -0.0810   7.00    1.0
2019/01/15 09:27:53.000   4280223.3676  -4034418.3820  -2458268.2025   2  10   0.1242   0.1111   0.1003  -0.0916   0.0787  -0.0800   8.00    1.0
2019/01/15 09:27:54.000   4280223.3829  -4034418.3708  -2458268.1723   2  10   0.1230   0.1100   0.0990  -0.0906   0.0778  -0.0790   9.00    1.0
2019/01/15 09:27:55.000   4280223.4165  -4034418.3974  -2458268.2201   2  10   0.1219   0.1089   0.0979  -0.0897   0.0770  -0.0782  10.00    1.0
2019/01/15 09:27:57.000   4280223.3733  -4034418.4155  -2458268.2595   2  10   0.1209   0.1080   0.0969  -0.0889   0.0763  -0.0775  12.00    1.1
2019/01/15 09:28:01.000   4280223.3009  -4034418.2399  -2458268.1979   2  10   0.1188   0.1058   0.0932  -0.0867   0.0743  -0.0756   1.00    1.1
2019/01/15 09:28:02.000   4280223.3421  -4034418.2494  -2458268.1725   2  11   0.1167   0.1039   0.0903  -0.0847   0.0727  -0.0739   2.00    1.1
2019/01/15 09:28:04.000   4280223.3421  -4034418.2494  -2458268.1725   5  11   0.1167   0.1039   0.0903  -0.0847   0.0727  -0.0739   4.00    0.0
2019/01/15 09:28:05.000   4280223.3421  -4034418.2494  -2458268.1725   5  12   0.1167   0.1039   0.0903  -0.0847   0.0727  -0.0739   5.00    0.0
2019/01/15 09:28:08.000   4280223.3421  -4034418.2494  -2458268.1725   5  12   0.1167   0.1039   0.0903  -0.0847   0.0727  -0.0739   8.00    0.0
2019/01/15 09:28:20.000   4280223.3421  -4034418.2494  -2458268.1725   5  12   0.1167   0.1039   0.0903  -0.0847   0.0727  -0.0739   5.00    0.0
2019/01/15 09:28:23.000   4280223.3421  -4034418.2494  -2458268.1725   5  12   0.1167   0.1039   0.0903  -0.0847   0.0727  -0.0739   8.00    0.0
2019/01/15 09:28:26.000   4280223.3421  -4034418.2494  -2458268.1725   5  12   0.1167   0.1039   0.0903  -0.0847   0.0727  -0.0739  11.00    0.0
2019/01/15 09:28:32.000   4280223.3421  -4034418.2494  -2458268.1725   5  12   0.1167   0.1039   0.0903  -0.0847   0.0727  -0.0739   2.00    0.0
2019/01/15 09:28:36.000   4280223.3421  -4034418.2494  -2458268.1725   5  12   0.1167   0.1039   0.0903  -0.0847   0.0727  -0.0739   6.00    0.0
2019/01/15 09:28:39.000   4280223.3421  -4034418.2494  -2458268.1725   5  12   0.1167   0.1039   0.0903  -0.0847   0.0727  -0.0739   9.00    0.0
2019/01/15 09:28:43.000   4280223.3421  -4034418.2494  -2458268.1725   5  12   0.1167   0.1039   0.0903  -0.0847   0.0727  -0.0739  13.00    0.0
2019/01/15 09:28:47.000   4280223.3421  -4034418.2494  -2458268.1725   5  12   0.1167   0.1039   0.0903  -0.0847   0.0727  -0.0739   2.00    0.0
2019/01/15 09:28:51.000   4280223.3421  -4034418.2494  -2458268.1725   5  12   0.1167   0.1039   0.0903  -0.0847   0.0727  -0.0739   6.00    0.0
2019/01/15 09:28:54.000   4280223.3421  -4034418.2494  -2458268.1725   5  12   0.1167   0.1039   0.0903  -0.0847   0.0727  -0.0739   9.00    0.0
2019/01/15 09:28:55.000   4280223.3421  -4034418.2494  -2458268.1725   5  12   0.1167   0.1039   0.0903  -0.0847   0.0727  -0.0739  10.00    0.0
2019/01/15 09:28:56.000   4280223.3421  -4034418.2494  -2458268.1725   5  12   0.1167   0.1039   0.0903  -0.0847   0.0727  -0.0739  11.00    0.0
2019/01/15 09:28:57.000   4280223.3421  -4034418.2494  -2458268.1725   5  12   0.1167   0.1039   0.0903  -0.0847   0.0727  -0.0739  12.00    0.0
2019/01/15 09:28:58.000   4280223.3421  -4034418.2494  -2458268.1725   5  12   0.1167   0.1039   0.0903  -0.0847   0.0727  -0.0739  13.00    0.0
2019/01/15 09:29:00.000   4280223.3421  -4034418.2494  -2458268.1725   5  12   0.1167   0.1039   0.0903  -0.0847   0.0727  -0.0739   0.00    0.0
2019/01/15 09:29:02.000   4280223.3421  -4034418.2494  -2458268.1725   5  12   0.1167   0.1039   0.0903  -0.0847   0.0727  -0.0739   2.00    0.0
2019/01/15 09:29:42.000   4280223.3421  -4034418.2494  -2458268.1725   5  12   0.1167   0.1039   0.0903  -0.0847   0.0727  -0.0739  12.00    0.0
2019/01/15 09:29:43.000   4280223.3421  -4034418.2494  -2458268.1725   5  12   0.1167   0.1039   0.0903  -0.0847   0.0727  -0.0739  13.00    0.0
2019/01/15 09:29:44.000   4280223.3421  -4034418.2494  -2458268.1725   5  12   0.1167   0.1039   0.0903  -0.0847   0.0727  -0.0739  14.00    0.0
2019/01/15 09:29:53.000   4280223.3421  -4034418.2494  -2458268.1725   5  12   0.1167   0.1039   0.0903  -0.0847   0.0727  -0.0739   8.00    0.0
2019/01/15 09:29:55.000   4280223.3421  -4034418.2494  -2458268.1725   5  12   0.1167   0.1039   0.0903  -0.0847   0.0727  -0.0739  10.00    0.0
2019/01/15 09:29:59.000   4280223.3421  -4034418.2494  -2458268.1725   5  12   0.1167   0.1039   0.0903  -0.0847   0.0727  -0.0739  14.00    0.0
2019/01/15 09:30:00.000   4280223.3421  -4034418.2494  -2458268.1725   5  12   0.1167   0.1039   0.0903  -0.0847   0.0727  -0.0739   0.00    0.0
2019/01/15 09:30:01.000   4280223.3421  -4034418.2494  -2458268.1725   5  12   0.1167   0.1039   0.0903  -0.0847   0.0727  -0.0739   1.00    0.0
2019/01/15 09:30:03.000   4280223.3421  -4034418.2494  -2458268.1725   5  12   0.1167   0.1039   0.0903  -0.0847   0.0727  -0.0739   3.00    0.0
2019/01/15 09:30:04.000   4280223.3421  -4034418.2494  -2458268.1725   5  12   0.1167   0.1039   0.0903  -0.0847   0.0727  -0.0739   4.00    0.0
2019/01/15 09:30:14.000   4280223.3421  -4034418.2494  -2458268.1725   5  11   0.1167   0.1039   0.0903  -0.0847   0.0727  -0.0739  14.00    0.0
2019/01/15 09:30:15.000   4280223.3421  -4034418.2494  -2458268.1725   5  11   0.1167   0.1039   0.0903  -0.0847   0.0727  -0.0739   0.00    0.0
2019/01/15 09:30:18.000   4280223.3421  -4034418.2494  -2458268.1725   5  12   0.1167   0.1039   0.0903  -0.0847   0.0727  -0.0739   3.00    0.0
2019/01/15 09:30:22.000   4280223.3421  -4034418.2494  -2458268.1725   5  12   0.1167   0.1039   0.0903  -0.0847   0.0727  -0.0739   7.00    0.0
2019/01/15 09:30:25.000   4280223.3421  -4034418.2494  -2458268.1725   5  12   0.1167   0.1039   0.0903  -0.0847   0.0727  -0.0739  10.00    0.0
2019/01/15 09:30:26.000   4280223.3421  -4034418.2494  -2458268.1725   5  12   0.1167   0.1039   0.0903  -0.0847   0.0727  -0.0739  11.00    0.0
2019/01/15 09:30:27.000   4280223.3421  -4034418.2494  -2458268.1725   5  12   0.1167   0.1039   0.0903  -0.0847   0.0727  -0.0739  12.00    0.0
2019/01/15 09:30:29.000   4280223.3421  -4034418.2494  -2458268.1725   5  12   0.1167   0.1039   0.0903  -0.0847   0.0727  -0.0739  14.00    0.0
2019/01/15 09:30:31.000   4280223.3421  -4034418.2494  -2458268.1725   5  12   0.1167   0.1039   0.0903  -0.0847   0.0727  -0.0739   1.00    0.0
2019/01/15 09:30:33.000   4280223.3421  -4034418.2494  -2458268.1725   5  12   0.1167   0.1039   0.0903  -0.0847   0.0727  -0.0739   3.00    0.0
2019/01/15 09:30:40.000   4280223.3421  -4034418.2494  -2458268.1725   5  12   0.1167   0.1039   0.0903  -0.0847   0.0727  -0.0739  10.00    0.0
2019/01/15 09:30:44.000   4280223.3421  -4034418.2494  -2458268.1725   5  12   0.1167   0.1039   0.0903  -0.0847   0.0727  -0.0739  14.00    0.0
2019/01/15 09:30:46.000   4280223.3421  -4034418.2494  -2458268.1725   5  12   0.1167   0.1039   0.0903  -0.0847   0.0727  -0.0739   1.00    0.0
2019/01/15 09:30:50.000   4280223.3421  -4034418.2494  -2458268.1725   5  12   0.1167   0.1039   0.0903  -0.0847   0.0727  -0.0739   5.00    0.0
2019/01/15 09:30:53.000   4280223.3421  -4034418.2494  -2458268.1725   5  12   0.1167   0.1039   0.0903  -0.0847   0.0727  -0.0739   8.00    0.0
2019/01/15 09:30:54.000   4280223.3421  -4034418.2494  -2458268.1725   5  12   0.1167   0.1039   0.0903  -0.0847   0.0727  -0.0739   9.00    0.0
2019/01/15 09:30:55.000   4280223.3421  -4034418.2494  -2458268.1725   5  12   0.1167   0.1039   0.0903  -0.0847   0.0727  -0.0739  10.00    0.0
2019/01/15 09:31:01.000   4280223.3421  -4034418.2494  -2458268.1725   5  12   0.1167   0.1039   0.0903  -0.0847   0.0727  -0.0739   1.00    0.0
2019/01/15 09:31:05.000   4280223.3421  -4034418.2494  -2458268.1725   5  12   0.1167   0.1039   0.0903  -0.0847   0.0727  -0.0739   5.00    0.0
2019/01/15 09:31:06.000   4280223.3421  -4034418.2494  -2458268.1725   5  12   0.1167   0.1039   0.0903  -0.0847   0.0727  -0.0739   6.00    0.0
2019/01/15 09:31:29.000   4280223.3421  -4034418.2494  -2458268.1725   5  12   0.1167   0.1039   0.0903  -0.0847   0.0727  -0.0739  14.00    0.0
2019/01/15 09:32:01.000   4280223.3421  -4034418.2494  -2458268.1725   5  12   0.1167   0.1039   0.0903  -0.0847   0.0727  -0.0739   1.00    0.0
2019/01/15 09:32:11.000   4280223.3421  -4034418.2494  -2458268.1725   5  12   0.1167   0.1039   0.0903  -0.0847   0.0727  -0.0739  11.00    0.0
2019/01/15 09:32:18.000   4280223.3421  -4034418.2494  -2458268.1725   5  12   0.1167   0.1039   0.0903  -0.0847   0.0727  -0.0739   3.00    0.0
2019/01/15 09:32:19.000   4280223.3421  -4034418.2494  -2458268.1725   5  12   0.1167   0.1039   0.0903  -0.0847   0.0727  -0.0739   4.00    0.0
2019/01/15 09:32:21.000   4280223.3421  -4034418.2494  -2458268.1725   5  12   0.1167   0.1039   0.0903  -0.0847   0.0727  -0.0739   6.00    0.0
2019/01/15 09:32:26.000   4280223.3421  -4034418.2494  -2458268.1725   5  12   0.1167   0.1039   0.0903  -0.0847   0.0727  -0.0739  11.00    0.0
2019/01/15 09:32:27.000   4280223.3421  -4034418.2494  -2458268.1725   5  12   0.1167   0.1039   0.0903  -0.0847   0.0727  -0.0739  12.00    0.0
2019/01/15 09:32:28.000   4280223.3421  -4034418.2494  -2458268.1725   5  12   0.1167   0.1039   0.0903  -0.0847   0.0727  -0.0739  13.00    0.0
2019/01/15 09:32:29.000   4280223.3421  -4034418.2494  -2458268.1725   5  11   0.1167   0.1039   0.0903  -0.0847   0.0727  -0.0739  14.00    0.0
2019/01/15 09:32:32.000   4280223.3421  -4034418.2494  -2458268.1725   5  11   0.1167   0.1039   0.0903  -0.0847   0.0727  -0.0739   2.00    0.0
2019/01/15 09:32:33.000   4280223.3421  -4034418.2494  -2458268.1725   5  11   0.1167   0.1039   0.0903  -0.0847   0.0727  -0.0739   3.00    0.0
2019/01/15 09:32:35.000   4280223.3421  -4034418.2494  -2458268.1725   5  11   0.1167   0.1039   0.0903  -0.0847   0.0727  -0.0739   5.00    0.0
2019/01/15 09:32:36.000   4280223.3421  -4034418.2494  -2458268.1725   5  11   0.1167   0.1039   0.0903  -0.0847   0.0727  -0.0739   6.00    0.0
2019/01/15 09:32:46.000   4280223.3421  -4034418.2494  -2458268.1725   5  11   0.1167   0.1039   0.0903  -0.0847   0.0727  -0.0739   1.00    0.0
2019/01/15 09:32:54.000   4280223.3421  -4034418.2494  -2458268.1725   5  12   0.1167   0.1039   0.0903  -0.0847   0.0727  -0.0739   9.00    0.0
2019/01/15 09:33:05.000   4280223.3421  -4034418.2494  -2458268.1725   5  12   0.1167   0.1039   0.0903  -0.0847   0.0727  -0.0739   5.00    0.0
2019/01/15 09:33:06.000   4280223.3421  -4034418.2494  -2458268.1725   5  12   0.1167   0.1039   0.0903  -0.0847   0.0727  -0.0739   6.00    0.0
2019/01/15 09:33:09.000   4280223.3421  -4034418.2494  -2458268.1725   5  12   0.1167   0.1039   0.0903  -0.0847   0.0727  -0.0739   9.00    0.0
2019/01/15 09:33:10.000   4280223.3421  -4034418.2494  -2458268.1725   5  12   0.1167   0.1039   0.0903  -0.0847   0.0727  -0.0739  10.00    0.0
2019/01/15 09:33:17.000   4280223.3421  -4034418.2494  -2458268.1725   5  12   0.1167   0.1039   0.0903  -0.0847   0.0727  -0.0739   2.00    0.0
2019/01/15 09:33:37.000   4280223.3421  -4034418.2494  -2458268.1725   5  12   0.1167   0.1039   0.0903  -0.0847   0.0727  -0.0739   7.00    0.0
2019/01/15 09:33:51.000   4280223.3421  -4034418.2494  -2458268.1725   5  12   0.1167   0.1039   0.0903  -0.0847   0.0727  -0.0739   6.00    0.0
2019/01/15 09:33:59.000   4280223.3421  -4034418.2494  -2458268.1725   5  12   0.1167   0.1039   0.0903  -0.0847   0.0727  -0.0739  14.00    0.0
2019/01/15 09:34:03.000   4280223.3421  -4034418.2494  -2458268.1725   5  12   0.1167   0.1039   0.0903  -0.0847   0.0727  -0.0739   3.00    0.0
2019/01/15 09:34:30.000   4280223.3421  -4034418.2494  -2458268.1725   5  11   0.1167   0.1039   0.0903  -0.0847   0.0727  -0.0739   0.00    0.0
2019/01/15 09:34:32.000   4280223.3421  -4034418.2494  -2458268.1725   5  11   0.1167   0.1039   0.0903  -0.0847   0.0727  -0.0739   2.00    0.0
2019/01/15 09:34:34.000   4280223.3421  -4034418.2494  -2458268.1725   5  11   0.1167   0.1039   0.0903  -0.0847   0.0727  -0.0739   4.00    0.0
2019/01/15 09:34:46.000   4280223.3421  -4034418.2494  -2458268.1725   5  12   0.1167   0.1039   0.0903  -0.0847   0.0727  -0.0739   1.00    0.0
2019/01/15 09:34:47.000   4280223.3421  -4034418.2494  -2458268.1725   5  12   0.1167   0.1039   0.0903  -0.0847   0.0727  -0.0739   2.00    0.0
2019/01/15 09:34:51.000   4280223.3421  -4034418.2494  -2458268.1725   5  12   0.1167   0.1039   0.0903  -0.0847   0.0727  -0.0739   6.00    0.0
2019/01/15 09:34:53.000   4280223.3421  -4034418.2494  -2458268.1725   5  12   0.1167   0.1039   0.0903  -0.0847   0.0727  -0.0739   8.00    0.0
2019/01/15 09:34:54.000   4280223.3421  -4034418.2494  -2458268.1725   5  12   0.1167   0.1039   0.0903  -0.0847   0.0727  -0.0739   9.00    0.0
2019/01/15 09:34:55.000   4280223.3421  -4034418.2494  -2458268.1725   5  12   0.1167   0.1039   0.0903  -0.0847   0.0727  -0.0739  10.00    0.0
2019/01/15 09:35:06.000   4280223.3421  -4034418.2494  -2458268.1725   5  12   0.1167   0.1039   0.0903  -0.0847   0.0727  -0.0739   6.00    0.0
2019/01/15 09:35:07.000   4280223.3421  -4034418.2494  -2458268.1725   5  12   0.1167   0.1039   0.0903  -0.0847   0.0727  -0.0739   7.00    0.0
2019/01/15 09:35:09.000   4280223.3421  -4034418.2494  -2458268.1725   5  12   0.1167   0.1039   0.0903  -0.0847   0.0727  -0.0739   9.00    0.0
2019/01/15 09:35:21.000   4280223.3421  -4034418.2494  -2458268.1725   5  12   0.1167   0.1039   0.0903  -0.0847   0.0727  -0.0739   6.00    0.0
2019/01/15 09:35:26.000   4280223.3421  -4034418.2494  -2458268.1725   5  12   0.1167   0.1039   0.0903  -0.0847   0.0727  -0.0739  11.00    0.0
2019/01/15 09:35:39.000   4280223.3421  -4034418.2494  -2458268.1725   5  12   0.1167   0.1039   0.0903  -0.0847   0.0727  -0.0739   9.00    0.0
2019/01/15 09:35:46.000   4280223.3421  -4034418.2494  -2458268.1725   5  12   0.1167   0.1039   0.0903  -0.0847   0.0727  -0.0739   1.00    0.0
2019/01/15 09:35:48.000   4280223.3421  -4034418.2494  -2458268.1725   5  12   0.1167   0.1039   0.0903  -0.0847   0.0727  -0.0739   3.00    0.0
2019/01/15 09:36:26.000   4280223.3421  -4034418.2494  -2458268.1725   5  12   0.1167   0.1039   0.0903  -0.0847   0.0727  -0.0739  11.00    0.0
2019/01/15 09:36:33.000   4280223.3421  -4034418.2494  -2458268.1725   5  12   0.1167   0.1039   0.0903  -0.0847   0.0727  -0.0739   3.00    0.0
2019/01/15 09:36:34.000   4280223.3421  -4034418.2494  -2458268.1725   5  12   0.1167   0.1039   0.0903  -0.0847   0.0727  -0.0739   4.00    0.0
2019/01/15 09:36:38.000   4280223.3421  -4034418.2494  -2458268.1725   5  12   0.1167   0.1039   0.0903  -0.0847   0.0727  -0.0739   8.00    0.0
2019/01/15 09:36:43.000   4280223.3421  -4034418.2494  -2458268.1725   5  12   0.1167   0.1039   0.0903  -0.0847   0.0727  -0.0739  13.00    0.0
2019/01/15 09:37:16.000   4280223.3421  -4034418.2494  -2458268.1725   5  12   0.1167   0.1039   0.0903  -0.0847   0.0727  -0.0739   1.00    0.0
2019/01/15 09:37:18.000   4280223.3421  -4034418.2494  -2458268.1725   5  12   0.1167   0.1039   0.0903  -0.0847   0.0727  -0.0739   3.00    0.0
2019/01/15 09:37:19.000   4280223.3421  -4034418.2494  -2458268.1725   5  12   0.1167   0.1039   0.0903  -0.0847   0.0727  -0.0739   4.00    0.0
2019/01/15 09:37:24.000   4280223.3421  -4034418.2494  -2458268.1725   5  12   0.1167   0.1039   0.0903  -0.0847   0.0727  -0.0739   9.00    0.0
2019/01/15 09:37:29.000   4280223.3421  -4034418.2494  -2458268.1725   5  12   0.1167   0.1039   0.0903  -0.0847   0.0727  -0.0739  14.00    0.0
2019/01/15 09:37:33.000   4280223.3421  -4034418.2494  -2458268.1725   5  12   0.1167   0.1039   0.0903  -0.0847   0.0727  -0.0739   3.00    0.0
2019/01/15 09:37:35.000   4280223.3421  -4034418.2494  -2458268.1725   5  12   0.1167   0.1039   0.0903  -0.0847   0.0727  -0.0739   5.00    0.0
2019/01/15 09:37:36.000   4280223.3421  -4034418.2494  -2458268.1725   5  12   0.1167   0.1039   0.0903  -0.0847   0.0727  -0.0739   6.00    0.0
2019/01/15 09:37:37.000   4280223.3421  -4034418.2494  -2458268.1725   5  12   0.1167   0.1039   0.0903  -0.0847   0.0727  -0.0739   7.00    0.0
2019/01/15 09:37:41.000   4280223.3421  -4034418.2494  -2458268.1725   5  12   0.1167   0.1039   0.0903  -0.0847   0.0727  -0.0739  11.00    0.0
2019/01/15 09:37:42.000   4280223.3421  -4034418.2494  -2458268.1725   5  12   0.1167   0.1039   0.0903  -0.0847   0.0727  -0.0739  12.00    0.0
2019/01/15 09:37:44.000   4280223.3421  -4034418.2494  -2458268.1725   5  12   0.1167   0.1039   0.0903  -0.0847   0.0727  -0.0739  14.00    0.0
2019/01/15 09:37:45.000   4280223.3421  -4034418.2494  -2458268.1725   5  12   0.1167   0.1039   0.0903  -0.0847   0.0727  -0.0739   0.00    0.0
2019/01/15 09:37:47.000   4280223.3421  -4034418.2494  -2458268.1725   5  12   0.1167   0.1039   0.0903  -0.0847   0.0727  -0.0739   2.00    0.0
2019/01/15 09:37:52.000   4280223.3421  -4034418.2494  -2458268.1725   5  12   0.1167   0.1039   0.0903  -0.0847   0.0727  -0.0739   7.00    0.0
2019/01/15 09:38:17.000   4280223.3421  -4034418.2494  -2458268.1725   5  12   0.1167   0.1039   0.0903  -0.0847   0.0727  -0.0739   2.00    0.0
2019/01/15 09:38:20.000   4280223.3421  -4034418.2494  -2458268.1725   5  12   0.1167   0.1039   0.0903  -0.0847   0.0727  -0.0739   5.00    0.0
2019/01/15 09:38:22.000   4280223.3421  -4034418.2494  -2458268.1725   5  12   0.1167   0.1039   0.0903  -0.0847   0.0727  -0.0739   7.00    0.0
2019/01/15 09:38:28.000   4280223.3421  -4034418.2494  -2458268.1725   5  12   0.1167   0.1039   0.0903  -0.0847   0.0727  -0.0739  13.00    0.0
2019/01/15 09:38:33.000   4280223.3421  -4034418.2494  -2458268.1725   5  12   0.1167   0.1039   0.0903  -0.0847   0.0727  -0.0739   3.00    0.0
2019/01/15 09:38:36.000   4280223.3421  -4034418.2494  -2458268.1725   5  12   0.1167   0.1039   0.0903  -0.0847   0.0727  -0.0739   6.00    0.0
2019/01/15 09:38:39.000   4280223.3421  -4034418.2494  -2458268.1725   5  12   0.1167   0.1039   0.0903  -0.0847   0.0727  -0.0739   9.00    0.0
2019/01/15 09:38:43.000   4280223.3421  -4034418.2494  -2458268.1725   5  12   0.1167   0.1039   0.0903  -0.0847   0.0727  -0.0739  13.00    0.0
2019/01/15 09:38:46.000   4280223.3421  -4034418.2494  -2458268.1725   5  12   0.1167   0.1039   0.0903  -0.0847   0.0727  -0.0739   1.00    0.0
2019/01/15 09:38:49.000   4280223.3421  -4034418.2494  -2458268.1725   5  12   0.1167   0.1039   0.0903  -0.0847   0.0727  -0.0739   4.00    0.0
2019/01/15 09:38:58.000   4280223.3421  -4034418.2494  -2458268.1725   5  12   0.1167   0.1039   0.0903  -0.0847   0.0727  -0.0739  13.00    0.0
2019/01/15 09:39:02.000   4280223.3421  -4034418.2494  -2458268.1725   5  12   0.1167   0.1039   0.0903  -0.0847   0.0727  -0.0739   2.00    0.0
2019/01/15 09:39:09.000   4280223.3421  -4034418.2494  -2458268.1725   5  12   0.1167   0.1039   0.0903  -0.0847   0.0727  -0.0739   9.00    0.0
2019/01/15 09:39:12.000   4280223.3421  -4034418.2494  -2458268.1725   5  12   0.1167   0.1039   0.0903  -0.0847   0.0727  -0.0739  12.00    0.0
2019/01/15 09:39:13.000   4280223.3421  -4034418.2494  -2458268.1725   5  12   0.1167   0.1039   0.0903  -0.0847   0.0727  -0.0739  13.00    0.0
2019/01/15 09:39:21.000   4280223.3421  -4034418.2494  -2458268.1725   5  12   0.1167   0.1039   0.0903  -0.0847   0.0727  -0.0739   6.00    0.0
2019/01/15 09:39:30.000   4280223.3421  -4034418.2494  -2458268.1725   5  12   0.1167   0.1039   0.0903  -0.0847   0.0727  -0.0739   0.00    0.0
2019/01/15 09:39:43.000   4280223.3421  -4034418.2494  -2458268.1725   5  12   0.1167   0.1039   0.0903  -0.0847   0.0727  -0.0739  13.00    0.0
2019/01/15 09:40:18.000   4280223.3421  -4034418.2494  -2458268.1725   5  12   0.1167   0.1039   0.0903  -0.0847   0.0727  -0.0739   3.00    0.0
2019/01/15 09:40:23.000   4280223.3421  -4034418.2494  -2458268.1725   5  12   0.1167   0.1039   0.0903  -0.0847   0.0727  -0.0739   8.00    0.0
2019/01/15 09:40:36.000   4280223.3421  -4034418.2494  -2458268.1725   5  12   0.1167   0.1039   0.0903  -0.0847   0.0727  -0.0739   6.00    0.0
2019/01/15 09:40:42.000   4280223.3421  -4034418.2494  -2458268.1725   5  12   0.1167   0.1039   0.0903  -0.0847   0.0727  -0.0739  12.00    0.0
2019/01/15 09:40:47.000   4280223.3421  -4034418.2494  -2458268.1725   5  12   0.1167   0.1039   0.0903  -0.0847   0.0727  -0.0739   2.00    0.0
2019/01/15 09:40:55.000   4280223.3421  -4034418.2494  -2458268.1725   5  12   0.1167   0.1039   0.0903  -0.0847   0.0727  -0.0739  10.00    0.0
2019/01/15 09:40:56.000   4280223.3421  -4034418.2494  -2458268.1725   5  12   0.1167   0.1039   0.0903  -0.0847   0.0727  -0.0739  11.00    0.0
2019/01/15 09:41:00.000   4280223.3421  -4034418.2494  -2458268.1725   5  12   0.1167   0.1039   0.0903  -0.0847   0.0727  -0.0739   0.00    0.0
2019/01/15 09:41:01.000   4280223.3421  -4034418.2494  -2458268.1725   5  12   0.1167   0.1039   0.0903  -0.0847   0.0727  -0.0739   1.00    0.0
2019/01/15 09:41:02.000   4280223.3421  -4034418.2494  -2458268.1725   5  12   0.1167   0.1039   0.0903  -0.0847   0.0727  -0.0739   2.00    0.0
2019/01/15 09:41:11.000   4280223.3421  -4034418.2494  -2458268.1725   5  12   0.1167   0.1039   0.0903  -0.0847   0.0727  -0.0739  11.00    0.0
2019/01/15 09:41:12.000   4280223.3421  -4034418.2494  -2458268.1725   5  12   0.1167   0.1039   0.0903  -0.0847   0.0727  -0.0739  12.00    0.0
2019/01/15 09:41:16.000   4280223.3421  -4034418.2494  -2458268.1725   5  12   0.1167   0.1039   0.0903  -0.0847   0.0727  -0.0739   1.00    0.0
2019/01/15 09:41:17.000   4280223.3421  -4034418.2494  -2458268.1725   5  12   0.1167   0.1039   0.0903  -0.0847   0.0727  -0.0739   2.00    0.0
2019/01/15 09:41:18.000   4280223.3421  -4034418.2494  -2458268.1725   5  12   0.1167   0.1039   0.0903  -0.0847   0.0727  -0.0739   3.00    0.0
2019/01/15 09:41:19.000   4280223.3421  -4034418.2494  -2458268.1725   5  12   0.1167   0.1039   0.0903  -0.0847   0.0727  -0.0739   4.00    0.0
2019/01/15 09:41:20.000   4280223.3421  -4034418.2494  -2458268.1725   5  12   0.1167   0.1039   0.0903  -0.0847   0.0727  -0.0739   5.00    0.0
2019/01/15 09:41:27.000   4280223.3421  -4034418.2494  -2458268.1725   5  12   0.1167   0.1039   0.0903  -0.0847   0.0727  -0.0739  12.00    0.0
2019/01/15 09:41:31.000   4280223.3421  -4034418.2494  -2458268.1725   5  12   0.1167   0.1039   0.0903  -0.0847   0.0727  -0.0739   1.00    0.0
2019/01/15 09:41:32.000   4280223.3421  -4034418.2494  -2458268.1725   5  12   0.1167   0.1039   0.0903  -0.0847   0.0727  -0.0739   2.00    0.0
2019/01/15 09:41:38.000   4280223.3421  -4034418.2494  -2458268.1725   5  12   0.1167   0.1039   0.0903  -0.0847   0.0727  -0.0739   8.00    0.0
2019/01/15 09:41:40.000   4280223.3421  -4034418.2494  -2458268.1725   5  12   0.1167   0.1039   0.0903  -0.0847   0.0727  -0.0739  10.00    0.0
2019/01/15 09:41:41.000   4280223.3421  -4034418.2494  -2458268.1725   5  12   0.1167   0.1039   0.0903  -0.0847   0.0727  -0.0739  11.00    0.0
2019/01/15 09:41:43.000   4280223.3421  -4034418.2494  -2458268.1725   5  12   0.1167   0.1039   0.0903  -0.0847   0.0727  -0.0739  13.00    0.0
2019/01/15 09:41:50.000   4280223.3421  -4034418.2494  -2458268.1725   5  12   0.1167   0.1039   0.0903  -0.0847   0.0727  -0.0739   5.00    0.0
2019/01/15 09:41:51.000   4280223.3421  -4034418.2494  -2458268.1725   5  12   0.1167   0.1039   0.0903  -0.0847   0.0727  -0.0739   6.00    0.0
2019/01/15 09:41:54.000   4280223.3421  -4034418.2494  -2458268.1725   5  12   0.1167   0.1039   0.0903  -0.0847   0.0727  -0.0739   9.00    0.0
2019/01/15 09:42:00.000   4280223.3421  -4034418.2494  -2458268.1725   5  12   0.1167   0.1039   0.0903  -0.0847   0.0727  -0.0739   0.00    0.0
2019/01/15 09:42:01.000   4280223.3421  -4034418.2494  -2458268.1725   5  12   0.1167   0.1039   0.0903  -0.0847   0.0727  -0.0739   1.00    0.0
2019/01/15 09:42:05.000   4280223.3421  -4034418.2494  -2458268.1725   5  12   0.1167   0.1039   0.0903  -0.0847   0.0727  -0.0739   5.00    0.0
2019/01/15 09:42:09.000   4280223.3421  -4034418.2494  -2458268.1725   5  12   0.1167   0.1039   0.0903  -0.0847   0.0727  -0.0739   9.00    0.0
2019/01/15 09:42:31.000   4280223.3421  -4034418.2494  -2458268.1725   5  12   0.1167   0.1039   0.0903  -0.0847   0.0727  -0.0739   1.00    0.0
2019/01/15 09:42:32.000   4280223.3421  -4034418.2494  -2458268.1725   5  12   0.1167   0.1039   0.0903  -0.0847   0.0727  -0.0739   2.00    0.0
2019/01/15 09:42:36.000   4280223.3421  -4034418.2494  -2458268.1725   5  12   0.1167   0.1039   0.0903  -0.0847   0.0727  -0.0739   6.00    0.0
2019/01/15 09:42:37.000   4280223.3421  -4034418.2494  -2458268.1725   5  12   0.1167   0.1039   0.0903  -0.0847   0.0727  -0.0739   7.00    0.0
2019/01/15 09:42:38.000   4280223.3421  -4034418.2494  -2458268.1725   5  12   0.1167   0.1039   0.0903  -0.0847   0.0727  -0.0739   8.00    0.0
2019/01/15 09:42:43.000   4280223.3421  -4034418.2494  -2458268.1725   5  12   0.1167   0.1039   0.0903  -0.0847   0.0727  -0.0739  13.00    0.0
2019/01/15 09:42:46.000   4280223.3421  -4034418.2494  -2458268.1725   5  12   0.1167   0.1039   0.0903  -0.0847   0.0727  -0.0739   1.00    0.0
2019/01/15 09:42:52.000   4280223.3421  -4034418.2494  -2458268.1725   5  12   0.1167   0.1039   0.0903  -0.0847   0.0727  -0.0739   7.00    0.0
2019/01/15 09:42:59.000   4280223.3421  -4034418.2494  -2458268.1725   5  12   0.1167   0.1039   0.0903  -0.0847   0.0727  -0.0739  14.00    0.0
2019/01/15 09:43:00.000   4280223.3421  -4034418.2494  -2458268.1725   5  12   0.1167   0.1039   0.0903  -0.0847   0.0727  -0.0739   0.00    0.0
2019/01/15 09:43:05.000   4280223.3421  -4034418.2494  -2458268.1725   5  12   0.1167   0.1039   0.0903  -0.0847   0.0727  -0.0739   5.00    0.0
2019/01/15 09:43:06.000   4280223.3421  -4034418.2494  -2458268.1725   5  12   0.1167   0.1039   0.0903  -0.0847   0.0727  -0.0739   6.00    0.0
2019/01/15 09:43:10.000   4280223.3421  -4034418.2494  -2458268.1725   5  12   0.1167   0.1039   0.0903  -0.0847   0.0727  -0.0739  10.00    0.0
2019/01/15 09:43:12.000   4280223.3421  -4034418.2494  -2458268.1725   5  12   0.1167   0.1039   0.0903  -0.0847   0.0727  -0.0739  12.00    0.0
2019/01/15 09:43:21.000   4280223.3421  -4034418.2494  -2458268.1725   5  12   0.1167   0.1039   0.0903  -0.0847   0.0727  -0.0739   6.00    0.0
2019/01/15 09:43:22.000   4280223.3421  -4034418.2494  -2458268.1725   5  12   0.1167   0.1039   0.0903  -0.0847   0.0727  -0.0739   7.00    0.0
2019/01/15 09:43:25.000   4280223.3421  -4034418.2494  -2458268.1725   5  12   0.1167   0.1039   0.0903  -0.0847   0.0727  -0.0739  10.00    0.0
2019/01/15 09:43:28.000   4280223.3421  -4034418.2494  -2458268.1725   5  12   0.1167   0.1039   0.0903  -0.0847   0.0727  -0.0739  13.00    0.0
2019/01/15 09:43:31.000   4280223.3421  -4034418.2494  -2458268.1725   5  12   0.1167   0.1039   0.0903  -0.0847   0.0727  -0.0739   1.00    0.0
2019/01/15 09:43:32.000   4280223.3421  -4034418.2494  -2458268.1725   5  12   0.1167   0.1039   0.0903  -0.0847   0.0727  -0.0739   2.00    0.0
2019/01/15 09:43:33.000   4280223.3421  -4034418.2494  -2458268.1725   5  12   0.1167   0.1039   0.0903  -0.0847   0.0727  -0.0739   3.00    0.0
2019/01/15 09:43:38.000   4280223.3421  -4034418.2494  -2458268.1725   5  12   0.1167   0.1039   0.0903  -0.0847   0.0727  -0.0739   8.00    0.0
2019/01/15 09:43:39.000   4280223.3421  -4034418.2494  -2458268.1725   5  12   0.1167   0.1039   0.0903  -0.0847   0.0727  -0.0739   9.00    0.0
2019/01/15 09:43:40.000   4280223.3421  -4034418.2494  -2458268.1725   5  12   0.1167   0.1039   0.0903  -0.0847   0.0727  -0.0739  10.00    0.0
2019/01/15 09:43:41.000   4280223.3421  -4034418.2494  -2458268.1725   5  12   0.1167   0.1039   0.0903  -0.0847   0.0727  -0.0739  11.00    0.0
2019/01/15 09:43:46.000   4280223.3421  -4034418.2494  -2458268.1725   5  12   0.1167   0.1039   0.0903  -0.0847   0.0727  -0.0739   1.00    0.0
2019/01/15 09:43:48.000   4280223.3421  -4034418.2494  -2458268.1725   5  12   0.1167   0.1039   0.0903  -0.0847   0.0727  -0.0739   3.00    0.0
2019/01/15 09:43:49.000   4280223.3421  -4034418.2494  -2458268.1725   5  12   0.1167   0.1039   0.0903  -0.0847   0.0727  -0.0739   4.00    0.0
2019/01/15 09:43:51.000   4280223.3421  -4034418.2494  -2458268.1725   5  12   0.1167   0.1039   0.0903  -0.0847   0.0727  -0.0739   6.00    0.0
2019/01/15 09:43:54.000   4280223.3421  -4034418.2494  -2458268.1725   5  12   0.1167   0.1039   0.0903  -0.0847   0.0727  -0.0739   9.00    0.0
2019/01/15 09:43:55.000   4280223.3421  -4034418.2494  -2458268.1725   5  12   0.1167   0.1039   0.0903  -0.0847   0.0727  -0.0739  10.00    0.0
2019/01/15 09:43:56.000   4280223.3421  -4034418.2494  -2458268.1725   5  12   0.1167   0.1039   0.0903  -0.0847   0.0727  -0.0739  11.00    0.0
2019/01/15 09:43:58.000   4280223.3421  -4034418.2494  -2458268.1725   5  12   0.1167   0.1039   0.0903  -0.0847   0.0727  -0.0739  13.00    0.0
2019/01/15 09:44:07.000   4280223.3421  -4034418.2494  -2458268.1725   5  10   0.1167   0.1039   0.0903  -0.0847   0.0727  -0.0739   7.00    0.0
2019/01/15 09:44:13.000   4280223.3421  -4034418.2494  -2458268.1725   5  11   0.1167   0.1039   0.0903  -0.0847   0.0727  -0.0739  13.00    0.0
2019/01/15 09:44:24.000   4280223.3421  -4034418.2494  -2458268.1725   5  12   0.1167   0.1039   0.0903  -0.0847   0.0727  -0.0739   9.00    0.0
2019/01/15 09:44:40.000   4280223.3421  -4034418.2494  -2458268.1725   5  12   0.1167   0.1039   0.0903  -0.0847   0.0727  -0.0739  10.00    0.0
2019/01/15 09:44:41.000   4280223.3421  -4034418.2494  -2458268.1725   5  12   0.1167   0.1039   0.0903  -0.0847   0.0727  -0.0739  11.00    0.0
2019/01/15 09:44:49.000   4280223.3421  -4034418.2494  -2458268.1725   5  12   0.1167   0.1039   0.0903  -0.0847   0.0727  -0.0739   4.00    0.0
2019/01/15 09:44:51.000   4280223.3421  -4034418.2494  -2458268.1725   5  12   0.1167   0.1039   0.0903  -0.0847   0.0727  -0.0739   6.00    0.0
2019/01/15 09:45:02.000   4280223.3421  -4034418.2494  -2458268.1725   5  12   0.1167   0.1039   0.0903  -0.0847   0.0727  -0.0739   2.00    0.0
2019/01/15 09:45:07.000   4280223.3421  -4034418.2494  -2458268.1725   5  12   0.1167   0.1039   0.0903  -0.0847   0.0727  -0.0739   7.00    0.0
2019/01/15 09:45:12.000   4280223.3421  -4034418.2494  -2458268.1725   5  12   0.1167   0.1039   0.0903  -0.0847   0.0727  -0.0739  12.00    0.0
2019/01/15 09:45:13.000   4280223.3421  -4034418.2494  -2458268.1725   5  12   0.1167   0.1039   0.0903  -0.0847   0.0727  -0.0739  13.00    0.0
2019/01/15 09:45:26.000   4280223.3421  -4034418.2494  -2458268.1725   5  12   0.1167   0.1039   0.0903  -0.0847   0.0727  -0.0739  11.00    0.0
2019/01/15 09:45:31.000   4280223.3421  -4034418.2494  -2458268.1725   5  12   0.1167   0.1039   0.0903  -0.0847   0.0727  -0.0739   1.00    0.0
2019/01/15 09:45:32.000   4280223.3421  -4034418.2494  -2458268.1725   5  12   0.1167   0.1039   0.0903  -0.0847   0.0727  -0.0739   2.00    0.0
2019/01/15 09:45:34.000   4280223.3421  -4034418.2494  -2458268.1725   5  12   0.1167   0.1039   0.0903  -0.0847   0.0727  -0.0739   4.00    0.0
2019/01/15 09:45:40.000   4280223.3421  -4034418.2494  -2458268.1725   5  12   0.1167   0.1039   0.0903  -0.0847   0.0727  -0.0739  10.00    0.0
2019/01/15 09:45:47.000   4280223.3421  -4034418.2494  -2458268.1725   5  12   0.1167   0.1039   0.0903  -0.0847   0.0727  -0.0739   2.00    0.0
2019/01/15 09:45:51.000   4280223.3421  -4034418.2494  -2458268.1725   5  12   0.1167   0.1039   0.0903  -0.0847   0.0727  -0.0739   6.00    0.0
2019/01/15 09:46:31.000   4280223.3421  -4034418.2494  -2458268.1725   5  12   0.1167   0.1039   0.0903  -0.0847   0.0727  -0.0739   1.00    0.0
2019/01/15 09:46:37.000   4280223.3421  -4034418.2494  -2458268.1725   5  12   0.1167   0.1039   0.0903  -0.0847   0.0727  -0.0739   7.00    0.0
2019/01/15 09:46:38.000   4280223.3421  -4034418.2494  -2458268.1725   5  12   0.1167   0.1039   0.0903  -0.0847   0.0727  -0.0739   8.00    0.0
2019/01/15 09:46:39.000   4280223.3421  -4034418.2494  -2458268.1725   5  12   0.1167   0.1039   0.0903  -0.0847   0.0727  -0.0739   9.00    0.0
2019/01/15 09:46:44.000   4280223.3421  -4034418.2494  -2458268.1725   5  12   0.1167   0.1039   0.0903  -0.0847   0.0727  -0.0739  14.00    0.0
2019/01/15 09:46:50.000   4280223.3421  -4034418.2494  -2458268.1725   5  12   0.1167   0.1039   0.0903  -0.0847   0.0727  -0.0739   5.00    0.0
2019/01/15 09:46:51.000   4280223.3421  -4034418.2494  -2458268.1725   5  12   0.1167   0.1039   0.0903  -0.0847   0.0727  -0.0739   6.00    0.0
2019/01/15 09:46:52.000   4280223.3421  -4034418.2494  -2458268.1725   5  12   0.1167   0.1039   0.0903  -0.0847   0.0727  -0.0739   7.00    0.0
2019/01/15 09:46:56.000   4280223.3421  -4034418.2494  -2458268.1725   5  12   0.1167   0.1039   0.0903  -0.0847   0.0727  -0.0739  11.00    0.0
2019/01/15 09:47:00.000   4280223.3421  -4034418.2494  -2458268.1725   5  12   0.1167   0.1039   0.0903  -0.0847   0.0727  -0.0739   0.00    0.0
2019/01/15 09:47:02.000   4280223.3421  -4034418.2494  -2458268.1725   5  12   0.1167   0.1039   0.0903  -0.0847   0.0727  -0.0739   2.00    0.0
2019/01/15 09:47:15.000   4280223.3421  -4034418.2494  -2458268.1725   5  12   0.1167   0.1039   0.0903  -0.0847   0.0727  -0.0739   0.00    0.0
2019/01/15 09:47:24.000   4280223.3421  -4034418.2494  -2458268.1725   5  12   0.1167   0.1039   0.0903  -0.0847   0.0727  -0.0739   9.00    0.0
2019/01/15 09:47:27.000   4280223.3421  -4034418.2494  -2458268.1725   5  12   0.1167   0.1039   0.0903  -0.0847   0.0727  -0.0739  12.00    0.0
2019/01/15 09:47:29.000   4280223.3421  -4034418.2494  -2458268.1725   5  12   0.1167   0.1039   0.0903  -0.0847   0.0727  -0.0739  14.00    0.0
2019/01/15 09:47:35.000   4280223.3421  -4034418.2494  -2458268.1725   5  12   0.1167   0.1039   0.0903  -0.0847   0.0727  -0.0739   5.00    0.0
2019/01/15 09:47:36.000   4280223.3421  -4034418.2494  -2458268.1725   5  12   0.1167   0.1039   0.0903  -0.0847   0.0727  -0.0739   6.00    0.0
2019/01/15 09:47:39.000   4280223.3421  -4034418.2494  -2458268.1725   5  12   0.1167   0.1039   0.0903  -0.0847   0.0727  -0.0739   9.00    0.0
2019/01/15 09:47:42.000   4280223.3421  -4034418.2494  -2458268.1725   5  12   0.1167   0.1039   0.0903  -0.0847   0.0727  -0.0739  12.00    0.0
2019/01/15 09:47:43.000   4280223.3421  -4034418.2494  -2458268.1725   5  12   0.1167   0.1039   0.0903  -0.0847   0.0727  -0.0739  13.00    0.0
2019/01/15 09:47:45.000   4280223.3421  -4034418.2494  -2458268.1725   5  12   0.1167   0.1039   0.0903  -0.0847   0.0727  -0.0739   0.00    0.0
2019/01/15 09:47:49.000   4280223.3421  -4034418.2494  -2458268.1725   5  12   0.1167   0.1039   0.0903  -0.0847   0.0727  -0.0739   4.00    0.0
2019/01/15 09:47:50.000   4280223.3421  -4034418.2494  -2458268.1725   5  12   0.1167   0.1039   0.0903  -0.0847   0.0727  -0.0739   5.00    0.0
2019/01/15 09:47:52.000   4280223.3421  -4034418.2494  -2458268.1725   5  12   0.1167   0.1039   0.0903  -0.0847   0.0727  -0.0739   7.00    0.0
2019/01/15 09:47:53.000   4280223.3421  -4034418.2494  -2458268.1725   5  12   0.1167   0.1039   0.0903  -0.0847   0.0727  -0.0739   8.00    0.0
2019/01/15 09:47:56.000   4280223.3421  -4034418.2494  -2458268.1725   5  12   0.1167   0.1039   0.0903  -0.0847   0.0727  -0.0739  11.00    0.0
2019/01/15 09:47:57.000   4280223.3421  -4034418.2494  -2458268.1725   5  12   0.1167   0.1039   0.0903  -0.0847   0.0727  -0.0739  12.00    0.0
2019/01/15 09:47:58.000   4280223.3421  -4034418.2494  -2458268.1725   5  12   0.1167   0.1039   0.0903  -0.0847   0.0727  -0.0739  13.00    0.0
2019/01/15 09:48:00.000   4280223.3210  -4034418.1763  -2458268.0738   2  12   0.1160   0.1032   0.0898  -0.0842   0.0722  -0.0733   0.00    1.2
2019/01/15 09:48:02.000   4280223.3210  -4034418.1763  -2458268.0738   5  12   0.1160   0.1032   0.0898  -0.0842   0.0722  -0.0733   2.00    0.0
2019/01/15 09:48:08.000   4280223.3210  -4034418.1763  -2458268.0738   5  12   0.1160   0.1032   0.0898  -0.0842   0.0722  -0.0733   8.00    0.0
2019/01/15 09:48:09.000   4280223.3210  -4034418.1763  -2458268.0738   5  12   0.1160   0.1032   0.0898  -0.0842   0.0722  -0.0733   9.00    0.0
2019/01/15 09:48:26.000   4280223.3210  -4034418.1763  -2458268.0738   5  12   0.1160   0.1032   0.0898  -0.0842   0.0722  -0.0733  11.00    0.0
2019/01/15 09:48:29.000   4280223.3210  -4034418.1763  -2458268.0738   5  12   0.1160   0.1032   0.0898  -0.0842   0.0722  -0.0733  14.00    0.0
2019/01/15 09:48:32.000   4280223.3210  -4034418.1763  -2458268.0738   5  12   0.1160   0.1032   0.0898  -0.0842   0.0722  -0.0733   2.00    0.0
2019/01/15 09:48:33.000   4280223.3210  -4034418.1763  -2458268.0738   5  12   0.1160   0.1032   0.0898  -0.0842   0.0722  -0.0733   3.00    0.0
2019/01/15 09:48:37.000   4280223.3210  -4034418.1763  -2458268.0738   5  12   0.1160   0.1032   0.0898  -0.0842   0.0722  -0.0733   7.00    0.0
2019/01/15 09:48:39.000   4280223.3210  -4034418.1763  -2458268.0738   5  12   0.1160   0.1032   0.0898  -0.0842   0.0722  -0.0733   9.00    0.0
2019/01/15 09:48:45.000   4280223.3210  -4034418.1763  -2458268.0738   5  11   0.1160   0.1032   0.0898  -0.0842   0.0722  -0.0733   0.00    0.0
2019/01/15 09:48:51.000   4280223.3210  -4034418.1763  -2458268.0738   5  11   0.1160   0.1032   0.0898  -0.0842   0.0722  -0.0733   6.00    0.0
2019/01/15 09:48:53.000   4280223.3210  -4034418.1763  -2458268.0738   5  11   0.1160   0.1032   0.0898  -0.0842   0.0722  -0.0733   8.00    0.0
2019/01/15 09:48:59.000   4280223.3210  -4034418.1763  -2458268.0738   5  11   0.1160   0.1032   0.0898  -0.0842   0.0722  -0.0733  14.00    0.0
2019/01/15 09:49:00.000   4280223.3210  -4034418.1763  -2458268.0738   5  11   0.1160   0.1032   0.0898  -0.0842   0.0722  -0.0733   0.00    0.0
2019/01/15 09:49:01.000   4280223.3210  -4034418.1763  -2458268.0738   5  11   0.1160   0.1032   0.0898  -0.0842   0.0722  -0.0733   1.00    0.0
2019/01/15 09:49:02.000   4280223.3210  -4034418.1763  -2458268.0738   5  11   0.1160   0.1032   0.0898  -0.0842   0.0722  -0.0733   2.00    0.0
2019/01/15 09:49:05.000   4280223.3210  -4034418.1763  -2458268.0738   5  11   0.1160   0.1032   0.0898  -0.0842   0.0722  -0.0733   5.00    0.0
2019/01/15 09:49:06.000   4280223.3210  -4034418.1763  -2458268.0738   5  11   0.1160   0.1032   0.0898  -0.0842   0.0722  -0.0733   6.00    0.0
2019/01/15 09:49:07.000   4280223.3210  -4034418.1763  -2458268.0738   5  11   0.1160   0.1032   0.0898  -0.0842   0.0722  -0.0733   7.00    0.0
2019/01/15 09:49:11.000   4280223.3210  -4034418.1763  -2458268.0738   5  11   0.1160   0.1032   0.0898  -0.0842   0.0722  -0.0733  11.00    0.0
2019/01/15 09:49:13.000   4280223.3210  -4034418.1763  -2458268.0738   5  11   0.1160   0.1032   0.0898  -0.0842   0.0722  -0.0733  13.00    0.0
2019/01/15 09:49:17.000   4280223.3210  -4034418.1763  -2458268.0738   5  11   0.1160   0.1032   0.0898  -0.0842   0.0722  -0.0733   2.00    0.0
2019/01/15 09:49:23.000   4280223.3210  -4034418.1763  -2458268.0738   5  11   0.1160   0.1032   0.0898  -0.0842   0.0722  -0.0733   8.00    0.0
2019/01/15 09:49:24.000   4280223.3210  -4034418.1763  -2458268.0738   5  11   0.1160   0.1032   0.0898  -0.0842   0.0722  -0.0733   9.00    0.0
2019/01/15 09:49:26.000   4280223.3210  -4034418.1763  -2458268.0738   5  11   0.1160   0.1032   0.0898  -0.0842   0.0722  -0.0733  11.00    0.0
2019/01/15 09:49:27.000   4280223.3210  -4034418.1763  -2458268.0738   5  11   0.1160   0.1032   0.0898  -0.0842   0.0722  -0.0733  12.00    0.0
2019/01/15 09:49:28.000   4280223.3210  -4034418.1763  -2458268.0738   5  11   0.1160   0.1032   0.0898  -0.0842   0.0722  -0.0733  13.00    0.0
2019/01/15 09:49:29.000   4280223.3210  -4034418.1763  -2458268.0738   5  11   0.1160   0.1032   0.0898  -0.0842   0.0722  -0.0733  14.00    0.0
2019/01/15 09:49:33.000   4280223.3210  -4034418.1763  -2458268.0738   5  11   0.1160   0.1032   0.0898  -0.0842   0.0722  -0.0733   3.00    0.0
2019/01/15 09:49:34.000   4280223.3210  -4034418.1763  -2458268.0738   5  11   0.1160   0.1032   0.0898  -0.0842   0.0722  -0.0733   4.00    0.0
2019/01/15 09:49:41.000   4280223.3210  -4034418.1763  -2458268.0738   5  11   0.1160   0.1032   0.0898  -0.0842   0.0722  -0.0733  11.00    0.0
2019/01/15 09:49:45.000   4280223.3210  -4034418.1763  -2458268.0738   5  11   0.1160   0.1032   0.0898  -0.0842   0.0722  -0.0733   0.00    0.0
2019/01/15 09:49:47.000   4280223.3210  -4034418.1763  -2458268.0738   5  11   0.1160   0.1032   0.0898  -0.0842   0.0722  -0.0733   2.00    0.0
2019/01/15 09:49:49.000   4280223.3210  -4034418.1763  -2458268.0738   5  11   0.1160   0.1032   0.0898  -0.0842   0.0722  -0.0733   4.00    0.0
2019/01/15 09:49:50.000   4280223.3210  -4034418.1763  -2458268.0738   5  11   0.1160   0.1032   0.0898  -0.0842   0.0722  -0.0733   5.00    0.0
2019/01/15 09:49:52.000   4280223.3210  -4034418.1763  -2458268.0738   5  11   0.1160   0.1032   0.0898  -0.0842   0.0722  -0.0733   7.00    0.0
2019/01/15 09:49:54.000   4280223.3210  -4034418.1763  -2458268.0738   5  11   0.1160   0.1032   0.0898  -0.0842   0.0722  -0.0733   9.00    0.0
2019/01/15 09:49:56.000   4280223.3210  -4034418.1763  -2458268.0738   5  11   0.1160   0.1032   0.0898  -0.0842   0.0722  -0.0733  11.00    0.0
2019/01/15 09:49:57.000   4280223.3210  -4034418.1763  -2458268.0738   5  11   0.1160   0.1032   0.0898  -0.0842   0.0722  -0.0733  12.00    0.0
2019/01/15 09:49:59.000   4280223.3210  -4034418.1763  -2458268.0738   5  11   0.1160   0.1032   0.0898  -0.0842   0.0722  -0.0733  14.00    0.0
2019/01/15 09:50:01.000   4280223.3210  -4034418.1763  -2458268.0738   5  11   0.1160   0.1032   0.0898  -0.0842   0.0722  -0.0733   1.00    0.0
2019/01/15 09:50:02.000   4280223.3210  -4034418.1763  -2458268.0738   5  11   0.1160   0.1032   0.0898  -0.0842   0.0722  -0.0733   2.00    0.0
2019/01/15 09:50:13.000   4280223.3210  -4034418.1763  -2458268.0738   5  11   0.1160   0.1032   0.0898  -0.0842   0.0722  -0.0733  13.00    0.0
2019/01/15 09:50:15.000   4280223.3210  -4034418.1763  -2458268.0738   5  11   0.1160   0.1032   0.0898  -0.0842   0.0722  -0.0733   0.00    0.0
2019/01/15 09:50:16.000   4280223.3210  -4034418.1763  -2458268.0738   5  11   0.1160   0.1032   0.0898  -0.0842   0.0722  -0.0733   1.00    0.0
2019/01/15 09:50:17.000   4280223.3210  -4034418.1763  -2458268.0738   5  11   0.1160   0.1032   0.0898  -0.0842   0.0722  -0.0733   2.00    0.0
2019/01/15 09:50:25.000   4280223.3210  -4034418.1763  -2458268.0738   5  11   0.1160   0.1032   0.0898  -0.0842   0.0722  -0.0733  10.00    0.0
2019/01/15 09:50:29.000   4280223.3210  -4034418.1763  -2458268.0738   5  11   0.1160   0.1032   0.0898  -0.0842   0.0722  -0.0733  14.00    0.0
2019/01/15 09:50:31.000   4280223.3210  -4034418.1763  -2458268.0738   5  11   0.1160   0.1032   0.0898  -0.0842   0.0722  -0.0733   1.00    0.0
2019/01/15 09:50:40.000   4280223.3210  -4034418.1763  -2458268.0738   5  11   0.1160   0.1032   0.0898  -0.0842   0.0722  -0.0733  10.00    0.0
2019/01/15 09:50:41.000   4280223.3210  -4034418.1763  -2458268.0738   5  11   0.1160   0.1032   0.0898  -0.0842   0.0722  -0.0733  11.00    0.0
2019/01/15 09:50:47.000   4280223.3210  -4034418.1763  -2458268.0738   5  11   0.1160   0.1032   0.0898  -0.0842   0.0722  -0.0733   2.00    0.0
2019/01/15 09:50:51.000   4280223.3210  -4034418.1763  -2458268.0738   5  11   0.1160   0.1032   0.0898  -0.0842   0.0722  -0.0733   6.00    0.0
2019/01/15 09:50:52.000   4280223.3210  -4034418.1763  -2458268.0738   5  11   0.1160   0.1032   0.0898  -0.0842   0.0722  -0.0733   7.00    0.0
2019/01/15 09:50:53.000   4280223.3210  -4034418.1763  -2458268.0738   5  11   0.1160   0.1032   0.0898  -0.0842   0.0722  -0.0733   8.00    0.0
2019/01/15 09:50:54.000   4280223.3210  -4034418.1763  -2458268.0738   5  11   0.1160   0.1032   0.0898  -0.0842   0.0722  -0.0733   9.00    0.0
2019/01/15 09:51:10.000   4280223.3210  -4034418.1763  -2458268.0738   5  11   0.1160   0.1032   0.0898  -0.0842   0.0722  -0.0733  10.00    0.0
2019/01/15 09:51:14.000   4280223.3210  -4034418.1763  -2458268.0738   5  11   0.1160   0.1032   0.0898  -0.0842   0.0722  -0.0733  14.00    0.0
2019/01/15 09:51:18.000   4280223.3210  -4034418.1763  -2458268.0738   5  11   0.1160   0.1032   0.0898  -0.0842   0.0722  -0.0733   3.00    0.0
2019/01/15 09:51:20.000   4280223.3210  -4034418.1763  -2458268.0738   5  11   0.1160   0.1032   0.0898  -0.0842   0.0722  -0.0733   5.00    0.0
2019/01/15 09:51:21.000   4280223.3210  -4034418.1763  -2458268.0738   5  11   0.1160   0.1032   0.0898  -0.0842   0.0722  -0.0733   6.00    0.0
2019/01/15 09:51:28.000   4280223.3210  -4034418.1763  -2458268.0738   5  11   0.1160   0.1032   0.0898  -0.0842   0.0722  -0.0733  13.00    0.0
2019/01/15 09:51:30.000   4280223.3210  -4034418.1763  -2458268.0738   5  11   0.1160   0.1032   0.0898  -0.0842   0.0722  -0.0733   0.00    0.0
2019/01/15 09:51:36.000   4280223.3210  -4034418.1763  -2458268.0738   5  11   0.1160   0.1032   0.0898  -0.0842   0.0722  -0.0733   6.00    0.0
2019/01/15 09:51:39.000   4280223.3210  -4034418.1763  -2458268.0738   5  11   0.1160   0.1032   0.0898  -0.0842   0.0722  -0.0733   9.00    0.0
2019/01/15 09:51:45.000   4280223.3210  -4034418.1763  -2458268.0738   5  11   0.1160   0.1032   0.0898  -0.0842   0.0722  -0.0733   0.00    0.0
2019/01/15 09:51:47.000   4280223.3210  -4034418.1763  -2458268.0738   5  11   0.1160   0.1032   0.0898  -0.0842   0.0722  -0.0733   2.00    0.0
2019/01/15 09:51:48.000   4280223.3210  -4034418.1763  -2458268.0738   5  11   0.1160   0.1032   0.0898  -0.0842   0.0722  -0.0733   3.00    0.0
2019/01/15 09:51:53.000   4280223.3210  -4034418.1763  -2458268.0738   5  11   0.1160   0.1032   0.0898  -0.0842   0.0722  -0.0733   8.00    0.0
2019/01/15 09:51:57.000   4280223.3210  -4034418.1763  -2458268.0738   5  11   0.1160   0.1032   0.0898  -0.0842   0.0722  -0.0733  12.00    0.0
2019/01/15 09:51:58.000   4280223.3210  -4034418.1763  -2458268.0738   5  11   0.1160   0.1032   0.0898  -0.0842   0.0722  -0.0733  13.00    0.0
2019/01/15 09:51:59.000   4280223.3210  -4034418.1763  -2458268.0738   5  11   0.1160   0.1032   0.0898  -0.0842   0.0722  -0.0733  14.00    0.0
2019/01/15 09:52:00.000   4280223.3210  -4034418.1763  -2458268.0738   5  11   0.1160   0.1032   0.0898  -0.0842   0.0722  -0.0733   0.00    0.0
2019/01/15 09:52:08.000   4280223.3210  -4034418.1763  -2458268.0738   5  11   0.1160   0.1032   0.0898  -0.0842   0.0722  -0.0733   8.00    0.0
2019/01/15 09:52:13.000   4280223.3210  -4034418.1763  -2458268.0738   5  11   0.1160   0.1032   0.0898  -0.0842   0.0722  -0.0733  13.00    0.0
2019/01/15 09:52:14.000   4280223.3210  -4034418.1763  -2458268.0738   5  11   0.1160   0.1032   0.0898  -0.0842   0.0722  -0.0733  14.00    0.0
2019/01/15 09:52:16.000   4280223.3210  -4034418.1763  -2458268.0738   5  11   0.1160   0.1032   0.0898  -0.0842   0.0722  -0.0733   1.00    0.0
2019/01/15 09:52:25.000   4280223.3210  -4034418.1763  -2458268.0738   5  11   0.1160   0.1032   0.0898  -0.0842   0.0722  -0.0733  10.00    0.0
2019/01/15 09:52:26.000   4280223.3210  -4034418.1763  -2458268.0738   5  11   0.1160   0.1032   0.0898  -0.0842   0.0722  -0.0733  11.00    0.0
2019/01/15 09:52:27.000   4280223.3210  -4034418.1763  -2458268.0738   5  11   0.1160   0.1032   0.0898  -0.0842   0.0722  -0.0733  12.00    0.0
2019/01/15 09:52:30.000   4280223.3210  -4034418.1763  -2458268.0738   5  11   0.1160   0.1032   0.0898  -0.0842   0.0722  -0.0733   0.00    0.0
2019/01/15 09:52:31.000   4280223.3210  -4034418.1763  -2458268.0738   5  11   0.1160   0.1032   0.0898  -0.0842   0.0722  -0.0733   1.00    0.0
2019/01/15 09:52:32.000   4280223.3210  -4034418.1763  -2458268.0738   5  11   0.1160   0.1032   0.0898  -0.0842   0.0722  -0.0733   2.00    0.0
2019/01/15 09:52:36.000   4280223.3210  -4034418.1763  -2458268.0738   5  11   0.1160   0.1032   0.0898  -0.0842   0.0722  -0.0733   6.00    0.0
2019/01/15 09:52:37.000   4280223.3210  -4034418.1763  -2458268.0738   5  11   0.1160   0.1032   0.0898  -0.0842   0.0722  -0.0733   7.00    0.0
2019/01/15 09:52:39.000   4280223.3210  -4034418.1763  -2458268.0738   5  11   0.1160   0.1032   0.0898  -0.0842   0.0722  -0.0733   9.00    0.0
2019/01/15 09:52:40.000   4280223.3210  -4034418.1763  -2458268.0738   5  11   0.1160   0.1032   0.0898  -0.0842   0.0722  -0.0733  10.00    0.0
2019/01/15 09:52:41.000   4280223.3210  -4034418.1763  -2458268.0738   5  11   0.1160   0.1032   0.0898  -0.0842   0.0722  -0.0733  11.00    0.0
2019/01/15 09:52:42.000   4280223.3210  -4034418.1763  -2458268.0738   5  11   0.1160   0.1032   0.0898  -0.0842   0.0722  -0.0733  12.00    0.0
2019/01/15 09:52:43.000   4280223.3210  -4034418.1763  -2458268.0738   5  11   0.1160   0.1032   0.0898  -0.0842   0.0722  -0.0733  13.00    0.0
2019/01/15 09:52:44.000   4280223.3210  -4034418.1763  -2458268.0738   5  11   0.1160   0.1032   0.0898  -0.0842   0.0722  -0.0733  14.00    0.0
2019/01/15 09:52:45.000   4280223.3210  -4034418.1763  -2458268.0738   5  11   0.1160   0.1032   0.0898  -0.0842   0.0722  -0.0733   0.00    0.0
2019/01/15 09:52:49.000   4280223.3210  -4034418.1763  -2458268.0738   5  11   0.1160   0.1032   0.0898  -0.0842   0.0722  -0.0733   4.00    0.0
2019/01/15 09:52:50.000   4280223.3210  -4034418.1763  -2458268.0738   5  11   0.1160   0.1032   0.0898  -0.0842   0.0722  -0.0733   5.00    0.0
2019/01/15 09:52:53.000   4280223.3210  -4034418.1763  -2458268.0738   5  11   0.1160   0.1032   0.0898  -0.0842   0.0722  -0.0733   8.00    0.0
2019/01/15 09:52:55.000   4280223.3210  -4034418.1763  -2458268.0738   5  11   0.1160   0.1032   0.0898  -0.0842   0.0722  -0.0733  10.00    0.0
2019/01/15 09:52:56.000   4280223.3210  -4034418.1763  -2458268.0738   5  11   0.1160   0.1032   0.0898  -0.0842   0.0722  -0.0733  11.00    0.0
2019/01/15 09:52:57.000   4280223.3210  -4034418.1763  -2458268.0738   5  11   0.1160   0.1032   0.0898  -0.0842   0.0722  -0.0733  12.00    0.0
2019/01/15 09:52:58.000   4280223.3210  -4034418.1763  -2458268.0738   5  11   0.1160   0.1032   0.0898  -0.0842   0.0722  -0.0733  13.00    0.0
2019/01/15 09:52:59.000   4280223.3210  -4034418.1763  -2458268.0738   5  11   0.1160   0.1032   0.0898  -0.0842   0.0722  -0.0733  14.00    0.0
2019/01/15 09:53:00.000   4280223.3210  -4034418.1763  -2458268.0738   5  11   0.1160   0.1032   0.0898  -0.0842   0.0722  -0.0733   0.00    0.0
