% program   : RTKPOST ver.2.4.2
% inp file  : D:\Google Drive\UERJ\_Projeto Final\20190115_Marco 91500 IBGE\20190115_LevantamentoCompleto.19o
% inp file  : D:\Google Drive\UERJ\_Projeto Final\20190115_Marco 91500 IBGE\brdm0150.19p
% obs start : 2019/01/15 09:25:22.0 GPST (week2036 206722.0s)
% obs end   : 2019/01/15 10:25:42.0 GPST (week2036 210342.0s)
% pos mode  : single
% elev mask : 15.0 deg
% ionos opt : off
% tropo opt : off
% ephemeris : broadcast
%
% (x/y/z-ecef=WGS84,Q=1:fix,2:float,3:sbas,4:dgps,5:single,6:ppp,ns=# of satellites)
%  GPST                      x-ecef(m)      y-ecef(m)      z-ecef(m)   Q  ns   sdx(m)   sdy(m)   sdz(m)  sdxy(m)  sdyz(m)  sdzx(m) age(s)  ratio
2019/01/15 09:25:22.000   4280239.2751  -4034434.1100  -2458276.0554   5   6   9.9554  10.8757   7.5521  -8.6096  -4.2877  -3.7827   0.00    0.0
2019/01/15 09:25:23.000   4280233.5352  -4034437.2441  -2458292.7191   5   6   9.9571  10.8762   7.5523  -8.6112  -4.2869  -3.7831   0.00    0.0
2019/01/15 09:25:24.000   4280234.5616  -4034436.2336  -2458282.7015   5   6   9.9587  10.8767   7.5525  -8.6128  -4.2862  -3.7835   0.00    0.0
2019/01/15 09:25:25.000   4280227.5901  -4034433.9545  -2458269.7844   5   6   9.9604  10.8772   7.5527  -8.6144  -4.2854  -3.7839   0.00    0.0
2019/01/15 09:25:26.000   4280221.8191  -4034426.6772  -2458258.6893   5   6   9.9621  10.8777   7.5529  -8.6159  -4.2847  -3.7843   0.00    0.0
2019/01/15 09:25:27.000   4280226.1774  -4034421.7898  -2458293.5598   5   5  10.7946  10.9417  16.4756  -8.8967  -1.0545  -8.6678   0.00    0.0
2019/01/15 09:25:28.000   4280242.6464  -4034440.2068  -2458292.1782   5   6   9.9655  10.8787   7.5534  -8.6191  -4.2832  -3.7851   0.00    0.0
2019/01/15 09:25:29.000   4280220.9370  -4034416.8286  -2458286.1002   5   5  10.7946  10.9426  16.4610  -8.8989  -1.0684  -8.6573   0.00    0.0
2019/01/15 09:25:30.000   4280241.2710  -4034436.0502  -2458292.8616   5   5  10.7946  10.9430  16.4537  -8.8999  -1.0754  -8.6520   0.00    0.0
2019/01/15 09:25:31.000   4280222.9231  -4034416.8484  -2458271.5204   5   5  10.7946  10.9434  16.4464  -8.9010  -1.0821  -8.6468   0.00    0.0
2019/01/15 09:25:32.000   4280215.3826  -4034409.8923  -2458274.0092   5   5  10.7947  10.9438  16.4391  -8.9021  -1.0889  -8.6416   0.00    0.0
2019/01/15 09:25:33.000   4280236.2809  -4034436.8097  -2458288.5346   5   5  10.7946  10.9442  16.4317  -8.9032  -1.0956  -8.6363   0.00    0.0
2019/01/15 09:25:34.000   4280224.5203  -4034414.7206  -2458270.2204   5   5  10.7947  10.9447  16.4245  -8.9043  -1.1021  -8.6311   0.00    0.0
2019/01/15 09:25:35.000   4280234.3957  -4034435.2830  -2458290.0869   5   5  10.7947  10.9451  16.4171  -8.9054  -1.1087  -8.6259   0.00    0.0
2019/01/15 09:25:36.000   4280232.6869  -4034430.5086  -2458276.6585   5   5  10.7947  10.9455  16.4098  -8.9065  -1.1151  -8.6207   0.00    0.0
2019/01/15 09:25:37.000   4280236.3356  -4034434.6302  -2458286.5294   5   5  10.7947  10.9459  16.4025  -8.9075  -1.1215  -8.6155   0.00    0.0
2019/01/15 09:25:38.000   4280237.9916  -4034429.9776  -2458294.6556   5   6  10.6192   8.4354  13.3698  -8.1139   8.0578  -9.6197   0.00    0.0
2019/01/15 09:25:39.000   4280229.3329  -4034422.1404  -2458273.1697   5   6  10.6183   8.4340  13.3661  -8.1127   8.0551  -9.6168   0.00    0.0
2019/01/15 09:25:40.000   4280227.4962  -4034431.4064  -2458297.9681   5   6  10.6174   8.4327  13.3623  -8.1115   8.0524  -9.6138   0.00    0.0
2019/01/15 09:25:41.000   4280240.7529  -4034439.1723  -2458301.8888   5   6  10.6166   8.4313  13.3586  -8.1103   8.0497  -9.6108   0.00    0.0
2019/01/15 09:25:42.000   4280233.0230  -4034430.3100  -2458281.0798   5   6  10.6157   8.4300  13.3548  -8.1091   8.0470  -9.6079   0.00    0.0
2019/01/15 09:25:43.000   4280224.2272  -4034420.1684  -2458279.1257   5   6  10.6149   8.4287  13.3511  -8.1080   8.0443  -9.6049   0.00    0.0
2019/01/15 09:25:44.000   4280232.4507  -4034436.2234  -2458288.9352   5   6  10.6140   8.4273  13.3474  -8.1068   8.0416  -9.6019   0.00    0.0
2019/01/15 09:25:45.000   4280233.5482  -4034432.3719  -2458279.3550   5   6  10.6131   8.4260  13.3436  -8.1056   8.0389  -9.5990   0.00    0.0
2019/01/15 09:25:46.000   4280233.7005  -4034429.9207  -2458282.5579   5   6  10.6123   8.4246  13.3399  -8.1044   8.0362  -9.5960   0.00    0.0
2019/01/15 09:25:47.000   4280232.2666  -4034430.3146  -2458296.4008   5   6  10.6114   8.4233  13.3362  -8.1032   8.0335  -9.5930   0.00    0.0
2019/01/15 09:25:48.000   4280227.3039  -4034427.8359  -2458285.5708   5   6  10.6106   8.4219  13.3324  -8.1020   8.0308  -9.5901   0.00    0.0
2019/01/15 09:25:49.000   4280225.3420  -4034425.8064  -2458278.1503   5   6  10.6097   8.4206  13.3287  -8.1008   8.0281  -9.5871   0.00    0.0
2019/01/15 09:25:50.000   4280223.4584  -4034417.6926  -2458265.4903   5   6  10.6089   8.4193  13.3250  -8.0997   8.0255  -9.5842   0.00    0.0
2019/01/15 09:25:51.000   4280229.2467  -4034418.8869  -2458279.5715   5   6  10.6080   8.4179  13.3212  -8.0985   8.0228  -9.5812   0.00    0.0
2019/01/15 09:25:52.000   4280233.7841  -4034422.0695  -2458270.2979   5   6  10.6072   8.4166  13.3175  -8.0973   8.0201  -9.5783   0.00    0.0
2019/01/15 09:25:53.000   4280225.4434  -4034410.5486  -2458280.0570   5   6  10.6063   8.4152  13.3138  -8.0961   8.0174  -9.5753   0.00    0.0
2019/01/15 09:25:54.000   4280232.4135  -4034424.5925  -2458284.6068   5   6  10.6055   8.4139  13.3100  -8.0949   8.0147  -9.5724   0.00    0.0
2019/01/15 09:25:55.000   4280222.9670  -4034415.5081  -2458280.7830   5   6  10.6046   8.4126  13.3063  -8.0938   8.0120  -9.5694   0.00    0.0
2019/01/15 09:25:56.000   4280224.7177  -4034416.6346  -2458265.4921   5   6  10.6038   8.4112  13.3026  -8.0926   8.0093  -9.5665   0.00    0.0
2019/01/15 09:25:57.000   4280233.3894  -4034415.2311  -2458273.3439   5   6  10.6029   8.4099  13.2989  -8.0914   8.0066  -9.5635   0.00    0.0
2019/01/15 09:25:58.000   4280226.5385  -4034419.6070  -2458289.4557   5   6  10.6021   8.4086  13.2951  -8.0902   8.0040  -9.5606   0.00    0.0
2019/01/15 09:25:59.000   4280220.8984  -4034417.9193  -2458257.2993   5   6  10.6012   8.4072  13.2914  -8.0891   8.0013  -9.5576   0.00    0.0
2019/01/15 09:26:00.000   4280233.6343  -4034428.7024  -2458290.1275   5   6  10.6004   8.4059  13.2877  -8.0879   7.9986  -9.5546   0.00    0.0
2019/01/15 09:26:01.000   4280225.9354  -4034416.6573  -2458273.3351   5   6  10.5996   8.4046  13.2840  -8.0867   7.9959  -9.5517   0.00    0.0
2019/01/15 09:26:02.000   4280215.1326  -4034411.1250  -2458251.7656   5   6  10.5987   8.4033  13.2802  -8.0856   7.9932  -9.5488   0.00    0.0
2019/01/15 09:26:03.000   4280224.5454  -4034417.0994  -2458275.2759   5   6  10.5979   8.4019  13.2765  -8.0844   7.9906  -9.5458   0.00    0.0
2019/01/15 09:26:04.000   4280225.7914  -4034420.2512  -2458270.3829   5   6  10.5971   8.4006  13.2728  -8.0832   7.9879  -9.5429   0.00    0.0
2019/01/15 09:26:05.000   4280226.9917  -4034417.5585  -2458271.1124   5   6  10.5962   8.3993  13.2691  -8.0821   7.9852  -9.5399   0.00    0.0
2019/01/15 09:26:06.000   4280229.9728  -4034422.6921  -2458280.3978   5   6  10.5954   8.3980  13.2653  -8.0809   7.9825  -9.5370   0.00    0.0
2019/01/15 09:26:07.000   4280231.5687  -4034427.5745  -2458284.5254   5   6  10.5945   8.3966  13.2616  -8.0798   7.9799  -9.5340   0.00    0.0
2019/01/15 09:26:08.000   4280233.0772  -4034416.7970  -2458275.8151   5   6  10.5937   8.3953  13.2579  -8.0786   7.9772  -9.5311   0.00    0.0
2019/01/15 09:26:09.000   4280223.7288  -4034424.3710  -2458262.2445   5   6  10.5929   8.3940  13.2542  -8.0774   7.9745  -9.5282   0.00    0.0
2019/01/15 09:26:10.000   4280220.3542  -4034417.5998  -2458282.1099   5   6  10.5921   8.3927  13.2504  -8.0763   7.9718  -9.5252   0.00    0.0
2019/01/15 09:26:11.000   4280225.9090  -4034418.8729  -2458283.2450   5   6  10.5912   8.3914  13.2467  -8.0751   7.9692  -9.5223   0.00    0.0
2019/01/15 09:26:12.000   4280236.8889  -4034432.0379  -2458280.4847   5   6  10.5904   8.3900  13.2430  -8.0740   7.9665  -9.5193   0.00    0.0
2019/01/15 09:26:13.000   4280228.9768  -4034427.2694  -2458278.6157   5   6  10.5896   8.3887  13.2393  -8.0728   7.9638  -9.5164   0.00    0.0
2019/01/15 09:26:14.000   4280230.9399  -4034431.0796  -2458284.4542   5   6  10.5888   8.3874  13.2355  -8.0717   7.9612  -9.5134   0.00    0.0
2019/01/15 09:26:15.000   4280228.7588  -4034422.6608  -2458264.3002   5   6  10.5879   8.3861  13.2318  -8.0705   7.9585  -9.5105   0.00    0.0
2019/01/15 09:26:16.000   4280235.7868  -4034426.1560  -2458282.5710   5   6  10.5871   8.3848  13.2281  -8.0694   7.9558  -9.5076   0.00    0.0
2019/01/15 09:26:17.000   4280227.3521  -4034419.3369  -2458262.8721   5   6  10.5863   8.3835  13.2244  -8.0682   7.9532  -9.5046   0.00    0.0
2019/01/15 09:26:18.000   4280230.3569  -4034422.5058  -2458277.7222   5   6  10.5855   8.3822  13.2207  -8.0671   7.9505  -9.5017   0.00    0.0
2019/01/15 09:26:19.000   4280227.0887  -4034422.9642  -2458292.2283   5   6  10.5847   8.3809  13.2169  -8.0659   7.9479  -9.4988   0.00    0.0
2019/01/15 09:26:20.000   4280220.8594  -4034409.3763  -2458251.5766   5   6  10.5839   8.3796  13.2132  -8.0648   7.9452  -9.4959   0.00    0.0
2019/01/15 09:26:21.000   4280230.2618  -4034424.3144  -2458282.5460   5   6  10.5830   8.3782  13.2095  -8.0637   7.9426  -9.4929   0.00    0.0
2019/01/15 09:26:22.000   4280228.4928  -4034420.4128  -2458289.4318   5   6  10.5822   8.3769  13.2058  -8.0625   7.9399  -9.4900   0.00    0.0
2019/01/15 09:26:23.000   4280243.3327  -4034428.3829  -2458304.8429   5   6  10.5814   8.3756  13.2020  -8.0614   7.9372  -9.4870   0.00    0.0
2019/01/15 09:26:24.000   4280240.4331  -4034430.9786  -2458292.7279   5   6  10.5806   8.3743  13.1983  -8.0602   7.9346  -9.4841   0.00    0.0
2019/01/15 09:26:25.000   4280242.8614  -4034435.5524  -2458306.2058   5   6  10.5798   8.3730  13.1946  -8.0591   7.9319  -9.4812   0.00    0.0
2019/01/15 09:26:26.000   4280236.8692  -4034425.7822  -2458290.8797   5   6  10.5790   8.3717  13.1909  -8.0580   7.9293  -9.4782   0.00    0.0
2019/01/15 09:26:27.000   4280230.7276  -4034420.9662  -2458283.4326   5   6  10.5782   8.3704  13.1872  -8.0568   7.9266  -9.4753   0.00    0.0
2019/01/15 09:26:28.000   4280234.0053  -4034431.9665  -2458294.6398   5   6  10.5774   8.3691  13.1835  -8.0557   7.9240  -9.4724   0.00    0.0
2019/01/15 09:26:29.000   4280235.4910  -4034432.5711  -2458278.6118   5   6  10.5766   8.3678  13.1798  -8.0546   7.9213  -9.4695   0.00    0.0
2019/01/15 09:26:30.000   4280229.1984  -4034429.3488  -2458298.1427   5   6  10.5758   8.3665  13.1761  -8.0534   7.9187  -9.4665   0.00    0.0
2019/01/15 09:26:31.000   4280221.3066  -4034414.9707  -2458275.8363   5   6  10.5750   8.3653  13.1724  -8.0523   7.9161  -9.4636   0.00    0.0
2019/01/15 09:26:32.000   4280228.2355  -4034428.6001  -2458272.6877   5   6  10.5742   8.3640  13.1687  -8.0512   7.9134  -9.4607   0.00    0.0
2019/01/15 09:26:33.000   4280235.2268  -4034434.6633  -2458291.6899   5   6  10.5734   8.3627  13.1649  -8.0500   7.9107  -9.4578   0.00    0.0
2019/01/15 09:26:34.000   4280229.8162  -4034424.1166  -2458277.2941   5   6  10.5726   8.3614  13.1612  -8.0489   7.9081  -9.4549   0.00    0.0
2019/01/15 09:26:35.000   4280229.0054  -4034428.6985  -2458281.2797   5   6  10.5718   8.3601  13.1575  -8.0478   7.9055  -9.4519   0.00    0.0
2019/01/15 09:26:36.000   4280239.7975  -4034433.9000  -2458272.5193   5   6  10.5710   8.3588  13.1538  -8.0467   7.9028  -9.4490   0.00    0.0
2019/01/15 09:26:37.000   4280233.3570  -4034429.7186  -2458281.0121   5   6  10.5702   8.3575  13.1501  -8.0456   7.9002  -9.4461   0.00    0.0
2019/01/15 09:26:38.000   4280238.0423  -4034440.2128  -2458279.1636   5   6  10.5694   8.3562  13.1464  -8.0444   7.8975  -9.4432   0.00    0.0
2019/01/15 09:26:39.000   4280232.6700  -4034434.8603  -2458282.4450   5   6  10.5686   8.3549  13.1427  -8.0433   7.8949  -9.4403   0.00    0.0
2019/01/15 09:26:40.000   4280235.9149  -4034432.4401  -2458291.0329   5   6  10.5678   8.3536  13.1390  -8.0422   7.8923  -9.4373   0.00    0.0
2019/01/15 09:26:41.000   4280223.2619  -4034423.4825  -2458262.8740   5   6  10.5671   8.3524  13.1353  -8.0411   7.8897  -9.4345   0.00    0.0
2019/01/15 09:26:42.000   4280234.5494  -4034429.1208  -2458260.0041   5   6  10.5663   8.3511  13.1316  -8.0400   7.8870  -9.4315   0.00    0.0
2019/01/15 09:26:43.000   4280236.9215  -4034432.4514  -2458270.2551   5   6  10.5655   8.3498  13.1279  -8.0389   7.8844  -9.4286   0.00    0.0
2019/01/15 09:26:44.000   4280243.3600  -4034434.3294  -2458293.0464   5   6  10.5647   8.3485  13.1241  -8.0377   7.8817  -9.4257   0.00    0.0
2019/01/15 09:26:45.000   4280222.4132  -4034419.4793  -2458262.2414   5   6  10.5639   8.3472  13.1205  -8.0366   7.8791  -9.4228   0.00    0.0
2019/01/15 09:26:46.000   4280245.1951  -4034435.5017  -2458287.3004   5   6  10.5631   8.3459  13.1167  -8.0355   7.8765  -9.4199   0.00    0.0
2019/01/15 09:26:47.000   4280240.9662  -4034435.0504  -2458285.7618   5   6  10.5623   8.3447  13.1130  -8.0344   7.8739  -9.4170   0.00    0.0
2019/01/15 09:26:48.000   4280233.4763  -4034427.7075  -2458276.5038   5   6  10.5616   8.3434  13.1093  -8.0333   7.8712  -9.4141   0.00    0.0
2019/01/15 09:26:49.000   4280240.7757  -4034433.4134  -2458286.0090   5   6  10.5608   8.3421  13.1056  -8.0322   7.8686  -9.4111   0.00    0.0
2019/01/15 09:26:50.000   4280243.7029  -4034440.2976  -2458298.5023   5   6  10.5600   8.3408  13.1019  -8.0311   7.8660  -9.4082   0.00    0.0
2019/01/15 09:26:51.000   4280242.3794  -4034435.2969  -2458285.7932   5   6  10.5592   8.3396  13.0982  -8.0300   7.8634  -9.4053   0.00    0.0
2019/01/15 09:26:52.000   4280242.8902  -4034440.2125  -2458296.2259   5   6  10.5585   8.3383  13.0945  -8.0289   7.8607  -9.4024   0.00    0.0
2019/01/15 09:26:53.000   4280237.0569  -4034424.8639  -2458280.2478   5   6  10.5577   8.3370  13.0908  -8.0278   7.8581  -9.3995   0.00    0.0
2019/01/15 09:26:54.000   4280245.2217  -4034440.4031  -2458284.1637   5   6  10.5569   8.3357  13.0871  -8.0267   7.8555  -9.3966   0.00    0.0
2019/01/15 09:26:55.000   4280240.0850  -4034435.4378  -2458290.6789   5   6  10.5561   8.3345  13.0834  -8.0256   7.8529  -9.3937   0.00    0.0
2019/01/15 09:26:56.000   4280239.8805  -4034435.8265  -2458275.1686   5   6  10.5554   8.3332  13.0797  -8.0245   7.8503  -9.3908   0.00    0.0
2019/01/15 09:26:57.000   4280233.2464  -4034422.1283  -2458276.0841   5   6  10.5546   8.3320  13.0760  -8.0234   7.8477  -9.3879   0.00    0.0
2019/01/15 09:26:58.000   4280232.4607  -4034430.2025  -2458279.2996   5   6  10.5538   8.3307  13.0723  -8.0223   7.8451  -9.3850   0.00    0.0
2019/01/15 09:26:59.000   4280232.9102  -4034430.4251  -2458268.2983   5   6  10.5531   8.3294  13.0687  -8.0212   7.8424  -9.3821   0.00    0.0
2019/01/15 09:27:00.000   4280235.6070  -4034428.0115  -2458270.0053   5   6  10.5523   8.3282  13.0650  -8.0201   7.8398  -9.3792   0.00    0.0
2019/01/15 09:27:01.000   4280226.3200  -4034421.4818  -2458274.7834   5   6  10.5516   8.3269  13.0613  -8.0190   7.8372  -9.3763   0.00    0.0
2019/01/15 09:27:02.000   4280222.1384  -4034427.1073  -2458261.3042   5   6  10.5508   8.3256  13.0576  -8.0180   7.8346  -9.3734   0.00    0.0
2019/01/15 09:27:03.000   4280225.9120  -4034426.5489  -2458285.2420   5   6  10.5500   8.3244  13.0539  -8.0169   7.8320  -9.3705   0.00    0.0
2019/01/15 09:27:04.000   4280223.2932  -4034422.3540  -2458261.3791   5   6  10.5493   8.3231  13.0502  -8.0158   7.8294  -9.3677   0.00    0.0
2019/01/15 09:27:05.000   4280231.8949  -4034434.7848  -2458287.5311   5   6  10.5485   8.3219  13.0465  -8.0147   7.8268  -9.3647   0.00    0.0
2019/01/15 09:27:06.000   4280222.5677  -4034430.2533  -2458268.6331   5   6  10.5478   8.3206  13.0428  -8.0136   7.8242  -9.3619   0.00    0.0
2019/01/15 09:27:07.000   4280237.1586  -4034435.6007  -2458288.6166   5   6  10.5470   8.3193  13.0391  -8.0125   7.8216  -9.3590   0.00    0.0
2019/01/15 09:27:08.000   4280213.8789  -4034418.4617  -2458265.4039   5   6  10.5463   8.3181  13.0354  -8.0115   7.8190  -9.3561   0.00    0.0
2019/01/15 09:27:09.000   4280222.2677  -4034420.3969  -2458272.9878   5   6  10.5455   8.3168  13.0317  -8.0104   7.8164  -9.3532   0.00    0.0
2019/01/15 09:27:10.000   4280225.6583  -4034428.5060  -2458280.9034   5   6  10.5448   8.3156  13.0280  -8.0093   7.8138  -9.3503   0.00    0.0
2019/01/15 09:27:11.000   4280234.0763  -4034433.3785  -2458278.3288   5   6  10.5440   8.3143  13.0243  -8.0082   7.8112  -9.3474   0.00    0.0
2019/01/15 09:27:12.000   4280227.0159  -4034424.9916  -2458273.5570   5   6  10.5433   8.3131  13.0207  -8.0071   7.8086  -9.3445   0.00    0.0
2019/01/15 09:27:13.000   4280221.9607  -4034418.0463  -2458262.3830   5   6  10.5425   8.3118  13.0170  -8.0061   7.8060  -9.3417   0.00    0.0
2019/01/15 09:27:14.000   4280226.9977  -4034426.6334  -2458277.3425   5   6  10.5418   8.3106  13.0133  -8.0050   7.8034  -9.3388   0.00    0.0
2019/01/15 09:27:15.000   4280223.5198  -4034423.8435  -2458278.6166   5   6  10.5410   8.3093  13.0096  -8.0039   7.8008  -9.3359   0.00    0.0
2019/01/15 09:27:16.000   4280228.2930  -4034420.0090  -2458258.7046   5   6  10.5403   8.3081  13.0059  -8.0028   7.7982  -9.3330   0.00    0.0
2019/01/15 09:27:17.000   4280224.8883  -4034412.6284  -2458265.9714   5   6  10.5396   8.3069  13.0022  -8.0018   7.7956  -9.3301   0.00    0.0
2019/01/15 09:27:18.000   4280237.2242  -4034426.6152  -2458281.9245   5   6  10.5388   8.3056  12.9985  -8.0007   7.7930  -9.3272   0.00    0.0
2019/01/15 09:27:19.000   4280224.4748  -4034415.5369  -2458261.9979   5   6  10.5381   8.3044  12.9949  -7.9996   7.7905  -9.3244   0.00    0.0
2019/01/15 09:27:20.000   4280218.9059  -4034410.0676  -2458272.4707   5   6  10.5373   8.3031  12.9912  -7.9986   7.7879  -9.3215   0.00    0.0
2019/01/15 09:27:21.000   4280224.9957  -4034420.1893  -2458287.9297   5   6  10.5366   8.3019  12.9875  -7.9975   7.7853  -9.3186   0.00    0.0
2019/01/15 09:27:22.000   4280232.7318  -4034423.3159  -2458290.0282   5   6  10.5359   8.3006  12.9838  -7.9964   7.7827  -9.3157   0.00    0.0
2019/01/15 09:27:23.000   4280215.7539  -4034410.2065  -2458285.4962   5   6  10.5351   8.2994  12.9801  -7.9954   7.7801  -9.3128   0.00    0.0
2019/01/15 09:27:24.000   4280219.0915  -4034411.0288  -2458257.9242   5   6  10.5344   8.2982  12.9765  -7.9943   7.7775  -9.3100   0.00    0.0
2019/01/15 09:27:25.000   4280214.7985  -4034402.1117  -2458262.5865   5   6  10.5337   8.2969  12.9728  -7.9933   7.7750  -9.3071   0.00    0.0
2019/01/15 09:27:26.000   4280213.6910  -4034399.2653  -2458248.5497   5   6  10.5330   8.2957  12.9691  -7.9922   7.7724  -9.3042   0.00    0.0
2019/01/15 09:27:27.000   4280221.0826  -4034416.7322  -2458269.3243   5   6  10.5322   8.2945  12.9654  -7.9912   7.7698  -9.3013   0.00    0.0
2019/01/15 09:27:28.000   4280215.4173  -4034412.0933  -2458256.9087   5   6  10.5315   8.2932  12.9618  -7.9901   7.7672  -9.2985   0.00    0.0
2019/01/15 09:27:29.000   4280215.8229  -4034413.6043  -2458253.8114   5   6  10.5308   8.2920  12.9581  -7.9891   7.7646  -9.2956   0.00    0.0
2019/01/15 09:27:30.000   4280220.3542  -4034420.3891  -2458258.4940   5   6  10.5301   8.2908  12.9544  -7.9880   7.7621  -9.2927   0.00    0.0
2019/01/15 09:27:31.000   4280221.8636  -4034418.3507  -2458265.0667   5   6  10.5293   8.2895  12.9507  -7.9869   7.7595  -9.2899   0.00    0.0
2019/01/15 09:27:32.000   4280222.0609  -4034421.3144  -2458254.1599   5   6  10.5286   8.2883  12.9470  -7.9859   7.7569  -9.2870   0.00    0.0
2019/01/15 09:27:33.000   4280232.6902  -4034430.8288  -2458282.0718   5   6  10.5279   8.2871  12.9434  -7.9848   7.7543  -9.2841   0.00    0.0
2019/01/15 09:27:34.000   4280224.8769  -4034431.6388  -2458271.9389   5   6  10.5272   8.2858  12.9397  -7.9838   7.7518  -9.2813   0.00    0.0
2019/01/15 09:27:35.000   4280234.4933  -4034429.2612  -2458269.7657   5   6  10.5264   8.2846  12.9360  -7.9827   7.7492  -9.2784   0.00    0.0
2019/01/15 09:27:36.000   4280238.9022  -4034432.2001  -2458287.5535   5   6  10.5257   8.2834  12.9323  -7.9817   7.7466  -9.2755   0.00    0.0
2019/01/15 09:27:37.000   4280227.3346  -4034422.2235  -2458273.2445   5   6  10.5250   8.2822  12.9287  -7.9807   7.7441  -9.2727   0.00    0.0
2019/01/15 09:27:38.000   4280229.5837  -4034419.8578  -2458274.0767   5   6  10.5243   8.2810  12.9250  -7.9796   7.7415  -9.2698   0.00    0.0
2019/01/15 09:27:39.000   4280230.1742  -4034420.3273  -2458268.9302   5   6  10.5236   8.2797  12.9213  -7.9786   7.7389  -9.2669   0.00    0.0
2019/01/15 09:27:40.000   4280233.8897  -4034422.9576  -2458288.6900   5   6  10.5229   8.2785  12.9176  -7.9775   7.7364  -9.2641   0.00    0.0
2019/01/15 09:27:41.000   4280232.8826  -4034416.5400  -2458290.2106   5   6  10.5222   8.2773  12.9140  -7.9765   7.7338  -9.2612   0.00    0.0
2019/01/15 09:27:42.000   4280229.7499  -4034419.9023  -2458295.4474   5   6  10.5215   8.2761  12.9103  -7.9755   7.7312  -9.2583   0.00    0.0
2019/01/15 09:27:43.000   4280231.3801  -4034416.5412  -2458288.5605   5   6  10.5207   8.2749  12.9066  -7.9744   7.7287  -9.2555   0.00    0.0
2019/01/15 09:27:44.000   4280236.7866  -4034428.6404  -2458274.3586   5   6  10.5200   8.2736  12.9030  -7.9734   7.7261  -9.2526   0.00    0.0
2019/01/15 09:27:45.000   4280234.0713  -4034418.2561  -2458298.8748   5   6  10.5193   8.2724  12.8993  -7.9723   7.7236  -9.2498   0.00    0.0
2019/01/15 09:27:46.000   4280226.2299  -4034422.2326  -2458286.9625   5   6  10.5186   8.2712  12.8956  -7.9713   7.7210  -9.2469   0.00    0.0
2019/01/15 09:27:47.000   4280235.3422  -4034419.0304  -2458295.7726   5   6  10.5179   8.2700  12.8920  -7.9703   7.7185  -9.2441   0.00    0.0
2019/01/15 09:27:48.000   4280231.5810  -4034415.1453  -2458284.5063   5   6  10.5172   8.2688  12.8883  -7.9693   7.7159  -9.2412   0.00    0.0
2019/01/15 09:27:49.000   4280242.0701  -4034435.5951  -2458284.4140   5   6  10.5165   8.2676  12.8847  -7.9682   7.7133  -9.2384   0.00    0.0
2019/01/15 09:27:50.000   4280225.2600  -4034421.2404  -2458269.5851   5   6  10.5158   8.2664  12.8810  -7.9672   7.7108  -9.2355   0.00    0.0
2019/01/15 09:27:51.000   4280227.4601  -4034419.8984  -2458269.0337   5   6  10.5151   8.2652  12.8773  -7.9662   7.7083  -9.2327   0.00    0.0
2019/01/15 09:27:52.000   4280229.1981  -4034424.1178  -2458279.9980   5   6  10.5144   8.2640  12.8737  -7.9652   7.7057  -9.2298   0.00    0.0
2019/01/15 09:27:53.000   4280245.8642  -4034438.7490  -2458283.0693   5   6  10.5137   8.2627  12.8700  -7.9641   7.7031  -9.2270   0.00    0.0
2019/01/15 09:27:54.000   4280229.3718  -4034424.3520  -2458271.7244   5   6  10.5131   8.2615  12.8664  -7.9631   7.7006  -9.2241   0.00    0.0
2019/01/15 09:27:55.000   4280231.8192  -4034425.4936  -2458284.1960   5   6  10.5124   8.2603  12.8627  -7.9621   7.6981  -9.2213   0.00    0.0
2019/01/15 09:27:56.000   4280234.0817  -4034420.6145  -2458297.6519   5   6  10.5117   8.2591  12.8590  -7.9611   7.6955  -9.2184   0.00    0.0
2019/01/15 09:27:57.000   4280228.4317  -4034425.8343  -2458281.6330   5   6  10.5110   8.2579  12.8554  -7.9600   7.6930  -9.2156   0.00    0.0
2019/01/15 09:27:58.000   4280235.0081  -4034429.5131  -2458297.7539   5   6  10.5103   8.2567  12.8517  -7.9590   7.6904  -9.2127   0.00    0.0
2019/01/15 09:27:59.000   4280241.7660  -4034429.9585  -2458302.5695   5   6  10.5096   8.2555  12.8480  -7.9580   7.6879  -9.2099   0.00    0.0
2019/01/15 09:28:00.000   4280227.3940  -4034421.0218  -2458296.0762   5   6  10.5089   8.2543  12.8444  -7.9570   7.6854  -9.2071   0.00    0.0
2019/01/15 09:28:01.000   4280227.1036  -4034417.7550  -2458290.3790   5   6  10.5083   8.2531  12.8408  -7.9560   7.6828  -9.2042   0.00    0.0
2019/01/15 09:28:02.000   4280237.0295  -4034431.2629  -2458279.5602   5   6  10.5076   8.2519  12.8371  -7.9550   7.6803  -9.2014   0.00    0.0
2019/01/15 09:28:03.000   4280230.7305  -4034426.6803  -2458283.9782   5   6  10.5069   8.2507  12.8334  -7.9540   7.6777  -9.1985   0.00    0.0
2019/01/15 09:28:04.000   4280242.7402  -4034432.7229  -2458292.7545   5   6  10.5062   8.2495  12.8298  -7.9529   7.6752  -9.1957   0.00    0.0
2019/01/15 09:28:05.000   4280225.1870  -4034423.3236  -2458269.0164   5   6  10.5055   8.2484  12.8262  -7.9520   7.6727  -9.1929   0.00    0.0
2019/01/15 09:28:06.000   4280231.4919  -4034438.9858  -2458282.0979   5   6  10.5048   8.2472  12.8225  -7.9509   7.6701  -9.1900   0.00    0.0
2019/01/15 09:28:07.000   4280231.8452  -4034429.0178  -2458276.6809   5   6  10.5042   8.2460  12.8188  -7.9499   7.6676  -9.1872   0.00    0.0
2019/01/15 09:28:08.000   4280215.2380  -4034416.4378  -2458257.5589   5   6  10.5035   8.2448  12.8152  -7.9489   7.6651  -9.1844   0.00    0.0
2019/01/15 09:28:09.000   4280229.2038  -4034423.4088  -2458251.2818   5   6  10.5028   8.2436  12.8116  -7.9479   7.6626  -9.1816   0.00    0.0
2019/01/15 09:28:10.000   4280222.1673  -4034427.1614  -2458256.2494   5   6  10.5022   8.2424  12.8079  -7.9469   7.6600  -9.1787   0.00    0.0
2019/01/15 09:28:11.000   4280225.5251  -4034422.6150  -2458270.3131   5   6  10.5015   8.2412  12.8043  -7.9459   7.6575  -9.1759   0.00    0.0
2019/01/15 09:28:12.000   4280236.0370  -4034437.0327  -2458265.8766   5   6  10.5008   8.2400  12.8006  -7.9449   7.6550  -9.1731   0.00    0.0
2019/01/15 09:28:13.000   4280225.6326  -4034417.8666  -2458275.0295   5   6  10.5002   8.2388  12.7970  -7.9439   7.6525  -9.1702   0.00    0.0
2019/01/15 09:28:14.000   4280214.1398  -4034417.0015  -2458269.0892   5   6  10.4995   8.2377  12.7933  -7.9429   7.6500  -9.1674   0.00    0.0
2019/01/15 09:28:15.000   4280228.8104  -4034427.5297  -2458256.6953   5   6  10.4988   8.2365  12.7897  -7.9419   7.6474  -9.1646   0.00    0.0
2019/01/15 09:28:16.000   4280220.9179  -4034415.4684  -2458238.3625   5   6  10.4982   8.2353  12.7861  -7.9410   7.6449  -9.1618   0.00    0.0
2019/01/15 09:28:17.000   4280225.1850  -4034404.7822  -2458247.2962   5   6  10.4975   8.2341  12.7824  -7.9400   7.6424  -9.1589   0.00    0.0
2019/01/15 09:28:18.000   4280224.2989  -4034408.7617  -2458243.2797   5   6  10.4969   8.2329  12.7788  -7.9390   7.6399  -9.1561   0.00    0.0
2019/01/15 09:28:19.000   4280237.5913  -4034429.8651  -2458266.3038   5   6  10.4962   8.2318  12.7751  -7.9380   7.6374  -9.1533   0.00    0.0
2019/01/15 09:28:20.000   4280227.6089  -4034429.3088  -2458247.3853   5   6  10.4955   8.2306  12.7715  -7.9370   7.6348  -9.1505   0.00    0.0
2019/01/15 09:28:21.000   4280231.7245  -4034425.3222  -2458254.3425   5   6  10.4949   8.2294  12.7678  -7.9360   7.6323  -9.1477   0.00    0.0
2019/01/15 09:28:22.000   4280236.8044  -4034429.9449  -2458281.5280   5   6  10.4942   8.2282  12.7642  -7.9350   7.6298  -9.1448   0.00    0.0
2019/01/15 09:28:23.000   4280234.8392  -4034424.1577  -2458267.5836   5   6  10.4936   8.2271  12.7606  -7.9340   7.6273  -9.1420   0.00    0.0
2019/01/15 09:28:24.000   4280216.7838  -4034418.6235  -2458251.4132   5   6  10.4929   8.2259  12.7569  -7.9331   7.6248  -9.1392   0.00    0.0
2019/01/15 09:28:25.000   4280234.5179  -4034436.1500  -2458269.7634   5   6  10.4922   8.2247  12.7533  -7.9321   7.6223  -9.1364   0.00    0.0
2019/01/15 09:28:26.000   4280230.9719  -4034434.6354  -2458263.4221   5   6  10.4916   8.2235  12.7497  -7.9311   7.6198  -9.1336   0.00    0.0
2019/01/15 09:28:27.000   4280231.9249  -4034427.3604  -2458257.9589   5   6  10.4910   8.2224  12.7460  -7.9301   7.6173  -9.1308   0.00    0.0
2019/01/15 09:28:28.000   4280214.9922  -4034423.0672  -2458230.2383   5   6  10.4903   8.2212  12.7424  -7.9291   7.6148  -9.1280   0.00    0.0
2019/01/15 09:28:29.000   4280212.4551  -4034404.9297  -2458247.1649   5   6  10.4897   8.2200  12.7388  -7.9282   7.6123  -9.1251   0.00    0.0
2019/01/15 09:28:30.000   4280221.9500  -4034424.6926  -2458258.7629   5   6  10.4890   8.2189  12.7351  -7.9272   7.6098  -9.1223   0.00    0.0
2019/01/15 09:28:31.000   4280226.1216  -4034424.6388  -2458251.8849   5   6  10.4884   8.2177  12.7315  -7.9262   7.6073  -9.1195   0.00    0.0
2019/01/15 09:28:32.000   4280208.8602  -4034407.8457  -2458248.3882   5   6  10.4877   8.2165  12.7279  -7.9252   7.6048  -9.1167   0.00    0.0
2019/01/15 09:28:33.000   4280244.3564  -4034438.4895  -2458267.8968   5   6  10.4871   8.2154  12.7242  -7.9242   7.6023  -9.1139   0.00    0.0
2019/01/15 09:28:34.000   4280216.8231  -4034419.8828  -2458253.3268   5   6  10.4865   8.2142  12.7206  -7.9233   7.5998  -9.1111   0.00    0.0
2019/01/15 09:28:35.000   4280216.7091  -4034414.6421  -2458247.5820   5   6  10.4858   8.2131  12.7170  -7.9223   7.5973  -9.1083   0.00    0.0
2019/01/15 09:28:36.000   4280235.8715  -4034424.7332  -2458267.5477   5   6  10.4852   8.2119  12.7133  -7.9213   7.5948  -9.1055   0.00    0.0
2019/01/15 09:28:37.000   4280232.8312  -4034426.0225  -2458260.1799   5   6  10.4845   8.2107  12.7097  -7.9204   7.5923  -9.1027   0.00    0.0
2019/01/15 09:28:38.000   4280236.7802  -4034428.2961  -2458268.8839   5   6  10.4839   8.2096  12.7061  -7.9194   7.5898  -9.0999   0.00    0.0
2019/01/15 09:28:39.000   4280236.0960  -4034432.7138  -2458277.3267   5   6  10.4833   8.2084  12.7025  -7.9184   7.5873  -9.0971   0.00    0.0
2019/01/15 09:28:40.000   4280239.0931  -4034434.2639  -2458276.5256   5   6  10.4826   8.2072  12.6988  -7.9175   7.5848  -9.0943   0.00    0.0
2019/01/15 09:28:41.000   4280230.7220  -4034426.3958  -2458272.3221   5   6  10.4820   8.2061  12.6952  -7.9165   7.5823  -9.0915   0.00    0.0
2019/01/15 09:28:42.000   4280241.6220  -4034429.1363  -2458283.7524   5   6  10.4814   8.2049  12.6916  -7.9156   7.5798  -9.0887   0.00    0.0
2019/01/15 09:28:43.000   4280229.2321  -4034423.6916  -2458265.6594   5   6  10.4807   8.2038  12.6880  -7.9146   7.5774  -9.0859   0.00    0.0
2019/01/15 09:28:44.000   4280241.7243  -4034435.8812  -2458307.6097   5   6  10.4801   8.2026  12.6843  -7.9136   7.5749  -9.0831   0.00    0.0
2019/01/15 09:28:45.000   4280224.2562  -4034420.9800  -2458272.0524   5   6  10.4795   8.2015  12.6807  -7.9127   7.5724  -9.0803   0.00    0.0
2019/01/15 09:28:46.000   4280227.7726  -4034418.9752  -2458282.3327   5   6  10.4789   8.2003  12.6771  -7.9117   7.5699  -9.0775   0.00    0.0
2019/01/15 09:28:47.000   4280229.6042  -4034426.6562  -2458271.2815   5   6  10.4782   8.1992  12.6735  -7.9108   7.5674  -9.0747   0.00    0.0
2019/01/15 09:28:48.000   4280242.4856  -4034432.8497  -2458292.8162   5   6  10.4776   8.1980  12.6699  -7.9098   7.5649  -9.0719   0.00    0.0
2019/01/15 09:28:49.000   4280235.7151  -4034431.9425  -2458273.4678   5   6  10.4770   8.1969  12.6663  -7.9089   7.5625  -9.0691   0.00    0.0
2019/01/15 09:28:50.000   4280229.7206  -4034427.9191  -2458291.6561   5   6  10.4764   8.1957  12.6626  -7.9079   7.5600  -9.0663   0.00    0.0
2019/01/15 09:28:51.000   4280225.8572  -4034418.2617  -2458273.7334   5   6  10.4758   8.1946  12.6590  -7.9070   7.5575  -9.0635   0.00    0.0
2019/01/15 09:28:52.000   4280215.1380  -4034412.9951  -2458255.0261   5   6  10.4752   8.1935  12.6554  -7.9060   7.5551  -9.0608   0.00    0.0
2019/01/15 09:28:53.000   4280226.6154  -4034429.4518  -2458285.0993   5   6  10.4745   8.1923  12.6518  -7.9051   7.5526  -9.0580   0.00    0.0
2019/01/15 09:28:54.000   4280244.9886  -4034437.4166  -2458296.8268   5   6  10.4739   8.1912  12.6482  -7.9041   7.5501  -9.0552   0.00    0.0
2019/01/15 09:28:55.000   4280220.4750  -4034417.6119  -2458282.1511   5   6  10.4733   8.1900  12.6446  -7.9032   7.5476  -9.0524   0.00    0.0
2019/01/15 09:28:56.000   4280233.6975  -4034435.5751  -2458292.8366   5   6  10.4727   8.1889  12.6409  -7.9023   7.5452  -9.0496   0.00    0.0
2019/01/15 09:28:57.000   4280218.7102  -4034426.7573  -2458274.4056   5   6  10.4721   8.1877  12.6374  -7.9013   7.5427  -9.0468   0.00    0.0
2019/01/15 09:28:58.000   4280231.5469  -4034432.4730  -2458286.9665   5   6  10.4715   8.1866  12.6337  -7.9004   7.5402  -9.0440   0.00    0.0
2019/01/15 09:28:59.000   4280225.4544  -4034410.3472  -2458284.4503   5   6  10.4709   8.1855  12.6301  -7.8994   7.5378  -9.0413   0.00    0.0
2019/01/15 09:29:00.000   4280224.0126  -4034421.4879  -2458285.1056   5   6  10.4703   8.1843  12.6265  -7.8985   7.5353  -9.0385   0.00    0.0
2019/01/15 09:29:01.000   4280228.7345  -4034413.4270  -2458277.8602   5   6  10.4697   8.1832  12.6229  -7.8976   7.5329  -9.0357   0.00    0.0
2019/01/15 09:29:02.000   4280207.1883  -4034403.3927  -2458256.8135   5   6  10.4691   8.1821  12.6193  -7.8967   7.5304  -9.0329   0.00    0.0
2019/01/15 09:29:03.000   4280233.7580  -4034425.7219  -2458278.3496   5   6  10.4685   8.1809  12.6157  -7.8957   7.5279  -9.0301   0.00    0.0
2019/01/15 09:29:04.000   4280215.9453  -4034421.4109  -2458275.0172   5   6  10.4679   8.1798  12.6121  -7.8948   7.5255  -9.0274   0.00    0.0
2019/01/15 09:29:05.000   4280221.3203  -4034408.6203  -2458272.7119   5   6  10.4673   8.1787  12.6085  -7.8938   7.5230  -9.0246   0.00    0.0
2019/01/15 09:29:06.000   4280219.6769  -4034409.2934  -2458274.6533   5   6  10.4667   8.1776  12.6049  -7.8929   7.5206  -9.0218   0.00    0.0
2019/01/15 09:29:07.000   4280232.5621  -4034429.8343  -2458273.7975   5   6  10.4661   8.1764  12.6013  -7.8920   7.5181  -9.0191   0.00    0.0
2019/01/15 09:29:08.000   4280220.1243  -4034405.0367  -2458262.6546   5   6  10.4655   8.1753  12.5977  -7.8911   7.5157  -9.0163   0.00    0.0
2019/01/15 09:29:09.000   4280235.1220  -4034419.9752  -2458284.2079   5   6  10.4649   8.1742  12.5941  -7.8901   7.5132  -9.0135   0.00    0.0
2019/01/15 09:29:10.000   4280240.7606  -4034432.2403  -2458294.5018   5   6  10.4643   8.1730  12.5905  -7.8892   7.5107  -9.0107   0.00    0.0
2019/01/15 09:29:11.000   4280227.8677  -4034428.1646  -2458278.3314   5   6  10.4637   8.1719  12.5869  -7.8883   7.5083  -9.0080   0.00    0.0
2019/01/15 09:29:12.000   4280225.3012  -4034424.6304  -2458277.0316   5   6  10.4631   8.1708  12.5833  -7.8874   7.5058  -9.0052   0.00    0.0
2019/01/15 09:29:13.000   4280235.0840  -4034429.5545  -2458280.3158   5   6  10.4625   8.1697  12.5797  -7.8864   7.5034  -9.0024   0.00    0.0
2019/01/15 09:29:14.000   4280223.0036  -4034424.3279  -2458272.8880   5   6  10.4619   8.1685  12.5761  -7.8855   7.5010  -8.9997   0.00    0.0
2019/01/15 09:29:15.000   4280220.0434  -4034403.0317  -2458270.8851   5   6  10.4614   8.1674  12.5725  -7.8846   7.4985  -8.9969   0.00    0.0
2019/01/15 09:29:16.000   4280216.8523  -4034408.8212  -2458256.9393   5   6  10.4608   8.1663  12.5689  -7.8837   7.4961  -8.9942   0.00    0.0
2019/01/15 09:29:17.000   4280233.6288  -4034426.7792  -2458287.8748   5   6  10.4602   8.1652  12.5653  -7.8828   7.4936  -8.9914   0.00    0.0
2019/01/15 09:29:18.000   4280224.3669  -4034427.6874  -2458301.5409   5   6  10.4596   8.1641  12.5617  -7.8818   7.4912  -8.9886   0.00    0.0
2019/01/15 09:29:19.000   4280223.8735  -4034414.2493  -2458292.2086   5   6  10.4590   8.1630  12.5581  -7.8809   7.4887  -8.9859   0.00    0.0
2019/01/15 09:29:20.000   4280229.8283  -4034428.0044  -2458274.3192   5   6  10.4585   8.1618  12.5545  -7.8800   7.4863  -8.9831   0.00    0.0
2019/01/15 09:29:21.000   4280235.6035  -4034439.5242  -2458276.2903   5   6  10.4579   8.1607  12.5510  -7.8791   7.4839  -8.9804   0.00    0.0
2019/01/15 09:29:22.000   4280227.5125  -4034420.6430  -2458279.6507   5   6  10.4573   8.1596  12.5474  -7.8782   7.4814  -8.9776   0.00    0.0
2019/01/15 09:29:23.000   4280222.1176  -4034416.0379  -2458269.0371   5   6  10.4567   8.1585  12.5438  -7.8773   7.4790  -8.9749   0.00    0.0
2019/01/15 09:29:24.000   4280241.0320  -4034430.1664  -2458272.6687   5   6  10.4561   8.1574  12.5402  -7.8764   7.4766  -8.9721   0.00    0.0
2019/01/15 09:29:25.000   4280230.1429  -4034428.4159  -2458279.2468   5   6  10.4556   8.1563  12.5366  -7.8755   7.4741  -8.9693   0.00    0.0
2019/01/15 09:29:26.000   4280231.4570  -4034424.0751  -2458284.6954   5   6  10.4550   8.1552  12.5330  -7.8746   7.4717  -8.9666   0.00    0.0
2019/01/15 09:29:27.000   4280223.0781  -4034423.0221  -2458264.3501   5   6  10.4544   8.1541  12.5294  -7.8737   7.4693  -8.9639   0.00    0.0
2019/01/15 09:29:28.000   4280218.9327  -4034408.5633  -2458254.5653   5   6  10.4539   8.1530  12.5259  -7.8728   7.4669  -8.9611   0.00    0.0
2019/01/15 09:29:29.000   4280225.7893  -4034422.9978  -2458273.5937   5   6  10.4533   8.1518  12.5223  -7.8719   7.4644  -8.9584   0.00    0.0
2019/01/15 09:29:30.000   4280222.3563  -4034418.9057  -2458257.0676   5   6  10.4527   8.1507  12.5187  -7.8710   7.4620  -8.9556   0.00    0.0
2019/01/15 09:29:31.000   4280224.2471  -4034420.0594  -2458266.9801   5   6  10.4522   8.1496  12.5151  -7.8701   7.4596  -8.9529   0.00    0.0
2019/01/15 09:29:32.000   4280222.6045  -4034417.6221  -2458248.9210   5   6  10.4516   8.1485  12.5115  -7.8692   7.4572  -8.9501   0.00    0.0
2019/01/15 09:29:33.000   4280228.0212  -4034419.9563  -2458252.2058   5   6  10.4511   8.1474  12.5080  -7.8683   7.4547  -8.9474   0.00    0.0
2019/01/15 09:29:34.000   4280213.6681  -4034410.9179  -2458243.6807   5   6  10.4505   8.1463  12.5044  -7.8674   7.4523  -8.9447   0.00    0.0
2019/01/15 09:29:35.000   4280202.4772  -4034405.3462  -2458242.4573   5   6  10.4500   8.1453  12.5008  -7.8665   7.4499  -8.9419   0.00    0.0
2019/01/15 09:29:36.000   4280214.3194  -4034412.1833  -2458253.2019   5   6  10.4494   8.1441  12.4972  -7.8656   7.4475  -8.9392   0.00    0.0
2019/01/15 09:29:37.000   4280220.7909  -4034415.9844  -2458275.5829   5   6  10.4488   8.1430  12.4936  -7.8647   7.4451  -8.9364   0.00    0.0
2019/01/15 09:29:38.000   4280220.8490  -4034414.5600  -2458268.6543   5   6  10.4483   8.1420  12.4901  -7.8638   7.4426  -8.9337   0.00    0.0
2019/01/15 09:29:39.000   4280215.2853  -4034427.5061  -2458260.0324   5   6  10.4477   8.1409  12.4865  -7.8630   7.4402  -8.9309   0.00    0.0
2019/01/15 09:29:40.000   4280240.4954  -4034442.3408  -2458280.2484   5   6  10.4471   8.1397  12.4829  -7.8620   7.4378  -8.9282   0.00    0.0
2019/01/15 09:29:41.000   4280221.1905  -4034432.0568  -2458262.0040   5   6  10.4466   8.1387  12.4794  -7.8612   7.4354  -8.9255   0.00    0.0
2019/01/15 09:29:42.000   4280230.6261  -4034428.7230  -2458281.2023   5   6  10.4461   8.1376  12.4758  -7.8603   7.4330  -8.9227   0.00    0.0
2019/01/15 09:29:43.000   4280217.9264  -4034418.4463  -2458269.0869   5   6  10.4455   8.1365  12.4722  -7.8594   7.4306  -8.9200   0.00    0.0
2019/01/15 09:29:44.000   4280225.1808  -4034419.0831  -2458267.4623   5   6  10.4450   8.1354  12.4686  -7.8585   7.4282  -8.9173   0.00    0.0
2019/01/15 09:29:45.000   4280227.7360  -4034434.6941  -2458279.2349   5   6  10.4444   8.1343  12.4651  -7.8576   7.4258  -8.9145   0.00    0.0
2019/01/15 09:29:46.000   4280224.8908  -4034426.4266  -2458271.0685   5   6  10.4439   8.1332  12.4615  -7.8568   7.4234  -8.9118   0.00    0.0
2019/01/15 09:29:47.000   4280240.8817  -4034432.0478  -2458261.6811   5   6  10.4433   8.1321  12.4579  -7.8559   7.4209  -8.9091   0.00    0.0
2019/01/15 09:29:48.000   4280233.5435  -4034429.7501  -2458250.9785   5   6  10.4428   8.1310  12.4544  -7.8550   7.4185  -8.9064   0.00    0.0
2019/01/15 09:29:49.000   4280259.2246  -4034451.9994  -2458278.6657   5   6  10.4422   8.1299  12.4508  -7.8541   7.4161  -8.9036   0.00    0.0
2019/01/15 09:29:50.000   4280231.1941  -4034433.1832  -2458258.9442   5   6  10.4417   8.1289  12.4473  -7.8533   7.4137  -8.9009   0.00    0.0
2019/01/15 09:29:51.000   4280237.4800  -4034436.8161  -2458265.2539   5   6  10.4412   8.1278  12.4437  -7.8524   7.4113  -8.8982   0.00    0.0
2019/01/15 09:29:52.000   4280218.7711  -4034414.5910  -2458237.0482   5   6  10.4407   8.1267  12.4401  -7.8515   7.4090  -8.8955   0.00    0.0
2019/01/15 09:29:53.000   4280231.1565  -4034427.6305  -2458256.6721   5   6  10.4401   8.1256  12.4366  -7.8507   7.4066  -8.8927   0.00    0.0
2019/01/15 09:29:54.000   4280228.8294  -4034418.6935  -2458253.5500   5   6  10.4396   8.1245  12.4330  -7.8498   7.4042  -8.8900   0.00    0.0
2019/01/15 09:29:55.000   4280238.7255  -4034421.0567  -2458261.8504   5   6  10.4390   8.1235  12.4294  -7.8489   7.4018  -8.8873   0.00    0.0
2019/01/15 09:29:56.000   4280233.1278  -4034423.9028  -2458259.1934   5   6  10.4385   8.1224  12.4259  -7.8481   7.3994  -8.8846   0.00    0.0
2019/01/15 09:29:57.000   4280227.0723  -4034419.5665  -2458267.1199   5   6  10.4380   8.1213  12.4223  -7.8472   7.3970  -8.8819   0.00    0.0
2019/01/15 09:29:58.000   4280234.8278  -4034431.6384  -2458270.2893   5   6  10.4374   8.1202  12.4188  -7.8463   7.3946  -8.8791   0.00    0.0
2019/01/15 09:29:59.000   4280246.6112  -4034439.2575  -2458283.3565   5   6  10.4369   8.1191  12.4152  -7.8455   7.3922  -8.8764   0.00    0.0
2019/01/15 09:30:00.000   4280230.9514  -4034427.5738  -2458271.2338   5   6  10.4364   8.1181  12.4117  -7.8446   7.3898  -8.8737   0.00    0.0
2019/01/15 09:30:01.000   4280237.2172  -4034421.9916  -2458269.0962   5   6  10.4359   8.1170  12.4081  -7.8437   7.3874  -8.8710   0.00    0.0
2019/01/15 09:30:02.000   4280233.6754  -4034424.2853  -2458271.0852   5   6  10.4353   8.1159  12.4046  -7.8429   7.3850  -8.8683   0.00    0.0
2019/01/15 09:30:03.000   4280232.8790  -4034426.8277  -2458269.8435   5   6  10.4348   8.1149  12.4010  -7.8420   7.3827  -8.8656   0.00    0.0
2019/01/15 09:30:04.000   4280231.2179  -4034425.4717  -2458256.8838   5   6  10.4343   8.1138  12.3975  -7.8412   7.3803  -8.8629   0.00    0.0
2019/01/15 09:30:05.000   4280239.1521  -4034444.4754  -2458285.5287   5   6  10.4338   8.1127  12.3939  -7.8403   7.3779  -8.8602   0.00    0.0
2019/01/15 09:30:06.000   4280247.5429  -4034440.0943  -2458287.0437   5   6  10.4332   8.1116  12.3903  -7.8394   7.3755  -8.8574   0.00    0.0
2019/01/15 09:30:07.000   4280233.1115  -4034431.8699  -2458260.0925   5   6  10.4327   8.1106  12.3868  -7.8386   7.3731  -8.8548   0.00    0.0
2019/01/15 09:30:08.000   4280223.9671  -4034425.4630  -2458256.0533   5   6  10.4322   8.1095  12.3833  -7.8378   7.3708  -8.8521   0.00    0.0
2019/01/15 09:30:09.000   4280248.1234  -4034438.7512  -2458294.6569   5   6  10.4317   8.1084  12.3797  -7.8369   7.3684  -8.8493   0.00    0.0
2019/01/15 09:30:10.000   4280240.4889  -4034429.8730  -2458280.4420   5   6  10.4312   8.1074  12.3762  -7.8361   7.3660  -8.8466   0.00    0.0
2019/01/15 09:30:11.000   4280237.2288  -4034429.5387  -2458276.4330   5   6  10.4307   8.1063  12.3726  -7.8352   7.3636  -8.8439   0.00    0.0
2019/01/15 09:30:12.000   4280226.0844  -4034417.2397  -2458256.8157   5   6  10.4302   8.1053  12.3691  -7.8344   7.3613  -8.8413   0.00    0.0
2019/01/15 09:30:13.000   4280229.5416  -4034422.3176  -2458252.9154   5   6  10.4297   8.1042  12.3656  -7.8335   7.3589  -8.8386   0.00    0.0
2019/01/15 09:30:14.000   4280231.9268  -4034424.2407  -2458259.8149   5   6  10.4292   8.1031  12.3620  -7.8327   7.3565  -8.8359   0.00    0.0
2019/01/15 09:30:15.000   4280231.7526  -4034432.5521  -2458284.2964   5   6  10.4287   8.1021  12.3584  -7.8318   7.3542  -8.8331   0.00    0.0
2019/01/15 09:30:16.000   4280236.2455  -4034437.6876  -2458284.9668   5   6  10.4281   8.1010  12.3549  -7.8310   7.3518  -8.8304   0.00    0.0
2019/01/15 09:30:17.000   4280233.5736  -4034430.1655  -2458277.7770   5   6  10.4277   8.1000  12.3514  -7.8302   7.3494  -8.8278   0.00    0.0
2019/01/15 09:30:18.000   4280233.7391  -4034428.8866  -2458280.3730   5   6  10.4271   8.0989  12.3478  -7.8293   7.3471  -8.8251   0.00    0.0
2019/01/15 09:30:19.000   4280211.5224  -4034416.4037  -2458264.4215   5   6  10.4267   8.0979  12.3443  -7.8285   7.3447  -8.8224   0.00    0.0
2019/01/15 09:30:20.000   4280222.5599  -4034416.8421  -2458257.6084   5   6  10.4262   8.0968  12.3408  -7.8277   7.3424  -8.8197   0.00    0.0
2019/01/15 09:30:21.000   4280234.6186  -4034426.8662  -2458276.8412   5   6  10.4257   8.0958  12.3372  -7.8268   7.3400  -8.8170   0.00    0.0
2019/01/15 09:30:22.000   4280225.3642  -4034425.9840  -2458272.8283   5   6  10.4252   8.0947  12.3337  -7.8260   7.3376  -8.8143   0.00    0.0
2019/01/15 09:30:23.000   4280230.0911  -4034427.7613  -2458277.7365   5   6  10.4247   8.0937  12.3302  -7.8251   7.3353  -8.8116   0.00    0.0
2019/01/15 09:30:24.000   4280236.6092  -4034427.4932  -2458282.6180   5   6  10.4242   8.0926  12.3266  -7.8243   7.3329  -8.8089   0.00    0.0
2019/01/15 09:30:25.000   4280224.9323  -4034416.9339  -2458273.7061   5   6  10.4237   8.0916  12.3231  -7.8235   7.3306  -8.8063   0.00    0.0
2019/01/15 09:30:26.000   4280228.1806  -4034423.8778  -2458264.6708   5   6  10.4232   8.0905  12.3196  -7.8227   7.3282  -8.8036   0.00    0.0
2019/01/15 09:30:27.000   4280228.4045  -4034426.2387  -2458279.7170   5   6  10.4227   8.0895  12.3160  -7.8218   7.3258  -8.8009   0.00    0.0
2019/01/15 09:30:28.000   4280236.1113  -4034429.4495  -2458285.5064   5   6  10.4222   8.0884  12.3125  -7.8210   7.3235  -8.7982   0.00    0.0
2019/01/15 09:30:29.000   4280223.0359  -4034407.7383  -2458271.6519   5   6  10.4217   8.0874  12.3090  -7.8202   7.3212  -8.7955   0.00    0.0
2019/01/15 09:30:30.000   4280205.8241  -4034402.0810  -2458245.8507   5   6  10.4213   8.0863  12.3055  -7.8194   7.3188  -8.7929   0.00    0.0
2019/01/15 09:30:31.000   4280236.4542  -4034426.4140  -2458277.3517   5   6  10.4207   8.0853  12.3019  -7.8185   7.3165  -8.7902   0.00    0.0
2019/01/15 09:30:32.000   4280228.2719  -4034424.4928  -2458281.2907   5   6  10.4203   8.0842  12.2984  -7.8177   7.3141  -8.7875   0.00    0.0
2019/01/15 09:30:33.000   4280223.7131  -4034419.8611  -2458271.3539   5   6  10.4198   8.0832  12.2949  -7.8169   7.3118  -8.7848   0.00    0.0
2019/01/15 09:30:34.000   4280221.9595  -4034425.0290  -2458266.6132   5   6  10.4193   8.0822  12.2914  -7.8161   7.3094  -8.7821   0.00    0.0
2019/01/15 09:30:35.000   4280209.1949  -4034406.0261  -2458259.4642   5   6  10.4188   8.0811  12.2879  -7.8153   7.3071  -8.7795   0.00    0.0
2019/01/15 09:30:36.000   4280219.1457  -4034412.7487  -2458255.7593   5   6  10.4184   8.0801  12.2844  -7.8145   7.3048  -8.7768   0.00    0.0
2019/01/15 09:30:37.000   4280214.4745  -4034417.0641  -2458248.9360   5   6  10.4179   8.0791  12.2808  -7.8136   7.3024  -8.7741   0.00    0.0
2019/01/15 09:30:38.000   4280212.5141  -4034411.2068  -2458254.1690   5   6  10.4174   8.0780  12.2773  -7.8128   7.3001  -8.7715   0.00    0.0
2019/01/15 09:30:39.000   4280198.7552  -4034387.7884  -2458247.0551   5   6  10.4170   8.0770  12.2738  -7.8120   7.2978  -8.7688   0.00    0.0
2019/01/15 09:30:40.000   4280207.6656  -4034394.0286  -2458246.9567   5   6  10.4165   8.0760  12.2703  -7.8112   7.2954  -8.7661   0.00    0.0
2019/01/15 09:30:41.000   4280214.3466  -4034399.3598  -2458256.6811   5   6  10.4160   8.0749  12.2668  -7.8104   7.2931  -8.7635   0.00    0.0
2019/01/15 09:30:42.000   4280202.2353  -4034396.3814  -2458251.3132   5   6  10.4155   8.0739  12.2633  -7.8096   7.2907  -8.7608   0.00    0.0
2019/01/15 09:30:43.000   4280217.0782  -4034407.2176  -2458261.9630   5   6  10.4151   8.0729  12.2597  -7.8088   7.2884  -8.7581   0.00    0.0
2019/01/15 09:30:44.000   4280217.1060  -4034406.5070  -2458269.3666   5   6  10.4146   8.0718  12.2562  -7.8080   7.2861  -8.7555   0.00    0.0
2019/01/15 09:30:45.000   4280216.6078  -4034421.2647  -2458274.8982   5   6  10.4141   8.0708  12.2527  -7.8072   7.2837  -8.7528   0.00    0.0
2019/01/15 09:30:46.000   4280217.3120  -4034417.7243  -2458272.5491   5   6  10.4136   8.0698  12.2492  -7.8064   7.2814  -8.7501   0.00    0.0
2019/01/15 09:30:47.000   4280226.6841  -4034420.6329  -2458288.9894   5   6  10.4132   8.0687  12.2457  -7.8056   7.2791  -8.7475   0.00    0.0
2019/01/15 09:30:48.000   4280229.2807  -4034423.8250  -2458294.9767   5   6  10.4127   8.0677  12.2422  -7.8048   7.2767  -8.7448   0.00    0.0
2019/01/15 09:30:49.000   4280240.9330  -4034423.3194  -2458283.0534   5   6  10.4122   8.0667  12.2387  -7.8040   7.2744  -8.7421   0.00    0.0
2019/01/15 09:30:50.000   4280224.9229  -4034420.9699  -2458290.5571   5   6  10.4118   8.0657  12.2352  -7.8032   7.2721  -8.7395   0.00    0.0
2019/01/15 09:30:51.000   4280228.8322  -4034429.9550  -2458284.3106   5   6  10.4113   8.0646  12.2317  -7.8024   7.2698  -8.7368   0.00    0.0
2019/01/15 09:30:52.000   4280234.5826  -4034423.8657  -2458293.5578   5   6  10.4109   8.0636  12.2281  -7.8016   7.2675  -8.7342   0.00    0.0
2019/01/15 09:30:53.000   4280221.3457  -4034416.3494  -2458288.5609   5   6  10.4104   8.0626  12.2246  -7.8008   7.2651  -8.7315   0.00    0.0
2019/01/15 09:30:54.000   4280232.6405  -4034419.0848  -2458281.0729   5   6  10.4100   8.0616  12.2211  -7.8000   7.2628  -8.7289   0.00    0.0
2019/01/15 09:30:55.000   4280207.5914  -4034408.6066  -2458271.2691   5   6  10.4095   8.0606  12.2177  -7.7992   7.2605  -8.7262   0.00    0.0
2019/01/15 09:30:56.000   4280218.4808  -4034416.0226  -2458280.4734   5   6  10.4091   8.0595  12.2141  -7.7984   7.2582  -8.7236   0.00    0.0
2019/01/15 09:30:57.000   4280223.8734  -4034420.6107  -2458282.1891   5   6  10.4086   8.0585  12.2106  -7.7976   7.2559  -8.7209   0.00    0.0
2019/01/15 09:30:58.000   4280219.3439  -4034420.6469  -2458269.4820   5   6  10.4082   8.0575  12.2072  -7.7968   7.2536  -8.7183   0.00    0.0
2019/01/15 09:30:59.000   4280225.8045  -4034420.3996  -2458265.6783   5   6  10.4077   8.0565  12.2037  -7.7960   7.2513  -8.7156   0.00    0.0
2019/01/15 09:31:00.000   4280228.9973  -4034422.9301  -2458278.1925   5   6  10.4073   8.0555  12.2002  -7.7953   7.2490  -8.7130   0.00    0.0
2019/01/15 09:31:01.000   4280229.6255  -4034423.9290  -2458272.3036   5   6  10.4068   8.0545  12.1967  -7.7945   7.2466  -8.7104   0.00    0.0
2019/01/15 09:31:02.000   4280237.0277  -4034419.7576  -2458256.8747   5   6  10.4064   8.0534  12.1932  -7.7937   7.2443  -8.7077   0.00    0.0
2019/01/15 09:31:03.000   4280227.1639  -4034408.8158  -2458259.4819   5   6  10.4059   8.0524  12.1897  -7.7929   7.2420  -8.7051   0.00    0.0
2019/01/15 09:31:04.000   4280222.6671  -4034415.1758  -2458263.7217   5   6  10.4055   8.0514  12.1862  -7.7921   7.2397  -8.7024   0.00    0.0
2019/01/15 09:31:05.000   4280222.4324  -4034413.7881  -2458246.1263   5   6  10.4051   8.0504  12.1827  -7.7914   7.2374  -8.6998   0.00    0.0
2019/01/15 09:31:06.000   4280229.3075  -4034422.4692  -2458260.1852   5   6  10.4046   8.0494  12.1792  -7.7906   7.2351  -8.6972   0.00    0.0
2019/01/15 09:31:07.000   4280228.8739  -4034424.1642  -2458269.8601   5   6  10.4042   8.0484  12.1757  -7.7898   7.2328  -8.6945   0.00    0.0
2019/01/15 09:31:08.000   4280233.7409  -4034429.4679  -2458271.5215   5   6  10.4037   8.0474  12.1722  -7.7890   7.2305  -8.6919   0.00    0.0
2019/01/15 09:31:09.000   4280231.9577  -4034410.6930  -2458252.7770   5   6  10.4033   8.0464  12.1688  -7.7882   7.2282  -8.6893   0.00    0.0
2019/01/15 09:31:10.000   4280221.6334  -4034411.9520  -2458242.7196   5   6  10.4029   8.0454  12.1653  -7.7875   7.2259  -8.6866   0.00    0.0
2019/01/15 09:31:11.000   4280229.0191  -4034424.3191  -2458260.1576   5   6  10.4025   8.0444  12.1618  -7.7867   7.2236  -8.6840   0.00    0.0
2019/01/15 09:31:12.000   4280230.4777  -4034418.8317  -2458264.6962   5   6  10.4020   8.0434  12.1583  -7.7859   7.2213  -8.6814   0.00    0.0
2019/01/15 09:31:13.000   4280228.4995  -4034416.2834  -2458260.8089   5   6  10.4016   8.0424  12.1548  -7.7852   7.2191  -8.6787   0.00    0.0
2019/01/15 09:31:14.000   4280231.2077  -4034421.6059  -2458274.6523   5   6  10.4012   8.0414  12.1513  -7.7844   7.2168  -8.6761   0.00    0.0
2019/01/15 09:31:15.000   4280241.6465  -4034433.1136  -2458272.9074   5   6  10.4007   8.0404  12.1478  -7.7836   7.2145  -8.6735   0.00    0.0
2019/01/15 09:31:16.000   4280235.9330  -4034430.1008  -2458279.6515   5   6  10.4003   8.0394  12.1444  -7.7828   7.2122  -8.6708   0.00    0.0
2019/01/15 09:31:17.000   4280228.5561  -4034415.1572  -2458271.6138   5   6  10.3999   8.0384  12.1409  -7.7821   7.2099  -8.6682   0.00    0.0
2019/01/15 09:31:18.000   4280241.6115  -4034427.3807  -2458279.1285   5   6  10.3995   8.0374  12.1374  -7.7813   7.2076  -8.6656   0.00    0.0
2019/01/15 09:31:19.000   4280241.4596  -4034436.4799  -2458278.5800   5   6  10.3990   8.0364  12.1339  -7.7805   7.2053  -8.6630   0.00    0.0
2019/01/15 09:31:20.000   4280235.8130  -4034427.9692  -2458259.2836   5   6  10.3986   8.0354  12.1305  -7.7798   7.2030  -8.6604   0.00    0.0
2019/01/15 09:31:21.000   4280237.5183  -4034434.2784  -2458293.4783   5   6  10.3982   8.0344  12.1270  -7.7790   7.2007  -8.6577   0.00    0.0
2019/01/15 09:31:22.000   4280234.8924  -4034423.7522  -2458281.4643   5   6  10.3978   8.0334  12.1235  -7.7783   7.1985  -8.6551   0.00    0.0
2019/01/15 09:31:23.000   4280230.3130  -4034434.3113  -2458276.4962   5   6  10.3974   8.0324  12.1200  -7.7775   7.1962  -8.6525   0.00    0.0
2019/01/15 09:31:24.000   4280234.4508  -4034435.2727  -2458280.2481   5   6  10.3969   8.0314  12.1166  -7.7768   7.1939  -8.6499   0.00    0.0
2019/01/15 09:31:25.000   4280231.3942  -4034434.5978  -2458272.3691   5   6  10.3965   8.0304  12.1131  -7.7760   7.1916  -8.6473   0.00    0.0
2019/01/15 09:31:26.000   4280229.7736  -4034429.5524  -2458289.5026   5   6  10.3961   8.0294  12.1096  -7.7753   7.1894  -8.6446   0.00    0.0
2019/01/15 09:31:27.000   4280214.3544  -4034408.7701  -2458261.2487   5   6  10.3957   8.0285  12.1062  -7.7745   7.1871  -8.6421   0.00    0.0
2019/01/15 09:31:28.000   4280220.8128  -4034421.5624  -2458261.1065   5   6  10.3953   8.0275  12.1027  -7.7738   7.1848  -8.6394   0.00    0.0
2019/01/15 09:31:29.000   4280228.5348  -4034428.3854  -2458278.3647   5   6  10.3949   8.0265  12.0992  -7.7730   7.1825  -8.6368   0.00    0.0
2019/01/15 09:31:30.000   4280226.0394  -4034427.6922  -2458269.7247   5   6  10.3945   8.0255  12.0958  -7.7723   7.1803  -8.6342   0.00    0.0
2019/01/15 09:31:31.000   4280240.7572  -4034427.9681  -2458280.4168   5   6  10.3941   8.0245  12.0923  -7.7715   7.1780  -8.6316   0.00    0.0
2019/01/15 09:31:32.000   4280220.1230  -4034418.9748  -2458263.6975   5   6  10.3937   8.0235  12.0888  -7.7708   7.1757  -8.6290   0.00    0.0
2019/01/15 09:31:33.000   4280234.5697  -4034430.2500  -2458282.7878   5   6  10.3933   8.0225  12.0854  -7.7700   7.1735  -8.6264   0.00    0.0
2019/01/15 09:31:34.000   4280245.2844  -4034436.4473  -2458274.1421   5   6  10.3929   8.0216  12.0819  -7.7693   7.1712  -8.6238   0.00    0.0
2019/01/15 09:31:35.000   4280236.0306  -4034425.8154  -2458274.5863   5   6  10.3925   8.0206  12.0784  -7.7685   7.1689  -8.6212   0.00    0.0
2019/01/15 09:31:36.000   4280231.0292  -4034433.7607  -2458300.3987   5   6  10.3921   8.0196  12.0750  -7.7678   7.1667  -8.6186   0.00    0.0
2019/01/15 09:31:37.000   4280223.2403  -4034420.1735  -2458290.2608   5   6  10.3917   8.0186  12.0715  -7.7671   7.1644  -8.6160   0.00    0.0
2019/01/15 09:31:38.000   4280238.2801  -4034439.3241  -2458292.3010   5   6  10.3913   8.0176  12.0681  -7.7663   7.1621  -8.6134   0.00    0.0
2019/01/15 09:31:39.000   4280235.3567  -4034428.0057  -2458291.9379   5   6  10.3909   8.0167  12.0646  -7.7656   7.1599  -8.6108   0.00    0.0
2019/01/15 09:31:40.000   4280229.9921  -4034420.4240  -2458294.8422   5   6  10.3905   8.0157  12.0612  -7.7648   7.1576  -8.6082   0.00    0.0
2019/01/15 09:31:41.000   4280227.2462  -4034417.3585  -2458289.9852   5   6  10.3901   8.0147  12.0577  -7.7641   7.1554  -8.6056   0.00    0.0
2019/01/15 09:31:42.000   4280236.4637  -4034435.6975  -2458305.3890   5   6  10.3897   8.0137  12.0542  -7.7634   7.1531  -8.6030   0.00    0.0
2019/01/15 09:31:43.000   4280218.2325  -4034420.6566  -2458281.4695   5   6  10.3893   8.0128  12.0508  -7.7626   7.1509  -8.6004   0.00    0.0
2019/01/15 09:31:44.000   4280221.5500  -4034421.6686  -2458278.9175   5   6  10.3889   8.0118  12.0474  -7.7619   7.1486  -8.5978   0.00    0.0
2019/01/15 09:31:45.000   4280220.9382  -4034410.0622  -2458275.4515   5   6  10.3886   8.0109  12.0439  -7.7612   7.1464  -8.5952   0.00    0.0
2019/01/15 09:31:46.000   4280216.6965  -4034404.5963  -2458281.1355   5   6  10.3882   8.0099  12.0405  -7.7605   7.1441  -8.5926   0.00    0.0
2019/01/15 09:31:47.000   4280224.5048  -4034405.7929  -2458282.6497   5   6  10.3878   8.0089  12.0370  -7.7597   7.1419  -8.5900   0.00    0.0
2019/01/15 09:31:48.000   4280226.8754  -4034413.9505  -2458283.7064   5   6  10.3874   8.0079  12.0336  -7.7590   7.1396  -8.5874   0.00    0.0
2019/01/15 09:31:49.000   4280223.2145  -4034411.9072  -2458285.9820   5   6  10.3870   8.0070  12.0301  -7.7583   7.1374  -8.5849   0.00    0.0
2019/01/15 09:31:50.000   4280228.1190  -4034427.0906  -2458273.9867   5   6  10.3866   8.0060  12.0267  -7.7575   7.1351  -8.5823   0.00    0.0
2019/01/15 09:31:51.000   4280215.8844  -4034410.3326  -2458258.0157   5   6  10.3863   8.0051  12.0232  -7.7568   7.1329  -8.5797   0.00    0.0
2019/01/15 09:31:52.000   4280218.5413  -4034407.7361  -2458250.1470   5   6  10.3859   8.0041  12.0198  -7.7561   7.1307  -8.5771   0.00    0.0
2019/01/15 09:31:53.000   4280210.3705  -4034406.3537  -2458263.2915   5   6  10.3855   8.0031  12.0164  -7.7554   7.1284  -8.5745   0.00    0.0
2019/01/15 09:31:54.000   4280220.7696  -4034409.3545  -2458271.1619   5   6  10.3851   8.0022  12.0129  -7.7547   7.1262  -8.5720   0.00    0.0
2019/01/15 09:31:55.000   4280227.2252  -4034414.6304  -2458269.1656   5   6  10.3848   8.0012  12.0095  -7.7539   7.1240  -8.5694   0.00    0.0
2019/01/15 09:31:56.000   4280211.8136  -4034404.3231  -2458237.0822   5   6  10.3844   8.0003  12.0061  -7.7532   7.1217  -8.5668   0.00    0.0
2019/01/15 09:31:57.000   4280235.0601  -4034419.8748  -2458248.4217   5   6  10.3840   7.9993  12.0026  -7.7525   7.1195  -8.5642   0.00    0.0
2019/01/15 09:31:58.000   4280229.9205  -4034420.3934  -2458240.6103   5   6  10.3836   7.9983  11.9992  -7.7518   7.1172  -8.5617   0.00    0.0
2019/01/15 09:31:59.000   4280213.7432  -4034414.3367  -2458235.5835   5   6  10.3833   7.9974  11.9958  -7.7511   7.1150  -8.5591   0.00    0.0
2019/01/15 09:32:00.000   4280221.0814  -4034413.9797  -2458237.2370   5   6  10.3829   7.9964  11.9923  -7.7504   7.1128  -8.5565   0.00    0.0
2019/01/15 09:32:01.000   4280225.2078  -4034427.2892  -2458262.6767   5   6  10.3825   7.9955  11.9889  -7.7497   7.1105  -8.5539   0.00    0.0
2019/01/15 09:32:02.000   4280216.5887  -4034419.0521  -2458246.1252   5   6  10.3822   7.9945  11.9855  -7.7490   7.1083  -8.5514   0.00    0.0
2019/01/15 09:32:03.000   4280243.3256  -4034433.5430  -2458258.9606   5   6  10.3818   7.9935  11.9820  -7.7482   7.1061  -8.5488   0.00    0.0
2019/01/15 09:32:04.000   4280221.0457  -4034412.1323  -2458253.0306   5   6  10.3814   7.9926  11.9786  -7.7475   7.1039  -8.5462   0.00    0.0
2019/01/15 09:32:05.000   4280219.0697  -4034411.7001  -2458246.6072   5   6  10.3811   7.9917  11.9752  -7.7468   7.1017  -8.5437   0.00    0.0
2019/01/15 09:32:06.000   4280208.1736  -4034403.8241  -2458245.9683   5   6  10.3807   7.9907  11.9717  -7.7461   7.0994  -8.5411   0.00    0.0
2019/01/15 09:32:07.000   4280218.4951  -4034419.6658  -2458251.8470   5   6  10.3804   7.9897  11.9683  -7.7454   7.0972  -8.5385   0.00    0.0
2019/01/15 09:32:08.000   4280219.5373  -4034421.2919  -2458247.5136   5   6  10.3800   7.9888  11.9649  -7.7447   7.0950  -8.5360   0.00    0.0
2019/01/15 09:32:09.000   4280227.2603  -4034429.6531  -2458259.1107   5   6  10.3796   7.9878  11.9615  -7.7440   7.0928  -8.5334   0.00    0.0
2019/01/15 09:32:10.000   4280239.3137  -4034439.1893  -2458279.8295   5   6  10.3793   7.9869  11.9580  -7.7433   7.0905  -8.5308   0.00    0.0
