% program   : RTKPOST ver.2.4.2
% inp file  : D:\Google Drive\UERJ\_Projeto Final\Python\tcc-guilherme\20190115_LevantamentoCompleto_Smoothed.19o
% inp file  : D:\Google Drive\UERJ\_Projeto Final\20190115_Marco 91500 IBGE\brdm0150.19p
% obs start : 2019/01/15 09:25:22.0 GPST (week2036 206722.0s)
% obs end   : 2019/01/15 10:25:42.0 GPST (week2036 210342.0s)
% pos mode  : single
% elev mask : 15.0 deg
% ionos opt : broadcast
% tropo opt : off
% ephemeris : broadcast
%
% (x/y/z-ecef=WGS84,Q=1:fix,2:float,3:sbas,4:dgps,5:single,6:ppp,ns=# of satellites)
%  GPST                      x-ecef(m)      y-ecef(m)      z-ecef(m)   Q  ns   sdx(m)   sdy(m)   sdz(m)  sdxy(m)  sdyz(m)  sdzx(m) age(s)  ratio
2019/01/15 09:25:22.000   4280236.7543  -4034431.1636  -2458274.7253   5   6   6.7218   7.2621   5.4132  -5.7083  -2.9389  -2.7298   0.00    0.0
2019/01/15 09:25:23.000   4280231.6199  -4034434.4844  -2458290.4155   5   6   6.7228   7.2625   5.4133  -5.7093  -2.9385  -2.7300   0.00    0.0
2019/01/15 09:25:24.000   4280232.0811  -4034433.8371  -2458281.9113   5   6   6.7239   7.2629   5.4134  -5.7104  -2.9381  -2.7301   0.00    0.0
2019/01/15 09:25:25.000   4280225.9252  -4034431.6292  -2458270.2044   5   6   6.7250   7.2634   5.4135  -5.7115  -2.9377  -2.7302   0.00    0.0
2019/01/15 09:25:26.000   4280220.4996  -4034425.2546  -2458259.9487   5   6   6.7261   7.2638   5.4136  -5.7126  -2.9372  -2.7303   0.00    0.0
2019/01/15 09:25:27.000   4280224.3163  -4034421.1289  -2458288.1569   5   5   7.3639   7.3374  11.4733  -5.9785   1.3548  -6.1445   0.00    0.0
2019/01/15 09:25:28.000   4280234.6888  -4034432.3512  -2458287.2503   5   6   6.7283   7.2646   5.4138  -5.7147  -2.9364  -2.7305   0.00    0.0
2019/01/15 09:25:29.000   4280224.5456  -4034420.6543  -2458286.6611   5   5   7.3636   7.3381  11.4632  -5.9799   1.3486  -6.1370   0.00    0.0
2019/01/15 09:25:30.000   4280233.2409  -4034428.3257  -2458289.5715   5   5   7.3634   7.3384  11.4581  -5.9805   1.3455  -6.1333   0.00    0.0
2019/01/15 09:25:31.000   4280226.0329  -4034420.5785  -2458278.5432   5   5   7.3633   7.3387  11.4531  -5.9812   1.3424  -6.1296   0.00    0.0
2019/01/15 09:25:32.000   4280219.3578  -4034413.8775  -2458275.3408   5   5   7.3631   7.3391  11.4481  -5.9818   1.3393  -6.1259   0.00    0.0
2019/01/15 09:25:33.000   4280225.9572  -4034423.0051  -2458280.6459   5   5   7.3630   7.3394  11.4430  -5.9825   1.3362  -6.1222   0.00    0.0
2019/01/15 09:25:34.000   4280224.3110  -4034418.5852  -2458275.7727   5   5   7.3628   7.3397  11.4380  -5.9832   1.3332  -6.1185   0.00    0.0
2019/01/15 09:25:35.000   4280227.0900  -4034423.4886  -2458280.3365   5   5   7.3626   7.3401  11.4330  -5.9838   1.3301  -6.1148   0.00    0.0
2019/01/15 09:25:36.000   4280227.9853  -4034424.7737  -2458278.6717   5   5   7.3625   7.3404  11.4280  -5.9845   1.3270  -6.1111   0.00    0.0
2019/01/15 09:25:37.000   4280229.4937  -4034426.5598  -2458280.2689   5   5   7.3624   7.3407  11.4229  -5.9852   1.3239  -6.1074   0.00    0.0
2019/01/15 09:25:38.000   4280230.1774  -4034424.4053  -2458286.2396   5   6   7.2774   5.7965   9.3914  -5.5508   5.5675  -6.6702   0.00    0.0
2019/01/15 09:25:39.000   4280229.7601  -4034424.0632  -2458283.4366   5   6   7.2767   5.7957   9.3889  -5.5499   5.5656  -6.6680   0.00    0.0
2019/01/15 09:25:40.000   4280229.2602  -4034424.3729  -2458284.9880   5   6   7.2761   5.7949   9.3864  -5.5491   5.5638  -6.6658   0.00    0.0
2019/01/15 09:25:41.000   4280230.1461  -4034426.8374  -2458282.9825   5   6   7.2754   5.7940   9.3838  -5.5483   5.5619  -6.6637   0.00    0.0
2019/01/15 09:25:42.000   4280230.4822  -4034428.1083  -2458281.0007   5   6   7.2748   5.7932   9.3813  -5.5475   5.5600  -6.6615   0.00    0.0
2019/01/15 09:25:43.000   4280229.7811  -4034425.4896  -2458284.6058   5   6   7.2741   5.7924   9.3788  -5.5467   5.5581  -6.6594   0.00    0.0
2019/01/15 09:25:44.000   4280230.0875  -4034426.6814  -2458283.0172   5   6   7.2734   5.7916   9.3763  -5.5458   5.5562  -6.6572   0.00    0.0
2019/01/15 09:25:45.000   4280230.3418  -4034428.0396  -2458280.8066   5   6   7.2728   5.7907   9.3737  -5.5450   5.5544  -6.6551   0.00    0.0
2019/01/15 09:25:46.000   4280230.1088  -4034427.0632  -2458282.2622   5   6   7.2721   5.7899   9.3712  -5.5442   5.5525  -6.6530   0.00    0.0
2019/01/15 09:25:47.000   4280229.6360  -4034425.2947  -2458284.8728   5   6   7.2715   5.7891   9.3687  -5.5434   5.5506  -6.6508   0.00    0.0
2019/01/15 09:25:48.000   4280229.4184  -4034424.7739  -2458285.3955   5   6   7.2708   5.7883   9.3662  -5.5426   5.5487  -6.6487   0.00    0.0
2019/01/15 09:25:49.000   4280229.5301  -4034425.5460  -2458283.9547   5   6   7.2702   5.7875   9.3637  -5.5418   5.5469  -6.6465   0.00    0.0
2019/01/15 09:27:31.000   4280225.2336  -4034418.5025  -2458278.6470   5   6   7.2085   5.7082   9.1076  -5.4639   5.3595  -6.4301   0.00    0.0
2019/01/15 09:27:32.000   4280225.1652  -4034418.5134  -2458278.4238   5   6   7.2080   5.7075   9.1051  -5.4632   5.3577  -6.4280   0.00    0.0
2019/01/15 09:27:33.000   4280225.2445  -4034418.6185  -2458278.4796   5   6   7.2074   5.7068   9.1026  -5.4625   5.3559  -6.4259   0.00    0.0
2019/01/15 09:27:34.000   4280225.2327  -4034418.6913  -2458278.5030   5   6   7.2069   5.7060   9.1001  -5.4618   5.3541  -6.4238   0.00    0.0
2019/01/15 09:27:35.000   4280225.2402  -4034418.6854  -2458278.2414   5   6   7.2063   5.7053   9.0977  -5.4611   5.3523  -6.4217   0.00    0.0
2019/01/15 09:27:36.000   4280225.3330  -4034418.7389  -2458278.3907   5   6   7.2058   5.7046   9.0952  -5.4604   5.3505  -6.4196   0.00    0.0
2019/01/15 09:27:37.000   4280225.3334  -4034418.7229  -2458278.3636   5   6   7.2052   5.7038   9.0927  -5.4597   5.3487  -6.4175   0.00    0.0
2019/01/15 09:27:38.000   4280225.3731  -4034418.6539  -2458278.3168   5   6   7.2047   5.7031   9.0902  -5.4590   5.3469  -6.4154   0.00    0.0
2019/01/15 09:27:39.000   4280225.4006  -4034418.6301  -2458278.2884   5   6   7.2041   5.7024   9.0877  -5.4583   5.3451  -6.4133   0.00    0.0
2019/01/15 09:27:40.000   4280225.4429  -4034418.5648  -2458278.4210   5   6   7.2036   5.7016   9.0852  -5.4576   5.3434  -6.4112   0.00    0.0
2019/01/15 09:27:41.000   4280225.4864  -4034418.5065  -2458278.5948   5   6   7.2031   5.7009   9.0827  -5.4569   5.3416  -6.4091   0.00    0.0
2019/01/15 09:27:42.000   4280225.4161  -4034418.3864  -2458278.7017   5   6   7.2025   5.7002   9.0802  -5.4562   5.3398  -6.4071   0.00    0.0
2019/01/15 09:27:43.000   4280225.4838  -4034418.3293  -2458278.7757   5   6   7.2020   5.6995   9.0777  -5.4555   5.3380  -6.4050   0.00    0.0
2019/01/15 09:27:44.000   4280225.5207  -4034418.3008  -2458278.7331   5   6   7.2014   5.6987   9.0752  -5.4547   5.3362  -6.4029   0.00    0.0
2019/01/15 09:27:45.000   4280225.6012  -4034418.2806  -2458278.9909   5   6   7.2009   5.6980   9.0727  -5.4540   5.3344  -6.4008   0.00    0.0
2019/01/15 09:27:46.000   4280225.5073  -4034418.2249  -2458278.9666   5   6   7.2004   5.6973   9.0702  -5.4534   5.3326  -6.3987   0.00    0.0
2019/01/15 09:27:47.000   4280225.5639  -4034418.1237  -2458279.1667   5   6   7.1998   5.6966   9.0677  -5.4527   5.3308  -6.3966   0.00    0.0
2019/01/15 09:27:48.000   4280225.5640  -4034417.9970  -2458279.2459   5   6   7.1993   5.6958   9.0653  -5.4520   5.3291  -6.3945   0.00    0.0
2019/01/15 09:27:49.000   4280225.6786  -4034418.1135  -2458279.2478   5   6   7.1987   5.6951   9.0628  -5.4513   5.3273  -6.3925   0.00    0.0
2019/01/15 09:27:50.000   4280225.5944  -4034418.0369  -2458279.1298   5   6   7.1982   5.6944   9.0603  -5.4506   5.3255  -6.3904   0.00    0.0
2019/01/15 09:27:51.000   4280225.5851  -4034418.0045  -2458279.0263   5   6   7.1977   5.6937   9.0578  -5.4499   5.3237  -6.3883   0.00    0.0
2019/01/15 09:27:52.000   4280225.5464  -4034417.9825  -2458278.9728   5   6   7.1971   5.6930   9.0553  -5.4492   5.3219  -6.3862   0.00    0.0
2019/01/15 09:27:53.000   4280225.7055  -4034418.0783  -2458279.0943   5   6   7.1966   5.6922   9.0528  -5.4485   5.3202  -6.3841   0.00    0.0
2019/01/15 09:27:54.000   4280225.6581  -4034418.0130  -2458278.9520   5   6   7.1961   5.6915   9.0503  -5.4478   5.3184  -6.3820   0.00    0.0
2019/01/15 09:27:55.000   4280225.5849  -4034417.9492  -2458278.9711   5   6   7.1956   5.6908   9.0478  -5.4471   5.3166  -6.3800   0.00    0.0
2019/01/15 09:27:56.000   4280225.6146  -4034417.8629  -2458279.1276   5   6   7.1950   5.6901   9.0453  -5.4464   5.3148  -6.3779   0.00    0.0
2019/01/15 09:27:57.000   4280225.6264  -4034417.8951  -2458279.1234   5   6   7.1945   5.6894   9.0429  -5.4457   5.3130  -6.3758   0.00    0.0
2019/01/15 09:27:58.000   4280225.5881  -4034417.8773  -2458279.3108   5   6   7.1940   5.6887   9.0404  -5.4450   5.3113  -6.3737   0.00    0.0
2019/01/15 09:27:59.000   4280225.7323  -4034417.9224  -2458279.5974   5   6   7.1934   5.6879   9.0379  -5.4444   5.3095  -6.3716   0.00    0.0
2019/01/15 09:28:00.000   4280225.7585  -4034417.9114  -2458279.7200   5   6   7.1929   5.6872   9.0354  -5.4437   5.3077  -6.3696   0.00    0.0
2019/01/15 09:28:01.000   4280225.6819  -4034417.7899  -2458279.7908   5   6   7.1924   5.6865   9.0329  -5.4430   5.3060  -6.3675   0.00    0.0
2019/01/15 09:28:02.000   4280225.7077  -4034417.8027  -2458279.8688   5   6   7.1919   5.6858   9.0304  -5.4423   5.3042  -6.3654   0.00    0.0
2019/01/15 09:28:03.000   4280225.7567  -4034417.8039  -2458279.8849   5   6   7.1914   5.6851   9.0279  -5.4416   5.3024  -6.3633   0.00    0.0
2019/01/15 09:28:04.000   4280225.6445  -4034417.9675  -2458279.7884   5   6   7.1908   5.6844   9.0255  -5.4409   5.3006  -6.3613   0.00    0.0
2019/01/15 09:28:05.000   4280225.3088  -4034417.9899  -2458279.6897   5   6   7.1903   5.6837   9.0230  -5.4403   5.2989  -6.3592   0.00    0.0
2019/01/15 09:28:06.000   4280225.0674  -4034418.0088  -2458279.7854   5   6   7.1898   5.6830   9.0205  -5.4396   5.2971  -6.3571   0.00    0.0
2019/01/15 09:28:07.000   4280225.2594  -4034418.4060  -2458279.7424   5   6   7.1893   5.6823   9.0180  -5.4389   5.2953  -6.3550   0.00    0.0
2019/01/15 09:28:08.000   4280225.4808  -4034418.8154  -2458279.7655   5   6   7.1888   5.6816   9.0155  -5.4382   5.2936  -6.3530   0.00    0.0
2019/01/15 09:28:09.000   4280225.9054  -4034419.2462  -2458279.9228   5   6   7.1882   5.6808   9.0130  -5.4375   5.2918  -6.3509   0.00    0.0
2019/01/15 09:28:10.000   4280226.4760  -4034419.6095  -2458280.2338   5   6   7.1877   5.6801   9.0106  -5.4369   5.2900  -6.3488   0.00    0.0
2019/01/15 09:28:11.000   4280226.7924  -4034419.5824  -2458280.3842   5   6   7.1872   5.6794   9.0081  -5.4362   5.2883  -6.3467   0.00    0.0
2019/01/15 09:28:12.000   4280226.6372  -4034419.5573  -2458280.3985   5   6   7.1867   5.6787   9.0056  -5.4355   5.2865  -6.3447   0.00    0.0
2019/01/15 09:28:13.000   4280226.2566  -4034419.4835  -2458280.4764   5   6   7.1862   5.6780   9.0031  -5.4348   5.2847  -6.3426   0.00    0.0
2019/01/15 09:28:14.000   4280225.7749  -4034419.5807  -2458280.1949   5   6   7.1857   5.6773   9.0006  -5.4342   5.2830  -6.3405   0.00    0.0
2019/01/15 09:28:15.000   4280225.8200  -4034420.0855  -2458279.8312   5   6   7.1852   5.6766   8.9982  -5.4335   5.2812  -6.3385   0.00    0.0
2019/01/15 09:28:16.000   4280226.1703  -4034420.4578  -2458279.4329   5   6   7.1847   5.6759   8.9957  -5.4328   5.2795  -6.3364   0.00    0.0
2019/01/15 09:28:17.000   4280226.4915  -4034420.5118  -2458278.9795   5   6   7.1842   5.6752   8.9932  -5.4322   5.2777  -6.3343   0.00    0.0
2019/01/15 09:28:18.000   4280226.5569  -4034420.3969  -2458278.3965   5   6   7.1837   5.6745   8.9907  -5.4315   5.2759  -6.3323   0.00    0.0
2019/01/15 09:28:19.000   4280226.7619  -4034420.5859  -2458278.4065   5   6   7.1832   5.6738   8.9882  -5.4308   5.2742  -6.3302   0.00    0.0
2019/01/15 09:28:20.000   4280226.2466  -4034420.4951  -2458278.2014   5   6   7.1826   5.6731   8.9858  -5.4302   5.2724  -6.3281   0.00    0.0
2019/01/15 09:28:21.000   4280225.7950  -4034420.3848  -2458278.3279   5   6   7.1821   5.6724   8.9833  -5.4295   5.2707  -6.3261   0.00    0.0
2019/01/15 09:28:22.000   4280225.3844  -4034420.3111  -2458278.7633   5   6   7.1816   5.6717   8.9808  -5.4288   5.2689  -6.3240   0.00    0.0
2019/01/15 09:28:23.000   4280225.2474  -4034420.1339  -2458279.0609   5   6   7.1811   5.6710   8.9783  -5.4282   5.2672  -6.3219   0.00    0.0
2019/01/15 09:28:24.000   4280225.6657  -4034420.1926  -2458279.6568   5   6   7.1806   5.6703   8.9759  -5.4275   5.2654  -6.3199   0.00    0.0
2019/01/15 09:28:25.000   4280226.2267  -4034420.3040  -2458280.4235   5   6   7.1801   5.6697   8.9734  -5.4269   5.2637  -6.3178   0.00    0.0
2019/01/15 09:28:26.000   4280226.7359  -4034420.5472  -2458281.0623   5   6   7.1796   5.6690   8.9709  -5.4262   5.2619  -6.3158   0.00    0.0
2019/01/15 09:28:27.000   4280226.6890  -4034420.5431  -2458280.8987   5   6   7.1792   5.6683   8.9684  -5.4255   5.2601  -6.3137   0.00    0.0
2019/01/15 09:28:28.000   4280226.2177  -4034420.4828  -2458280.2767   5   6   7.1787   5.6676   8.9660  -5.4249   5.2584  -6.3116   0.00    0.0
2019/01/15 09:28:29.000   4280225.9687  -4034420.4125  -2458279.8724   5   6   7.1782   5.6669   8.9635  -5.4242   5.2567  -6.3096   0.00    0.0
2019/01/15 09:28:30.000   4280225.9437  -4034420.6656  -2458279.7415   5   6   7.1777   5.6662   8.9610  -5.4236   5.2549  -6.3075   0.00    0.0
2019/01/15 09:28:31.000   4280225.8978  -4034420.6907  -2458279.3242   5   6   7.1772   5.6655   8.9585  -5.4229   5.2532  -6.3055   0.00    0.0
2019/01/15 09:28:32.000   4280225.3216  -4034420.1677  -2458278.5787   5   6   7.1767   5.6648   8.9561  -5.4223   5.2514  -6.3034   0.00    0.0
2019/01/15 09:28:33.000   4280225.0118  -4034419.8818  -2458278.1550   5   6   7.1762   5.6641   8.9536  -5.4216   5.2497  -6.3013   0.00    0.0
2019/01/15 09:28:34.000   4280224.4644  -4034419.5134  -2458277.4841   5   6   7.1757   5.6634   8.9511  -5.4209   5.2479  -6.2993   0.00    0.0
2019/01/15 09:28:35.000   4280224.5043  -4034419.3248  -2458277.1789   5   6   7.1752   5.6628   8.9487  -5.4203   5.2462  -6.2972   0.00    0.0
2019/01/15 09:28:36.000   4280225.2148  -4034419.5526  -2458277.1807   5   6   7.1747   5.6621   8.9462  -5.4196   5.2444  -6.2952   0.00    0.0
2019/01/15 09:28:37.000   4280225.5836  -4034419.6338  -2458277.0354   5   6   7.1742   5.6614   8.9437  -5.4190   5.2427  -6.2931   0.00    0.0
2019/01/15 09:28:38.000   4280225.7983  -4034419.7722  -2458276.9698   5   6   7.1738   5.6607   8.9412  -5.4183   5.2409  -6.2911   0.00    0.0
2019/01/15 09:28:39.000   4280225.8819  -4034419.9962  -2458277.1375   5   6   7.1733   5.6600   8.9388  -5.4177   5.2392  -6.2890   0.00    0.0
2019/01/15 09:28:40.000   4280226.1569  -4034420.3489  -2458277.3680   5   6   7.1728   5.6593   8.9363  -5.4171   5.2375  -6.2870   0.00    0.0
2019/01/15 09:28:41.000   4280226.4043  -4034420.5160  -2458277.4005   5   6   7.1723   5.6587   8.9338  -5.4164   5.2357  -6.2849   0.00    0.0
2019/01/15 09:28:42.000   4280226.5035  -4034420.5041  -2458277.6379   5   6   7.1718   5.6580   8.9314  -5.4158   5.2340  -6.2829   0.00    0.0
2019/01/15 09:28:43.000   4280226.0079  -4034419.9628  -2458277.3448   5   6   7.1713   5.6573   8.9289  -5.4151   5.2322  -6.2808   0.00    0.0
2019/01/15 09:28:44.000   4280225.2917  -4034419.4604  -2458277.2556   5   6   7.1709   5.6566   8.9264  -5.4145   5.2305  -6.2788   0.00    0.0
2019/01/15 09:28:45.000   4280224.8192  -4034419.0909  -2458277.1916   5   6   7.1704   5.6560   8.9240  -5.4138   5.2288  -6.2767   0.00    0.0
2019/01/15 09:28:46.000   4280224.3908  -4034418.5753  -2458277.1149   5   6   7.1699   5.6553   8.9215  -5.4132   5.2270  -6.2747   0.00    0.0
2019/01/15 09:28:47.000   4280224.2165  -4034418.1492  -2458276.9508   5   6   7.1694   5.6546   8.9190  -5.4126   5.2253  -6.2726   0.00    0.0
2019/01/15 09:28:48.000   4280224.7540  -4034418.2035  -2458277.2315   5   6   7.1690   5.6539   8.9166  -5.4119   5.2236  -6.2706   0.00    0.0
2019/01/15 09:28:49.000   4280224.7616  -4034418.2144  -2458277.1418   5   6   7.1685   5.6532   8.9141  -5.4113   5.2218  -6.2685   0.00    0.0
2019/01/15 09:28:50.000   4280224.2069  -4034417.9567  -2458277.0245   5   6   7.1680   5.6526   8.9116  -5.4106   5.2201  -6.2665   0.00    0.0
2019/01/15 09:28:51.000   4280223.9779  -4034417.7527  -2458276.7114   5   6   7.1675   5.6519   8.9092  -5.4100   5.2184  -6.2644   0.00    0.0
2019/01/15 09:28:52.000   4280223.9879  -4034417.7746  -2458276.5588   5   6   7.1671   5.6512   8.9067  -5.4094   5.2166  -6.2624   0.00    0.0
2019/01/15 09:28:53.000   4280224.2589  -4034418.0228  -2458276.7556   5   6   7.1666   5.6506   8.9043  -5.4087   5.2149  -6.2603   0.00    0.0
2019/01/15 09:28:54.000   4280224.7442  -4034418.4238  -2458277.2803   5   6   7.1661   5.6499   8.9018  -5.4081   5.2132  -6.2583   0.00    0.0
2019/01/15 09:28:55.000   4280224.9625  -4034418.5808  -2458277.5833   5   6   7.1657   5.6492   8.8993  -5.4075   5.2115  -6.2563   0.00    0.0
2019/01/15 09:28:56.000   4280224.6164  -4034418.5414  -2458277.4334   5   6   7.1652   5.6485   8.8969  -5.4069   5.2097  -6.2542   0.00    0.0
2019/01/15 09:28:57.000   4280223.9568  -4034418.4068  -2458277.2017   5   6   7.1647   5.6479   8.8944  -5.4062   5.2080  -6.2522   0.00    0.0
2019/01/15 09:28:58.000   4280223.5420  -4034418.3570  -2458277.4139   5   6   7.1643   5.6472   8.8920  -5.4056   5.2063  -6.2501   0.00    0.0
2019/01/15 09:28:59.000   4280222.9829  -4034418.0729  -2458277.5671   5   6   7.1638   5.6465   8.8895  -5.4050   5.2046  -6.2481   0.00    0.0
2019/01/15 09:29:00.000   4280222.8383  -4034417.9499  -2458277.9252   5   6   7.1633   5.6459   8.8870  -5.4043   5.2028  -6.2461   0.00    0.0
2019/01/15 09:29:01.000   4280223.2996  -4034417.9226  -2458278.4940   5   6   7.1629   5.6452   8.8846  -5.4037   5.2011  -6.2440   0.00    0.0
2019/01/15 09:29:02.000   4280224.0001  -4034417.8783  -2458278.8633   5   6   7.1624   5.6445   8.8821  -5.4031   5.1994  -6.2420   0.00    0.0
2019/01/15 09:29:03.000   4280225.1189  -4034418.2867  -2458279.0986   5   6   7.1620   5.6439   8.8797  -5.4025   5.1977  -6.2399   0.00    0.0
2019/01/15 09:29:04.000   4280225.5317  -4034418.7420  -2458278.8414   5   6   7.1615   5.6432   8.8772  -5.4018   5.1960  -6.2379   0.00    0.0
2019/01/15 09:29:05.000   4280225.3401  -4034418.8105  -2458278.2501   5   6   7.1610   5.6426   8.8747  -5.4012   5.1942  -6.2359   0.00    0.0
2019/01/15 09:29:06.000   4280224.6680  -4034418.5469  -2458277.3110   5   6   7.1606   5.6419   8.8723  -5.4006   5.1925  -6.2338   0.00    0.0
2019/01/15 09:29:07.000   4280224.2447  -4034418.5487  -2458276.5647   5   6   7.1601   5.6412   8.8698  -5.4000   5.1908  -6.2318   0.00    0.0
2019/01/15 09:29:08.000   4280224.1771  -4034418.5090  -2458276.2588   5   6   7.1597   5.6406   8.8674  -5.3994   5.1891  -6.2298   0.00    0.0
2019/01/15 09:29:09.000   4280224.3734  -4034418.4745  -2458276.2227   5   6   7.1592   5.6399   8.8649  -5.3987   5.1874  -6.2277   0.00    0.0
2019/01/15 09:29:10.000   4280224.7353  -4034418.4931  -2458276.5422   5   6   7.1588   5.6393   8.8625  -5.3981   5.1857  -6.2257   0.00    0.0
2019/01/15 09:29:11.000   4280224.9522  -4034418.6019  -2458276.6850   5   6   7.1583   5.6386   8.8600  -5.3975   5.1839  -6.2237   0.00    0.0
2019/01/15 09:29:12.000   4280225.1082  -4034418.5831  -2458277.0699   5   6   7.1579   5.6379   8.8576  -5.3969   5.1822  -6.2216   0.00    0.0
2019/01/15 09:29:13.000   4280224.7850  -4034418.2394  -2458277.2001   5   6   7.1574   5.6373   8.8551  -5.3963   5.1805  -6.2196   0.00    0.0
2019/01/15 09:29:14.000   4280224.5353  -4034418.1073  -2458277.2856   5   6   7.1570   5.6366   8.8526  -5.3957   5.1788  -6.2176   0.00    0.0
2019/01/15 09:29:15.000   4280224.3996  -4034417.9111  -2458277.0537   5   6   7.1565   5.6360   8.8502  -5.3951   5.1771  -6.2156   0.00    0.0
2019/01/15 09:29:16.000   4280224.8096  -4034418.1504  -2458276.8553   5   6   7.1561   5.6353   8.8477  -5.3945   5.1754  -6.2135   0.00    0.0
2019/01/15 09:29:17.000   4280224.9929  -4034418.2604  -2458276.5789   5   6   7.1556   5.6347   8.8453  -5.3938   5.1737  -6.2115   0.00    0.0
2019/01/15 09:29:18.000   4280224.6631  -4034418.2849  -2458276.1098   5   6   7.1552   5.6340   8.8428  -5.3932   5.1720  -6.2095   0.00    0.0
2019/01/15 09:29:19.000   4280224.5449  -4034418.2494  -2458275.7386   5   6   7.1547   5.6334   8.8404  -5.3926   5.1703  -6.2074   0.00    0.0
2019/01/15 09:29:20.000   4280224.8559  -4034418.3803  -2458275.1142   5   6   7.1543   5.6327   8.8379  -5.3920   5.1686  -6.2054   0.00    0.0
2019/01/15 09:29:21.000   4280225.0887  -4034418.4324  -2458274.5671   5   6   7.1539   5.6321   8.8355  -5.3914   5.1669  -6.2034   0.00    0.0
2019/01/15 09:29:22.000   4280225.0048  -4034417.9611  -2458274.2458   5   6   7.1534   5.6314   8.8330  -5.3908   5.1652  -6.2014   0.00    0.0
2019/01/15 09:29:23.000   4280224.6428  -4034417.3228  -2458274.0742   5   6   7.1530   5.6308   8.8306  -5.3902   5.1635  -6.1993   0.00    0.0
2019/01/15 09:29:24.000   4280224.5843  -4034417.1049  -2458274.1358   5   6   7.1525   5.6301   8.8282  -5.3896   5.1618  -6.1973   0.00    0.0
2019/01/15 09:29:25.000   4280224.6091  -4034417.2507  -2458274.3734   5   6   7.1521   5.6295   8.8257  -5.3890   5.1601  -6.1953   0.00    0.0
2019/01/15 09:29:26.000   4280224.7771  -4034417.6381  -2458274.7740   5   6   7.1517   5.6288   8.8233  -5.3884   5.1584  -6.1933   0.00    0.0
2019/01/15 09:29:27.000   4280224.7261  -4034418.0779  -2458274.7696   5   6   7.1512   5.6282   8.8208  -5.3878   5.1567  -6.1913   0.00    0.0
2019/01/15 09:29:28.000   4280224.6099  -4034418.2696  -2458274.5039   5   6   7.1508   5.6275   8.8184  -5.3872   5.1550  -6.1892   0.00    0.0
2019/01/15 09:29:29.000   4280224.4723  -4034418.4509  -2458274.3848   5   6   7.1504   5.6269   8.8159  -5.3866   5.1533  -6.1872   0.00    0.0
2019/01/15 09:29:30.000   4280224.5075  -4034418.6669  -2458274.4762   5   6   7.1499   5.6263   8.8135  -5.3860   5.1516  -6.1852   0.00    0.0
2019/01/15 09:29:31.000   4280224.4813  -4034418.5423  -2458274.6389   5   6   7.1495   5.6256   8.8110  -5.3854   5.1499  -6.1832   0.00    0.0
2019/01/15 09:29:32.000   4280224.1885  -4034418.0156  -2458274.4123   5   6   7.1491   5.6250   8.8086  -5.3848   5.1482  -6.1812   0.00    0.0
2019/01/15 09:29:33.000   4280224.2904  -4034417.8021  -2458274.3974   5   6   7.1486   5.6243   8.8061  -5.3842   5.1465  -6.1792   0.00    0.0
2019/01/15 09:29:34.000   4280224.0233  -4034417.5962  -2458274.1437   5   6   7.1482   5.6237   8.8037  -5.3836   5.1448  -6.1771   0.00    0.0
2019/01/15 09:29:35.000   4280223.3598  -4034417.1966  -2458273.8572   5   6   7.1478   5.6231   8.8013  -5.3830   5.1431  -6.1751   0.00    0.0
2019/01/15 09:29:36.000   4280222.8239  -4034416.9623  -2458273.4522   5   6   7.1474   5.6224   8.7988  -5.3824   5.1414  -6.1731   0.00    0.0
2019/01/15 09:29:37.000   4280222.7355  -4034417.0406  -2458273.4070   5   6   7.1469   5.6218   8.7964  -5.3818   5.1397  -6.1711   0.00    0.0
2019/01/15 09:29:38.000   4280222.4120  -4034416.9718  -2458272.9229   5   6   7.1465   5.6211   8.7939  -5.3813   5.1380  -6.1691   0.00    0.0
2019/01/15 09:29:39.000   4280222.4094  -4034417.1702  -2458272.4291   5   6   7.1461   5.6205   8.7915  -5.3807   5.1363  -6.1671   0.00    0.0
2019/01/15 09:29:40.000   4280222.6997  -4034417.4167  -2458272.0566   5   6   7.1457   5.6199   8.7891  -5.3801   5.1346  -6.1651   0.00    0.0
2019/01/15 09:29:41.000   4280223.0647  -4034417.5378  -2458271.9687   5   6   7.1453   5.6192   8.7866  -5.3795   5.1330  -6.1630   0.00    0.0
2019/01/15 09:29:42.000   4280223.1245  -4034417.4900  -2458272.3691   5   6   7.1448   5.6186   8.7842  -5.3789   5.1313  -6.1610   0.00    0.0
2019/01/15 09:29:43.000   4280223.0678  -4034417.4859  -2458273.2000   5   6   7.1444   5.6180   8.7817  -5.3783   5.1296  -6.1590   0.00    0.0
2019/01/15 09:29:44.000   4280222.9845  -4034417.5733  -2458273.7033   5   6   7.1440   5.6173   8.7793  -5.3777   5.1279  -6.1570   0.00    0.0
2019/01/15 09:29:45.000   4280222.9616  -4034418.1002  -2458274.1633   5   6   7.1436   5.6167   8.7769  -5.3772   5.1262  -6.1550   0.00    0.0
2019/01/15 09:29:46.000   4280222.9237  -4034418.4434  -2458274.0506   5   6   7.1432   5.6161   8.7744  -5.3766   5.1245  -6.1530   0.00    0.0
2019/01/15 09:29:47.000   4280222.9876  -4034418.5161  -2458273.1909   5   6   7.1428   5.6154   8.7720  -5.3760   5.1228  -6.1510   0.00    0.0
2019/01/15 09:29:48.000   4280222.7293  -4034418.3354  -2458272.0561   5   6   7.1423   5.6148   8.7696  -5.3754   5.1212  -6.1490   0.00    0.0
2019/01/15 09:29:49.000   4280222.9782  -4034418.4467  -2458271.5130   5   6   7.1419   5.6142   8.7671  -5.3748   5.1195  -6.1470   0.00    0.0
2019/01/15 09:29:50.000   4280222.8346  -4034418.2988  -2458271.1448   5   6   7.1415   5.6136   8.7647  -5.3743   5.1178  -6.1450   0.00    0.0
2019/01/15 09:29:51.000   4280223.1828  -4034418.2431  -2458271.1656   5   6   7.1411   5.6129   8.7623  -5.3737   5.1161  -6.1430   0.00    0.0
2019/01/15 09:29:52.000   4280223.3057  -4034417.9777  -2458270.7169   5   6   7.1407   5.6123   8.7598  -5.3731   5.1145  -6.1410   0.00    0.0
2019/01/15 09:29:53.000   4280223.2845  -4034417.8432  -2458270.4570   5   6   7.1403   5.6117   8.7574  -5.3725   5.1128  -6.1390   0.00    0.0
2019/01/15 09:29:54.000   4280222.5725  -4034417.2442  -2458270.0298   5   6   7.1399   5.6111   8.7550  -5.3720   5.1111  -6.1370   0.00    0.0
2019/01/15 09:29:55.000   4280222.2363  -4034416.8776  -2458270.0110   5   6   7.1395   5.6104   8.7525  -5.3714   5.1094  -6.1350   0.00    0.0
2019/01/15 09:29:56.000   4280222.3154  -4034416.9744  -2458270.1221   5   6   7.1391   5.6098   8.7501  -5.3708   5.1078  -6.1330   0.00    0.0
2019/01/15 09:29:57.000   4280222.4787  -4034417.2148  -2458270.2951   5   6   7.1387   5.6092   8.7477  -5.3702   5.1061  -6.1310   0.00    0.0
2019/01/15 09:29:58.000   4280222.5968  -4034417.4279  -2458270.6178   5   6   7.1383   5.6086   8.7452  -5.3697   5.1044  -6.1290   0.00    0.0
2019/01/15 09:29:59.000   4280223.2886  -4034417.9880  -2458271.2668   5   6   7.1379   5.6079   8.7428  -5.3691   5.1027  -6.1270   0.00    0.0
2019/01/15 09:30:00.000   4280224.1460  -4034418.5747  -2458272.2087   5   6   7.1375   5.6073   8.7404  -5.3685   5.1011  -6.1250   0.00    0.0
2019/01/15 09:30:01.000   4280224.8418  -4034418.8335  -2458272.8304   5   6   7.1371   5.6067   8.7380  -5.3680   5.0994  -6.1230   0.00    0.0
2019/01/15 09:30:02.000   4280224.8537  -4034418.6033  -2458273.0280   5   6   7.1367   5.6061   8.7355  -5.3674   5.0977  -6.1210   0.00    0.0
2019/01/15 09:30:03.000   4280224.9707  -4034418.3473  -2458273.1270   5   6   7.1363   5.6055   8.7331  -5.3668   5.0961  -6.1190   0.00    0.0
2019/01/15 09:30:04.000   4280225.0819  -4034418.1771  -2458272.8532   5   6   7.1359   5.6048   8.7307  -5.3663   5.0944  -6.1170   0.00    0.0
2019/01/15 09:30:05.000   4280225.4851  -4034418.5157  -2458272.9536   5   6   7.1355   5.6042   8.7283  -5.3657   5.0927  -6.1150   0.00    0.0
2019/01/15 09:30:06.000   4280225.9279  -4034418.8354  -2458273.0693   5   6   7.1351   5.6036   8.7258  -5.3652   5.0911  -6.1130   0.00    0.0
2019/01/15 09:30:07.000   4280226.0562  -4034418.9837  -2458272.8780   5   6   7.1347   5.6030   8.7234  -5.3646   5.0894  -6.1110   0.00    0.0
2019/01/15 09:30:08.000   4280226.1605  -4034418.9015  -2458272.9181   5   6   7.1343   5.6024   8.7210  -5.3640   5.0877  -6.1090   0.00    0.0
2019/01/15 09:30:09.000   4280226.1588  -4034418.6917  -2458273.0755   5   6   7.1339   5.6018   8.7186  -5.3635   5.0861  -6.1070   0.00    0.0
2019/01/15 09:30:10.000   4280225.9472  -4034418.5642  -2458273.0591   5   6   7.1335   5.6012   8.7161  -5.3629   5.0844  -6.1051   0.00    0.0
2019/01/15 09:30:11.000   4280226.0687  -4034418.6535  -2458273.2049   5   6   7.1331   5.6005   8.7137  -5.3624   5.0827  -6.1031   0.00    0.0
2019/01/15 09:30:12.000   4280226.4347  -4034418.9258  -2458273.0952   5   6   7.1327   5.5999   8.7113  -5.3618   5.0811  -6.1011   0.00    0.0
2019/01/15 09:30:13.000   4280226.7676  -4034419.1510  -2458273.0391   5   6   7.1324   5.5993   8.7089  -5.3612   5.0794  -6.0991   0.00    0.0
2019/01/15 09:30:14.000   4280226.8155  -4034419.3123  -2458272.7151   5   6   7.1320   5.5987   8.7065  -5.3607   5.0778  -6.0971   0.00    0.0
2019/01/15 09:30:15.000   4280226.9625  -4034419.7619  -2458272.7728   5   6   7.1316   5.5981   8.7040  -5.3601   5.0761  -6.0951   0.00    0.0
2019/01/15 09:30:16.000   4280227.1962  -4034420.2459  -2458272.9663   5   6   7.1312   5.5975   8.7016  -5.3596   5.0745  -6.0931   0.00    0.0
2019/01/15 09:30:17.000   4280227.3732  -4034420.5571  -2458272.9334   5   6   7.1308   5.5969   8.6992  -5.3590   5.0728  -6.0912   0.00    0.0
2019/01/15 09:30:18.000   4280227.3531  -4034420.4448  -2458272.5894   5   6   7.1304   5.5963   8.6968  -5.3585   5.0712  -6.0892   0.00    0.0
2019/01/15 09:30:19.000   4280227.0051  -4034420.0957  -2458271.9780   5   6   7.1301   5.5957   8.6944  -5.3579   5.0695  -6.0872   0.00    0.0
2019/01/15 09:30:20.000   4280226.9642  -4034419.7950  -2458271.5405   5   6   7.1297   5.5951   8.6919  -5.3574   5.0678  -6.0852   0.00    0.0
2019/01/15 09:30:21.000   4280226.9335  -4034419.5359  -2458271.4284   5   6   7.1293   5.5945   8.6895  -5.3568   5.0662  -6.0832   0.00    0.0
2019/01/15 09:30:22.000   4280226.3659  -4034419.0937  -2458270.9136   5   6   7.1289   5.5939   8.6871  -5.3563   5.0645  -6.0812   0.00    0.0
2019/01/15 09:30:23.000   4280225.8058  -4034418.9241  -2458270.5919   5   6   7.1285   5.5933   8.6847  -5.3557   5.0629  -6.0793   0.00    0.0
2019/01/15 09:30:24.000   4280225.6298  -4034418.9371  -2458270.5821   5   6   7.1282   5.5927   8.6823  -5.3552   5.0612  -6.0773   0.00    0.0
2019/01/15 09:30:25.000   4280225.6799  -4034419.0155  -2458270.5866   5   6   7.1278   5.5921   8.6799  -5.3547   5.0596  -6.0753   0.00    0.0
2019/01/15 09:30:26.000   4280225.6295  -4034419.0839  -2458270.2501   5   6   7.1274   5.5915   8.6775  -5.3541   5.0579  -6.0733   0.00    0.0
2019/01/15 09:30:27.000   4280225.2208  -4034418.8277  -2458269.7349   5   6   7.1271   5.5909   8.6750  -5.3536   5.0563  -6.0714   0.00    0.0
2019/01/15 09:30:28.000   4280224.9600  -4034418.6511  -2458269.3922   5   6   7.1267   5.5903   8.6726  -5.3530   5.0547  -6.0694   0.00    0.0
2019/01/15 09:30:29.000   4280224.6496  -4034418.2645  -2458269.0722   5   6   7.1263   5.5897   8.6702  -5.3525   5.0530  -6.0674   0.00    0.0
2019/01/15 09:30:30.000   4280224.2537  -4034417.9176  -2458268.8216   5   6   7.1259   5.5891   8.6678  -5.3520   5.0514  -6.0654   0.00    0.0
2019/01/15 09:30:31.000   4280224.1178  -4034417.6546  -2458268.7390   5   6   7.1256   5.5885   8.6654  -5.3514   5.0497  -6.0635   0.00    0.0
2019/01/15 09:30:32.000   4280224.1502  -4034417.3306  -2458268.7259   5   6   7.1252   5.5879   8.6630  -5.3509   5.0481  -6.0615   0.00    0.0
2019/01/15 09:30:33.000   4280223.8045  -4034417.1207  -2458268.3735   5   6   7.1248   5.5873   8.6606  -5.3503   5.0464  -6.0595   0.00    0.0
2019/01/15 09:30:34.000   4280223.8022  -4034417.1992  -2458268.4905   5   6   7.1245   5.5867   8.6582  -5.3498   5.0448  -6.0575   0.00    0.0
2019/01/15 09:30:35.000   4280223.7218  -4034417.0349  -2458268.6034   5   6   7.1241   5.5861   8.6558  -5.3493   5.0432  -6.0556   0.00    0.0
2019/01/15 09:30:36.000   4280223.8141  -4034416.9909  -2458268.8810   5   6   7.1237   5.5855   8.6534  -5.3487   5.0415  -6.0536   0.00    0.0
2019/01/15 09:30:37.000   4280224.3235  -4034417.3281  -2458269.1951   5   6   7.1234   5.5849   8.6510  -5.3482   5.0399  -6.0516   0.00    0.0
2019/01/15 09:30:38.000   4280224.6505  -4034417.5891  -2458269.2700   5   6   7.1230   5.5843   8.6485  -5.3477   5.0383  -6.0497   0.00    0.0
2019/01/15 09:30:39.000   4280224.8024  -4034417.7704  -2458269.1672   5   6   7.1227   5.5837   8.6461  -5.3472   5.0366  -6.0477   0.00    0.0
2019/01/15 09:30:40.000   4280224.7730  -4034417.6826  -2458268.9003   5   6   7.1223   5.5831   8.6437  -5.3466   5.0350  -6.0457   0.00    0.0
2019/01/15 09:30:41.000   4280223.9797  -4034417.3619  -2458268.3771   5   6   7.1219   5.5825   8.6413  -5.3461   5.0334  -6.0438   0.00    0.0
2019/01/15 09:30:42.000   4280223.0604  -4034416.9158  -2458267.6447   5   6   7.1216   5.5820   8.6389  -5.3456   5.0317  -6.0418   0.00    0.0
2019/01/15 09:30:43.000   4280222.8433  -4034416.6541  -2458267.2961   5   6   7.1212   5.5814   8.6365  -5.3450   5.0301  -6.0398   0.00    0.0
2019/01/15 09:30:44.000   4280223.1083  -4034416.5612  -2458267.3288   5   6   7.1209   5.5808   8.6341  -5.3445   5.0285  -6.0379   0.00    0.0
2019/01/15 09:30:45.000   4280223.0108  -4034416.5049  -2458267.2860   5   6   7.1205   5.5802   8.6317  -5.3440   5.0268  -6.0359   0.00    0.0
2019/01/15 09:30:46.000   4280222.8653  -4034416.4676  -2458267.6815   5   6   7.1202   5.5796   8.6293  -5.3435   5.0252  -6.0339   0.00    0.0
2019/01/15 09:30:47.000   4280222.6844  -4034416.3675  -2458268.3940   5   6   7.1198   5.5790   8.6269  -5.3429   5.0236  -6.0320   0.00    0.0
2019/01/15 09:30:48.000   4280222.6863  -4034416.3789  -2458269.1281   5   6   7.1195   5.5784   8.6245  -5.3424   5.0219  -6.0300   0.00    0.0
2019/01/15 09:30:49.000   4280222.8573  -4034416.5188  -2458269.5154   5   6   7.1191   5.5779   8.6221  -5.3419   5.0203  -6.0281   0.00    0.0
2019/01/15 09:30:50.000   4280223.2585  -4034416.7966  -2458269.8567   5   6   7.1188   5.5773   8.6197  -5.3414   5.0187  -6.0261   0.00    0.0
2019/01/15 09:30:51.000   4280223.1896  -4034417.0761  -2458269.5703   5   6   7.1184   5.5767   8.6173  -5.3409   5.0171  -6.0241   0.00    0.0
2019/01/15 09:30:52.000   4280223.2843  -4034417.1566  -2458269.5692   5   6   7.1181   5.5761   8.6149  -5.3404   5.0154  -6.0222   0.00    0.0
2019/01/15 09:30:53.000   4280223.2364  -4034417.1552  -2458269.6142   5   6   7.1177   5.5755   8.6125  -5.3398   5.0138  -6.0202   0.00    0.0
2019/01/15 09:30:54.000   4280222.9449  -4034417.0334  -2458269.6698   5   6   7.1174   5.5749   8.6101  -5.3393   5.0122  -6.0183   0.00    0.0
2019/01/15 09:30:55.000   4280222.3806  -4034416.8332  -2458269.6875   5   6   7.1170   5.5744   8.6077  -5.3388   5.0106  -6.0163   0.00    0.0
2019/01/15 09:30:56.000   4280222.2864  -4034416.9170  -2458269.8237   5   6   7.1167   5.5738   8.6053  -5.3383   5.0090  -6.0144   0.00    0.0
2019/01/15 09:30:57.000   4280222.1217  -4034416.8927  -2458269.7678   5   6   7.1164   5.5732   8.6030  -5.3378   5.0073  -6.0124   0.00    0.0
2019/01/15 09:30:58.000   4280222.0091  -4034417.0099  -2458269.4018   5   6   7.1160   5.5726   8.6006  -5.3373   5.0057  -6.0105   0.00    0.0
2019/01/15 09:30:59.000   4280222.1672  -4034417.2683  -2458269.0380   5   6   7.1157   5.5721   8.5982  -5.3368   5.0041  -6.0085   0.00    0.0
2019/01/15 09:31:00.000   4280222.6093  -4034417.7278  -2458269.1827   5   6   7.1153   5.5715   8.5958  -5.3362   5.0025  -6.0065   0.00    0.0
2019/01/15 09:31:01.000   4280222.4892  -4034417.8129  -2458269.1228   5   6   7.1150   5.5709   8.5934  -5.3357   5.0009  -6.0046   0.00    0.0
2019/01/15 09:31:02.000   4280222.2070  -4034417.6409  -2458268.9464   5   6   7.1147   5.5703   8.5910  -5.3352   4.9993  -6.0026   0.00    0.0
2019/01/15 09:31:03.000   4280221.8709  -4034417.2759  -2458268.5709   5   6   7.1143   5.5698   8.5886  -5.3347   4.9976  -6.0007   0.00    0.0
2019/01/15 09:31:04.000   4280221.8375  -4034417.3154  -2458268.3461   5   6   7.1140   5.5692   8.5862  -5.3342   4.9960  -5.9987   0.00    0.0
2019/01/15 09:31:05.000   4280222.1591  -4034417.5961  -2458267.9734   5   6   7.1137   5.5686   8.5838  -5.3337   4.9944  -5.9968   0.00    0.0
2019/01/15 09:31:06.000   4280222.7314  -4034418.0329  -2458268.2575   5   6   7.1133   5.5680   8.5814  -5.3332   4.9928  -5.9949   0.00    0.0
2019/01/15 09:31:07.000   4280223.2851  -4034418.4120  -2458268.7651   5   6   7.1130   5.5675   8.5790  -5.3327   4.9912  -5.9929   0.00    0.0
2019/01/15 09:31:08.000   4280223.4001  -4034418.3055  -2458268.9550   5   6   7.1127   5.5669   8.5767  -5.3322   4.9896  -5.9910   0.00    0.0
2019/01/15 09:31:09.000   4280223.2653  -4034418.1576  -2458268.4483   5   6   7.1124   5.5663   8.5743  -5.3317   4.9880  -5.9890   0.00    0.0
2019/01/15 09:31:10.000   4280223.1789  -4034418.0840  -2458268.0679   5   6   7.1120   5.5658   8.5719  -5.3312   4.9864  -5.9871   0.00    0.0
2019/01/15 09:31:11.000   4280223.0807  -4034418.2314  -2458267.7165   5   6   7.1117   5.5652   8.5695  -5.3307   4.9848  -5.9851   0.00    0.0
2019/01/15 09:31:12.000   4280223.0171  -4034418.1565  -2458267.4173   5   6   7.1114   5.5646   8.5671  -5.3302   4.9832  -5.9832   0.00    0.0
2019/01/15 09:31:13.000   4280223.3294  -4034418.2453  -2458267.5442   5   6   7.1110   5.5641   8.5647  -5.3297   4.9816  -5.9812   0.00    0.0
2019/01/15 09:31:14.000   4280223.3746  -4034418.2241  -2458267.5635   5   6   7.1107   5.5635   8.5623  -5.3292   4.9800  -5.9793   0.00    0.0
2019/01/15 09:31:15.000   4280223.5605  -4034418.3403  -2458267.6780   5   6   7.1104   5.5629   8.5600  -5.3287   4.9784  -5.9774   0.00    0.0
2019/01/15 09:31:16.000   4280223.6199  -4034418.3962  -2458267.7273   5   6   7.1101   5.5624   8.5576  -5.3282   4.9768  -5.9754   0.00    0.0
2019/01/15 09:31:17.000   4280223.7001  -4034418.5694  -2458267.3469   5   6   7.1098   5.5618   8.5552  -5.3277   4.9752  -5.9735   0.00    0.0
2019/01/15 09:31:18.000   4280223.8465  -4034418.9581  -2458267.1324   5   6   7.1094   5.5613   8.5528  -5.3272   4.9736  -5.9716   0.00    0.0
2019/01/15 09:31:19.000   4280224.4812  -4034419.5643  -2458267.3797   5   6   7.1091   5.5607   8.5504  -5.3267   4.9720  -5.9696   0.00    0.0
2019/01/15 09:31:20.000   4280224.6528  -4034419.7096  -2458267.2786   5   6   7.1088   5.5601   8.5481  -5.3262   4.9704  -5.9677   0.00    0.0
2019/01/15 09:31:21.000   4280224.7007  -4034419.6856  -2458267.3323   5   6   7.1085   5.5596   8.5457  -5.3258   4.9688  -5.9657   0.00    0.0
2019/01/15 09:31:22.000   4280225.0101  -4034419.7020  -2458267.1006   5   6   7.1082   5.5590   8.5433  -5.3253   4.9672  -5.9638   0.00    0.0
2019/01/15 09:31:23.000   4280225.1579  -4034419.8495  -2458266.6742   5   6   7.1079   5.5585   8.5409  -5.3248   4.9656  -5.9619   0.00    0.0
2019/01/15 09:31:24.000   4280225.3718  -4034419.9742  -2458266.5863   5   6   7.1075   5.5579   8.5385  -5.3243   4.9640  -5.9599   0.00    0.0
2019/01/15 09:31:25.000   4280225.4483  -4034419.9624  -2458266.7262   5   6   7.1072   5.5573   8.5362  -5.3238   4.9624  -5.9580   0.00    0.0
2019/01/15 09:31:26.000   4280225.7281  -4034419.9846  -2458267.3439   5   6   7.1069   5.5568   8.5338  -5.3233   4.9608  -5.9561   0.00    0.0
2019/01/15 09:31:27.000   4280225.7594  -4034419.8015  -2458267.7166   5   6   7.1066   5.5562   8.5314  -5.3228   4.9592  -5.9541   0.00    0.0
2019/01/15 09:31:28.000   4280225.7283  -4034419.7998  -2458267.9713   5   6   7.1063   5.5557   8.5290  -5.3224   4.9576  -5.9522   0.00    0.0
2019/01/15 09:31:29.000   4280225.4617  -4034419.8825  -2458268.0890   5   6   7.1060   5.5551   8.5267  -5.3219   4.9560  -5.9503   0.00    0.0
2019/01/15 09:31:30.000   4280225.0148  -4034419.7695  -2458268.1994   5   6   7.1057   5.5546   8.5243  -5.3214   4.9544  -5.9484   0.00    0.0
2019/01/15 09:31:31.000   4280224.7516  -4034419.6045  -2458268.2372   5   6   7.1054   5.5540   8.5219  -5.3209   4.9528  -5.9464   0.00    0.0
2019/01/15 09:31:32.000   4280224.5643  -4034419.7770  -2458268.2248   5   6   7.1051   5.5535   8.5196  -5.3204   4.9512  -5.9445   0.00    0.0
2019/01/15 09:31:33.000   4280224.7525  -4034420.2571  -2458268.5308   5   6   7.1048   5.5529   8.5172  -5.3200   4.9497  -5.9426   0.00    0.0
2019/01/15 09:31:34.000   4280225.1007  -4034420.6321  -2458268.8052   5   6   7.1045   5.5524   8.5148  -5.3195   4.9481  -5.9407   0.00    0.0
2019/01/15 09:31:35.000   4280225.2538  -4034420.8001  -2458268.8979   5   6   7.1042   5.5518   8.5124  -5.3190   4.9465  -5.9387   0.00    0.0
2019/01/15 09:31:36.000   4280225.5279  -4034421.0769  -2458269.3366   5   6   7.1039   5.5513   8.5101  -5.3185   4.9449  -5.9368   0.00    0.0
2019/01/15 09:31:37.000   4280225.4228  -4034420.9271  -2458269.4964   5   6   7.1036   5.5507   8.5077  -5.3181   4.9433  -5.9349   0.00    0.0
2019/01/15 09:31:38.000   4280225.2305  -4034420.8525  -2458269.5476   5   6   7.1033   5.5502   8.5053  -5.3176   4.9417  -5.9330   0.00    0.0
2019/01/15 09:31:39.000   4280224.9246  -4034420.6603  -2458269.4808   5   6   7.1030   5.5496   8.5030  -5.3171   4.9402  -5.9310   0.00    0.0
2019/01/15 09:31:40.000   4280224.3667  -4034420.1643  -2458269.0757   5   6   7.1027   5.5491   8.5006  -5.3166   4.9386  -5.9291   0.00    0.0
2019/01/15 09:31:41.000   4280224.0131  -4034419.9543  -2458268.4998   5   6   7.1024   5.5485   8.4982  -5.3162   4.9370  -5.9272   0.00    0.0
2019/01/15 09:31:42.000   4280224.3506  -4034420.3234  -2458268.6155   5   6   7.1021   5.5480   8.4959  -5.3157   4.9354  -5.9253   0.00    0.0
2019/01/15 09:31:43.000   4280224.1644  -4034420.3664  -2458268.6272   5   6   7.1018   5.5474   8.4935  -5.3152   4.9339  -5.9234   0.00    0.0
2019/01/15 09:31:44.000   4280223.8936  -4034420.2135  -2458268.7572   5   6   7.1015   5.5469   8.4911  -5.3148   4.9323  -5.9215   0.00    0.0
2019/01/15 09:31:45.000   4280223.9396  -4034420.1313  -2458268.8991   5   6   7.1012   5.5464   8.4888  -5.3143   4.9307  -5.9195   0.00    0.0
2019/01/15 09:31:46.000   4280223.7905  -4034419.8235  -2458269.1025   5   6   7.1009   5.5458   8.4864  -5.3138   4.9291  -5.9176   0.00    0.0
2019/01/15 09:31:47.000   4280223.9438  -4034419.6025  -2458269.4022   5   6   7.1006   5.5453   8.4841  -5.3134   4.9276  -5.9157   0.00    0.0
2019/01/15 09:31:48.000   4280223.9235  -4034419.6325  -2458269.3790   5   6   7.1003   5.5447   8.4817  -5.3129   4.9260  -5.9138   0.00    0.0
2019/01/15 09:31:49.000   4280223.9662  -4034419.6896  -2458269.3819   5   6   7.1001   5.5442   8.4793  -5.3124   4.9244  -5.9119   0.00    0.0
2019/01/15 09:31:50.000   4280224.0190  -4034419.7867  -2458269.3153   5   6   7.0998   5.5437   8.4770  -5.3120   4.9228  -5.9100   0.00    0.0
2019/01/15 09:31:51.000   4280223.4611  -4034419.4902  -2458268.7965   5   6   7.0995   5.5431   8.4746  -5.3115   4.9213  -5.9081   0.00    0.0
2019/01/15 09:31:52.000   4280223.1805  -4034419.1575  -2458268.6647   5   6   7.0992   5.5426   8.4723  -5.3111   4.9197  -5.9062   0.00    0.0
2019/01/15 09:31:53.000   4280223.0899  -4034418.9353  -2458268.6101   5   6   7.0989   5.5420   8.4699  -5.3106   4.9181  -5.9042   0.00    0.0
2019/01/15 09:31:54.000   4280223.1843  -4034418.8080  -2458268.9307   5   6   7.0986   5.5415   8.4675  -5.3101   4.9166  -5.9023   0.00    0.0
2019/01/15 09:31:55.000   4280223.0930  -4034418.8145  -2458269.1211   5   6   7.0984   5.5410   8.4652  -5.3097   4.9150  -5.9004   0.00    0.0
2019/01/15 09:31:56.000   4280222.6638  -4034418.8468  -2458268.6742   5   6   7.0981   5.5404   8.4628  -5.3092   4.9134  -5.8985   0.00    0.0
2019/01/15 09:31:57.000   4280222.7283  -4034419.0781  -2458268.4883   5   6   7.0978   5.5399   8.4605  -5.3088   4.9119  -5.8966   0.00    0.0
2019/01/15 09:31:58.000   4280222.8015  -4034419.2673  -2458268.3003   5   6   7.0975   5.5394   8.4581  -5.3083   4.9103  -5.8947   0.00    0.0
2019/01/15 09:31:59.000   4280223.0397  -4034419.5628  -2458268.4416   5   6   7.0972   5.5388   8.4558  -5.3079   4.9087  -5.8928   0.00    0.0
2019/01/15 09:32:00.000   4280222.7703  -4034419.2099  -2458268.2931   5   6   7.0970   5.5383   8.4534  -5.3074   4.9072  -5.8909   0.00    0.0
2019/01/15 09:32:01.000   4280222.5004  -4034418.7869  -2458268.3319   5   6   7.0967   5.5378   8.4511  -5.3070   4.9056  -5.8890   0.00    0.0
2019/01/15 09:32:02.000   4280222.3486  -4034418.6202  -2458268.3129   5   6   7.0964   5.5372   8.4487  -5.3065   4.9041  -5.8871   0.00    0.0
2019/01/15 09:32:03.000   4280222.4124  -4034418.7086  -2458268.2412   5   6   7.0962   5.5367   8.4464  -5.3061   4.9025  -5.8852   0.00    0.0
2019/01/15 09:32:04.000   4280222.2995  -4034418.6567  -2458268.1375   5   6   7.0959   5.5362   8.4440  -5.3056   4.9010  -5.8833   0.00    0.0
2019/01/15 09:32:05.000   4280222.0588  -4034418.5060  -2458267.8453   5   6   7.0956   5.5357   8.4417  -5.3052   4.8994  -5.8814   0.00    0.0
2019/01/15 09:32:06.000   4280221.5493  -4034418.1277  -2458268.1204   5   6   7.0953   5.5351   8.4393  -5.3047   4.8978  -5.8795   0.00    0.0
2019/01/15 09:32:07.000   4280221.6372  -4034418.2075  -2458268.5292   5   6   7.0951   5.5346   8.4370  -5.3043   4.8963  -5.8776   0.00    0.0
2019/01/15 09:32:08.000   4280221.9681  -4034418.3275  -2458268.6181   5   6   7.0948   5.5341   8.4346  -5.3038   4.8947  -5.8757   0.00    0.0
2019/01/15 09:32:09.000   4280222.2334  -4034418.5624  -2458268.7672   5   6   7.0945   5.5336   8.4323  -5.3034   4.8932  -5.8738   0.00    0.0
2019/01/15 09:32:10.000   4280222.1199  -4034418.5440  -2458268.9233   5   6   7.0943   5.5330   8.4299  -5.3029   4.8916  -5.8719   0.00    0.0
2019/01/15 09:32:11.000   4280222.3622  -4034418.8126  -2458269.3473   5   6   7.0940   5.5325   8.4276  -5.3025   4.8901  -5.8700   0.00    0.0
2019/01/15 09:32:12.000   4280222.4566  -4034418.9375  -2458269.3335   5   6   7.0937   5.5320   8.4252  -5.3021   4.8885  -5.8681   0.00    0.0
2019/01/15 09:32:13.000   4280222.7723  -4034419.1329  -2458269.4066   5   6   7.0935   5.5315   8.4229  -5.3016   4.8870  -5.8662   0.00    0.0
2019/01/15 09:32:14.000   4280223.1838  -4034419.4084  -2458269.5861   5   6   7.0932   5.5309   8.4205  -5.3012   4.8854  -5.8643   0.00    0.0
2019/01/15 09:32:15.000   4280223.3675  -4034419.5671  -2458269.1870   5   6   7.0930   5.5304   8.4182  -5.3007   4.8839  -5.8624   0.00    0.0
2019/01/15 09:32:16.000   4280223.0719  -4034419.4230  -2458268.4897   5   6   7.0927   5.5299   8.4159  -5.3003   4.8823  -5.8605   0.00    0.0
2019/01/15 09:32:17.000   4280222.6367  -4034419.1807  -2458267.9534   5   6   7.0924   5.5294   8.4135  -5.2999   4.8808  -5.8587   0.00    0.0
2019/01/15 09:32:18.000   4280222.3640  -4034418.9926  -2458267.4673   5   6   7.0922   5.5289   8.4112  -5.2994   4.8792  -5.8568   0.00    0.0
2019/01/15 09:32:19.000   4280221.9642  -4034418.8427  -2458267.2384   5   6   7.0919   5.5283   8.4088  -5.2990   4.8777  -5.8549   0.00    0.0
2019/01/15 09:32:20.000   4280222.1793  -4034419.2305  -2458267.4708   5   6   7.0917   5.5278   8.4065  -5.2986   4.8762  -5.8530   0.00    0.0
2019/01/15 09:32:21.000   4280222.8694  -4034420.0726  -2458267.6876   5   6   7.0914   5.5273   8.4042  -5.2981   4.8746  -5.8511   0.00    0.0
2019/01/15 09:32:22.000   4280223.5770  -4034420.5733  -2458267.9460   5   6   7.0912   5.5268   8.4018  -5.2977   4.8731  -5.8492   0.00    0.0
2019/01/15 09:32:23.000   4280223.8164  -4034420.5088  -2458267.7578   5   6   7.0909   5.5263   8.3995  -5.2973   4.8715  -5.8473   0.00    0.0
2019/01/15 09:32:24.000   4280224.0533  -4034420.2987  -2458267.6573   5   6   7.0907   5.5258   8.3972  -5.2968   4.8700  -5.8455   0.00    0.0
2019/01/15 09:32:25.000   4280224.3854  -4034420.3218  -2458267.9412   5   6   7.0904   5.5252   8.3948  -5.2964   4.8685  -5.8436   0.00    0.0
2019/01/15 09:32:26.000   4280224.0810  -4034420.2914  -2458267.8028   5   6   7.0902   5.5247   8.3925  -5.2960   4.8669  -5.8417   0.00    0.0
2019/01/15 09:32:27.000   4280223.4969  -4034420.0557  -2458267.4158   5   6   7.0899   5.5242   8.3902  -5.2955   4.8654  -5.8398   0.00    0.0
2019/01/15 09:32:28.000   4280223.2223  -4034420.1003  -2458267.0244   5   6   7.0897   5.5237   8.3878  -5.2951   4.8638  -5.8379   0.00    0.0
2019/01/15 09:32:29.000   4280223.3972  -4034420.2078  -2458266.7725   5   6   7.0894   5.5232   8.3855  -5.2947   4.8623  -5.8360   0.00    0.0
2019/01/15 09:32:30.000   4280223.5587  -4034420.3961  -2458266.9944   5   6   7.0892   5.5227   8.3832  -5.2943   4.8608  -5.8342   0.00    0.0
2019/01/15 09:32:31.000   4280223.6559  -4034420.5271  -2458267.1109   5   6   7.0889   5.5222   8.3808  -5.2938   4.8592  -5.8323   0.00    0.0
2019/01/15 09:32:32.000   4280223.6660  -4034420.6134  -2458267.5482   5   6   7.0887   5.5217   8.3785  -5.2934   4.8577  -5.8304   0.00    0.0
2019/01/15 09:32:33.000   4280223.4724  -4034420.5476  -2458267.6813   5   6   7.0885   5.5212   8.3762  -5.2930   4.8562  -5.8285   0.00    0.0
2019/01/15 09:32:34.000   4280223.0212  -4034420.3501  -2458267.4960   5   6   7.0882   5.5207   8.3738  -5.2926   4.8547  -5.8267   0.00    0.0
2019/01/15 09:32:35.000   4280222.9662  -4034420.2853  -2458267.6436   5   6   7.0880   5.5202   8.3715  -5.2922   4.8531  -5.8248   0.00    0.0
2019/01/15 09:32:36.000   4280223.2008  -4034420.1095  -2458268.1278   5   6   7.0877   5.5196   8.3692  -5.2917   4.8516  -5.8229   0.00    0.0
2019/01/15 09:32:37.000   4280223.0635  -4034419.8490  -2458268.1793   5   6   7.0875   5.5191   8.3669  -5.2913   4.8501  -5.8210   0.00    0.0
2019/01/15 09:32:38.000   4280222.6975  -4034419.6114  -2458268.2931   5   6   7.0873   5.5186   8.3645  -5.2909   4.8485  -5.8192   0.00    0.0
2019/01/15 09:32:39.000   4280222.3079  -4034419.3446  -2458268.0914   5   6   7.0870   5.5181   8.3622  -5.2905   4.8470  -5.8173   0.00    0.0
2019/01/15 09:32:40.000   4280222.0908  -4034418.9604  -2458268.0581   5   6   7.0868   5.5176   8.3599  -5.2901   4.8455  -5.8154   0.00    0.0
2019/01/15 09:32:41.000   4280221.7882  -4034418.6727  -2458267.8046   5   6   7.0866   5.5171   8.3576  -5.2897   4.8440  -5.8135   0.00    0.0
2019/01/15 09:32:42.000   4280221.8153  -4034418.5390  -2458267.9479   5   6   7.0863   5.5166   8.3552  -5.2893   4.8424  -5.8117   0.00    0.0
2019/01/15 09:32:43.000   4280221.8649  -4034418.4887  -2458268.3831   5   6   7.0861   5.5161   8.3529  -5.2888   4.8409  -5.8098   0.00    0.0
2019/01/15 09:32:44.000   4280222.4596  -4034418.9032  -2458268.9937   5   6   7.0859   5.5156   8.3506  -5.2884   4.8394  -5.8079   0.00    0.0
2019/01/15 09:32:45.000   4280223.2441  -4034419.5633  -2458269.8743   5   6   7.0856   5.5151   8.3483  -5.2880   4.8379  -5.8061   0.00    0.0
2019/01/15 09:32:46.000   4280223.5355  -4034419.9282  -2458270.3835   5   6   7.0854   5.5146   8.3459  -5.2876   4.8364  -5.8042   0.00    0.0
2019/01/15 09:32:47.000   4280223.6795  -4034419.9935  -2458270.9249   5   6   7.0852   5.5141   8.3436  -5.2872   4.8348  -5.8023   0.00    0.0
2019/01/15 09:32:48.000   4280223.6274  -4034419.7308  -2458271.5140   5   6   7.0850   5.5136   8.3413  -5.2868   4.8333  -5.8005   0.00    0.0
2019/01/15 09:32:49.000   4280223.4950  -4034419.6114  -2458271.9530   5   6   7.0847   5.5131   8.3390  -5.2864   4.8318  -5.7986   0.00    0.0
2019/01/15 09:32:50.000   4280223.2862  -4034419.4909  -2458271.9954   5   6   7.0845   5.5126   8.3367  -5.2860   4.8303  -5.7968   0.00    0.0
2019/01/15 09:32:51.000   4280223.5020  -4034419.4755  -2458272.2256   5   6   7.0843   5.5121   8.3343  -5.2856   4.8288  -5.7949   0.00    0.0
2019/01/15 09:32:52.000   4280223.8149  -4034419.5095  -2458272.5223   5   6   7.0841   5.5116   8.3320  -5.2852   4.8273  -5.7930   0.00    0.0
2019/01/15 09:32:53.000   4280224.2376  -4034419.6557  -2458272.9650   5   6   7.0838   5.5111   8.3297  -5.2848   4.8258  -5.7912   0.00    0.0
2019/01/15 09:32:54.000   4280223.6113  -4034419.2045  -2458272.9216   5   6   7.0836   5.5107   8.3274  -5.2844   4.8243  -5.7893   0.00    0.0
2019/01/15 09:32:55.000   4280223.2756  -4034418.9695  -2458273.2153   5   6   7.0834   5.5102   8.3251  -5.2840   4.8227  -5.7875   0.00    0.0
2019/01/15 09:32:56.000   4280223.1216  -4034418.7959  -2458273.9643   5   6   7.0832   5.5097   8.3228  -5.2836   4.8212  -5.7856   0.00    0.0
2019/01/15 09:32:57.000   4280223.3519  -4034418.7818  -2458274.7107   5   6   7.0830   5.5092   8.3205  -5.2832   4.8197  -5.7837   0.00    0.0
2019/01/15 09:32:58.000   4280222.8822  -4034418.6370  -2458274.7952   5   6   7.0828   5.5087   8.3182  -5.2828   4.8182  -5.7819   0.00    0.0
2019/01/15 09:32:59.000   4280222.3537  -4034418.4209  -2458274.7037   5   6   7.0825   5.5082   8.3158  -5.2824   4.8167  -5.7800   0.00    0.0
2019/01/15 09:33:00.000   4280221.9576  -4034418.2369  -2458274.3873   5   6   7.0823   5.5077   8.3135  -5.2820   4.8152  -5.7782   0.00    0.0
2019/01/15 09:33:01.000   4280221.8581  -4034418.2200  -2458274.6177   5   6   7.0821   5.5072   8.3112  -5.2816   4.8137  -5.7763   0.00    0.0
2019/01/15 09:33:02.000   4280222.1419  -4034418.3931  -2458274.9588   5   6   7.0819   5.5067   8.3089  -5.2812   4.8122  -5.7745   0.00    0.0
2019/01/15 09:33:03.000   4280222.9451  -4034418.5333  -2458275.4786   5   6   7.0817   5.5062   8.3066  -5.2808   4.8107  -5.7726   0.00    0.0
2019/01/15 09:33:04.000   4280223.6634  -4034418.6850  -2458275.9662   5   6   7.0815   5.5058   8.3043  -5.2804   4.8092  -5.7708   0.00    0.0
2019/01/15 09:33:05.000   4280223.6220  -4034418.4346  -2458275.8680   5   6   7.0813   5.5053   8.3020  -5.2800   4.8077  -5.7689   0.00    0.0
2019/01/15 09:33:06.000   4280223.0413  -4034417.9591  -2458275.3991   5   6   7.0811   5.5048   8.2997  -5.2796   4.8062  -5.7671   0.00    0.0
2019/01/15 09:33:07.000   4280222.4620  -4034417.5750  -2458275.2600   5   6   7.0809   5.5043   8.2974  -5.2792   4.8047  -5.7652   0.00    0.0
2019/01/15 09:33:08.000   4280221.8131  -4034417.2650  -2458274.9046   5   6   7.0807   5.5038   8.2951  -5.2788   4.8032  -5.7634   0.00    0.0
2019/01/15 09:33:09.000   4280221.4178  -4034417.2198  -2458274.4902   5   6   7.0804   5.5033   8.2928  -5.2784   4.8017  -5.7615   0.00    0.0
2019/01/15 09:33:10.000   4280221.4722  -4034417.3264  -2458274.4012   5   6   7.0802   5.5029   8.2905  -5.2781   4.8002  -5.7597   0.00    0.0
2019/01/15 09:33:11.000   4280221.5395  -4034417.3457  -2458274.4572   5   6   7.0800   5.5024   8.2882  -5.2777   4.7987  -5.7578   0.00    0.0
2019/01/15 09:33:12.000   4280221.4312  -4034417.1276  -2458274.2551   5   6   7.0798   5.5019   8.2859  -5.2773   4.7972  -5.7560   0.00    0.0
2019/01/15 09:33:13.000   4280221.0365  -4034416.7715  -2458273.8186   5   6   7.0796   5.5014   8.2836  -5.2769   4.7957  -5.7542   0.00    0.0
2019/01/15 09:33:14.000   4280220.8552  -4034416.4579  -2458273.7394   5   6   7.0794   5.5009   8.2813  -5.2765   4.7942  -5.7523   0.00    0.0
2019/01/15 09:33:15.000   4280221.1781  -4034416.6130  -2458274.0865   5   6   7.0792   5.5005   8.2790  -5.2761   4.7927  -5.7505   0.00    0.0
2019/01/15 09:33:16.000   4280221.3321  -4034416.5745  -2458274.6345   5   6   7.0790   5.5000   8.2767  -5.2758   4.7912  -5.7486   0.00    0.0
2019/01/15 09:33:17.000   4280221.3928  -4034416.6654  -2458275.5668   5   6   7.0788   5.4995   8.2744  -5.2754   4.7897  -5.7468   0.00    0.0
2019/01/15 09:33:18.000   4280221.5662  -4034416.9523  -2458276.4668   5   6   7.0787   5.4990   8.2721  -5.2750   4.7883  -5.7449   0.00    0.0
2019/01/15 09:33:19.000   4280222.0736  -4034417.5027  -2458277.1731   5   6   7.0785   5.4985   8.2698  -5.2746   4.7868  -5.7431   0.00    0.0
2019/01/15 09:33:20.000   4280222.4309  -4034417.8836  -2458277.3449   5   6   7.0783   5.4981   8.2675  -5.2742   4.7853  -5.7413   0.00    0.0
2019/01/15 09:33:21.000   4280222.3435  -4034417.9424  -2458276.8493   5   6   7.0781   5.4976   8.2652  -5.2739   4.7838  -5.7394   0.00    0.0
2019/01/15 09:33:22.000   4280222.5982  -4034418.1622  -2458276.6736   5   6   7.0779   5.4971   8.2629  -5.2735   4.7823  -5.7376   0.00    0.0
2019/01/15 09:33:23.000   4280222.9850  -4034418.5061  -2458276.7706   5   6   7.0777   5.4966   8.2606  -5.2731   4.7808  -5.7358   0.00    0.0
2019/01/15 09:33:24.000   4280223.0680  -4034418.5769  -2458276.6843   5   6   7.0775   5.4962   8.2583  -5.2727   4.7793  -5.7339   0.00    0.0
2019/01/15 09:33:25.000   4280223.2356  -4034418.7725  -2458276.6260   5   6   7.0773   5.4957   8.2560  -5.2724   4.7779  -5.7321   0.00    0.0
2019/01/15 09:33:26.000   4280222.9685  -4034418.5651  -2458276.4194   5   6   7.0771   5.4952   8.2537  -5.2720   4.7764  -5.7303   0.00    0.0
2019/01/15 09:33:27.000   4280222.6406  -4034418.3685  -2458275.7734   5   6   7.0769   5.4948   8.2514  -5.2716   4.7749  -5.7284   0.00    0.0
2019/01/15 09:33:28.000   4280223.0726  -4034418.5952  -2458275.7291   5   6   7.0768   5.4943   8.2491  -5.2713   4.7734  -5.7266   0.00    0.0
2019/01/15 09:33:29.000   4280223.5498  -4034418.8661  -2458275.8411   5   6   7.0766   5.4938   8.2469  -5.2709   4.7719  -5.7248   0.00    0.0
2019/01/15 09:33:30.000   4280224.1884  -4034419.3134  -2458275.8840   5   6   7.0764   5.4934   8.2446  -5.2705   4.7705  -5.7229   0.00    0.0
2019/01/15 09:33:31.000   4280224.4165  -4034419.4455  -2458275.6049   5   6   7.0762   5.4929   8.2423  -5.2701   4.7690  -5.7211   0.00    0.0
2019/01/15 09:33:32.000   4280224.3317  -4034419.4225  -2458275.3738   5   6   7.0760   5.4924   8.2400  -5.2698   4.7675  -5.7193   0.00    0.0
2019/01/15 09:33:33.000   4280223.9178  -4034419.2569  -2458274.9523   5   6   7.0758   5.4920   8.2377  -5.2694   4.7660  -5.7175   0.00    0.0
2019/01/15 09:33:34.000   4280224.1751  -4034419.4848  -2458274.9631   5   6   7.0757   5.4915   8.2354  -5.2690   4.7646  -5.7156   0.00    0.0
2019/01/15 09:33:35.000   4280224.5703  -4034419.7900  -2458274.7639   5   6   7.0755   5.4910   8.2331  -5.2687   4.7631  -5.7138   0.00    0.0
2019/01/15 09:33:36.000   4280224.1495  -4034419.7686  -2458274.1078   5   6   7.0753   5.4906   8.2309  -5.2683   4.7616  -5.7120   0.00    0.0
2019/01/15 09:33:37.000   4280223.8503  -4034419.9068  -2458273.3841   5   6   7.0751   5.4901   8.2286  -5.2680   4.7601  -5.7102   0.00    0.0
2019/01/15 09:33:38.000   4280223.3452  -4034419.9902  -2458273.0245   5   6   7.0750   5.4896   8.2263  -5.2676   4.7587  -5.7083   0.00    0.0
2019/01/15 09:33:39.000   4280223.1047  -4034419.9655  -2458272.9188   5   6   7.0748   5.4892   8.2240  -5.2672   4.7572  -5.7065   0.00    0.0
2019/01/15 09:33:40.000   4280222.5760  -4034419.8088  -2458272.5228   5   6   7.0746   5.4887   8.2217  -5.2669   4.7557  -5.7047   0.00    0.0
2019/01/15 09:33:41.000   4280222.2450  -4034419.7429  -2458271.6996   5   6   7.0744   5.4882   8.2195  -5.2665   4.7543  -5.7029   0.00    0.0
2019/01/15 09:33:42.000   4280222.1150  -4034419.9949  -2458270.7447   5   6   7.0743   5.4878   8.2172  -5.2662   4.7528  -5.7011   0.00    0.0
2019/01/15 09:33:43.000   4280221.9545  -4034420.4776  -2458269.8851   5   6   7.0741   5.4873   8.2149  -5.2658   4.7513  -5.6993   0.00    0.0
2019/01/15 09:33:44.000   4280222.2252  -4034420.9724  -2458269.7370   5   6   7.0739   5.4869   8.2126  -5.2654   4.7499  -5.6974   0.00    0.0
2019/01/15 09:33:45.000   4280222.4393  -4034421.2784  -2458269.9595   5   6   7.0738   5.4864   8.2103  -5.2651   4.7484  -5.6956   0.00    0.0
2019/01/15 09:33:46.000   4280221.8555  -4034420.8994  -2458270.0876   5   6   7.0736   5.4859   8.2081  -5.2647   4.7469  -5.6938   0.00    0.0
2019/01/15 09:33:47.000   4280221.3369  -4034420.4227  -2458270.3777   5   6   7.0734   5.4855   8.2058  -5.2644   4.7455  -5.6920   0.00    0.0
2019/01/15 09:33:48.000   4280221.2753  -4034420.2566  -2458270.6994   5   6   7.0733   5.4850   8.2035  -5.2640   4.7440  -5.6902   0.00    0.0
2019/01/15 09:33:49.000   4280221.4034  -4034420.2847  -2458270.9190   5   6   7.0731   5.4846   8.2012  -5.2637   4.7426  -5.6884   0.00    0.0
2019/01/15 09:33:50.000   4280221.6825  -4034420.3433  -2458270.9036   5   6   7.0729   5.4841   8.1990  -5.2633   4.7411  -5.6866   0.00    0.0
