% program   : RTKPOST ver.2.4.2
% inp file  : D:\Google Drive\UERJ\_Projeto Final\Python\tcc-guilherme\filteredRinex_Debug.19o
% inp file  : D:\Google Drive\UERJ\_Projeto Final\20190115_Marco 91500 IBGE\brdm0150.19p
% obs start : 2019/01/15 09:25:30.0 GPST (week2036 206730.0s)
% obs end   : 2019/01/15 10:25:30.0 GPST (week2036 210330.0s)
% pos mode  : single
% elev mask : 15.0 deg
% ionos opt : broadcast
% tropo opt : saastamoinen
% ephemeris : broadcast
% navi sys  : gps glonass galileo
%
% (x/y/z-ecef=WGS84,Q=1:fix,2:float,3:sbas,4:dgps,5:single,6:ppp,ns=# of satellites)
%  GPST                      x-ecef(m)      y-ecef(m)      z-ecef(m)   Q  ns   sdx(m)   sdy(m)   sdz(m)  sdxy(m)  sdyz(m)  sdzx(m) age(s)  ratio
2019/01/15 09:25:30.000   4280292.5939  -4034429.9929  -2458140.2658   5  16   3.6218   3.3150   2.4531  -2.9006   1.8024  -2.0625   0.00    0.0
2019/01/15 09:25:45.000   4280291.9066  -4034429.1922  -2458139.8077   5  16   3.6246   3.3148   2.4527  -2.9026   1.8010  -2.0606   0.00    0.0
2019/01/15 09:26:00.000   4280292.5051  -4034429.2209  -2458140.7173   5  16   3.6275   3.3147   2.4523  -2.9047   1.7995  -2.0587   0.00    0.0
2019/01/15 09:26:15.000   4280293.1515  -4034430.2935  -2458141.2563   5  15   3.7657   3.5806   3.1351  -3.1311   2.4246  -2.4870   0.00    0.0
2019/01/15 09:26:30.000   4280292.4893  -4034429.8600  -2458140.9196   5  15   3.7651   3.5768   3.1293  -3.1288   2.4172  -2.4786   0.00    0.0
2019/01/15 09:26:45.000   4280292.3305  -4034429.5796  -2458141.1112   5  16   3.6361   3.3145   2.4510  -2.9109   1.7952  -2.0530   0.00    0.0
2019/01/15 09:27:00.000   4280292.8037  -4034430.0490  -2458142.0704   5  15   3.7640   3.5695   3.1177  -3.1241   2.4023  -2.4619   0.00    0.0
2019/01/15 09:27:15.000   4280292.0977  -4034429.3080  -2458141.2583   5  16   3.6419   3.3145   2.4501  -2.9151   1.7923  -2.0490   0.00    0.0
2019/01/15 09:27:30.000   4280292.0153  -4034429.0983  -2458141.2128   5  15   3.7632   3.5624   3.1063  -3.1198   2.3876  -2.4453   0.00    0.0
2019/01/15 09:27:45.000   4280291.9179  -4034429.4923  -2458141.0089   5  16   3.6476   3.3146   2.4492  -2.9194   1.7895  -2.0451   0.00    0.0
2019/01/15 09:28:00.000   4280292.3879  -4034429.8170  -2458141.1128   5  16   3.6506   3.3147   2.4487  -2.9216   1.7880  -2.0431   0.00    0.0
2019/01/15 09:28:15.000   4280291.8389  -4034429.4538  -2458140.5701   5  16   3.6535   3.3148   2.4482  -2.9237   1.7866  -2.0410   0.00    0.0
2019/01/15 09:28:30.000   4280292.5726  -4034430.3903  -2458140.4703   5  16   3.6564   3.3150   2.4477  -2.9259   1.7852  -2.0390   0.00    0.0
2019/01/15 09:28:45.000   4280292.4509  -4034429.8397  -2458140.4663   5  16   3.6593   3.3151   2.4471  -2.9281   1.7838  -2.0370   0.00    0.0
2019/01/15 09:29:00.000   4280292.6312  -4034430.6457  -2458140.8784   5  15   3.7620   3.5424   3.0725  -3.1081   2.3444  -2.3958   0.00    0.0
2019/01/15 09:29:15.000   4280292.6315  -4034430.1977  -2458140.7033   5  15   3.7620   3.5393   3.0669  -3.1064   2.3373  -2.3876   0.00    0.0
2019/01/15 09:29:30.000   4280292.5081  -4034429.5109  -2458140.4651   5  16   3.6682   3.3158   2.4455  -2.9348   1.7796  -2.0307   0.00    0.0
2019/01/15 09:29:45.000   4280292.4618  -4034429.9318  -2458140.9506   5  16   3.6711   3.3161   2.4449  -2.9371   1.7782  -2.0286   0.00    0.0
2019/01/15 09:30:00.000   4280292.9324  -4034430.2939  -2458140.9593   5  16   3.6741   3.3164   2.4444  -2.9394   1.7768  -2.0265   0.00    0.0
2019/01/15 09:30:15.000   4280292.2741  -4034429.6682  -2458140.7772   5  16   3.6771   3.3167   2.4438  -2.9416   1.7754  -2.0244   0.00    0.0
2019/01/15 09:30:30.000   4280292.0939  -4034429.9276  -2458140.9456   5  16   3.6801   3.3170   2.4432  -2.9439   1.7740  -2.0223   0.00    0.0
2019/01/15 09:30:45.000   4280292.3144  -4034429.8488  -2458140.7244   5  16   3.6831   3.3174   2.4426  -2.9463   1.7726  -2.0201   0.00    0.0
2019/01/15 09:31:00.000   4280292.8051  -4034430.2210  -2458141.0054   5  16   3.6861   3.3178   2.4420  -2.9486   1.7713  -2.0180   0.00    0.0
2019/01/15 09:31:15.000   4280293.1945  -4034430.5310  -2458141.0633   5  16   3.6891   3.3182   2.4414  -2.9509   1.7699  -2.0158   0.00    0.0
2019/01/15 09:31:30.000   4280293.1090  -4034430.6439  -2458141.6207   5  15   3.6931   3.3281   3.0676  -2.9569   1.8952  -2.0522   0.00    0.0
2019/01/15 09:31:45.000   4280292.7689  -4034430.0933  -2458140.8299   5  16   3.6951   3.3191   2.4401  -2.9557   1.7672  -2.0114   0.00    0.0
2019/01/15 09:32:00.000   4280292.5276  -4034429.9845  -2458141.3187   5  15   3.6991   3.3293   3.0676  -2.9617   1.8943  -2.0481   0.00    0.0
2019/01/15 09:32:15.000   4280292.6137  -4034430.0624  -2458140.8564   5  15   3.7022   3.3299   3.0676  -2.9641   1.8939  -2.0460   0.00    0.0
2019/01/15 09:32:30.000   4280292.7967  -4034430.0262  -2458140.8040   5  15   3.7052   3.3306   3.0675  -2.9665   1.8935  -2.0439   0.00    0.0
2019/01/15 09:32:45.000   4280291.8250  -4034429.2962  -2458140.4833   5  16   3.7073   3.3213   2.4375  -2.9653   1.7618  -2.0025   0.00    0.0
2019/01/15 09:33:00.000   4280292.7141  -4034430.3736  -2458140.6711   5  16   3.7104   3.3219   2.4368  -2.9677   1.7605  -2.0003   0.00    0.0
2019/01/15 09:33:15.000   4280292.2542  -4034429.9934  -2458140.6161   5  16   3.7135   3.3225   2.4361  -2.9702   1.7591  -1.9980   0.00    0.0
2019/01/15 09:33:30.000   4280292.8235  -4034430.8603  -2458141.0643   5  16   3.7165   3.3231   2.4354  -2.9726   1.7578  -1.9957   0.00    0.0
2019/01/15 09:33:45.000   4280292.8389  -4034430.9345  -2458141.0406   5  16   3.7196   3.3238   2.4347  -2.9751   1.7565  -1.9935   0.00    0.0
2019/01/15 09:34:00.000   4280293.2870  -4034430.8793  -2458141.6245   5  16   3.7227   3.3245   2.4340  -2.9776   1.7552  -1.9912   0.00    0.0
2019/01/15 09:34:15.000   4280293.9311  -4034431.5414  -2458141.1871   5  16   3.7258   3.3252   2.4333  -2.9801   1.7539  -1.9889   0.00    0.0
2019/01/15 09:34:30.000   4280293.6643  -4034431.1897  -2458141.2151   5  16   3.7289   3.3259   2.4325  -2.9826   1.7526  -1.9865   0.00    0.0
2019/01/15 09:34:45.000   4280292.7314  -4034430.4297  -2458140.8334   5  16   3.7320   3.3267   2.4318  -2.9852   1.7513  -1.9842   0.00    0.0
2019/01/15 09:35:00.000   4280292.1423  -4034430.0739  -2458141.4312   5  16   3.7352   3.3275   2.4311  -2.9877   1.7500  -1.9819   0.00    0.0
2019/01/15 09:35:15.000   4280292.2585  -4034430.1327  -2458140.9936   5  17   3.0358   3.0654   2.4256  -2.4725   1.6918  -1.8944   0.00    0.0
2019/01/15 09:35:30.000   4280292.5895  -4034429.8594  -2458140.6592   5  17   3.0388   3.0661   2.4251  -2.4752   1.6919  -1.8941   0.00    0.0
2019/01/15 09:35:45.000   4280292.4923  -4034430.1856  -2458139.8913   5  17   3.0417   3.0669   2.4246  -2.4778   1.6920  -1.8937   0.00    0.0
2019/01/15 09:36:00.000   4280292.5567  -4034429.9160  -2458139.8075   5  17   3.0446   3.0678   2.4240  -2.4805   1.6921  -1.8933   0.00    0.0
2019/01/15 09:36:15.000   4280292.3782  -4034429.6505  -2458139.9243   5  17   3.0476   3.0686   2.4234  -2.4832   1.6922  -1.8930   0.00    0.0
2019/01/15 09:36:30.000   4280292.3537  -4034429.8396  -2458140.0364   5  17   3.0506   3.0695   2.4229  -2.4859   1.6923  -1.8926   0.00    0.0
2019/01/15 09:36:45.000   4280292.6506  -4034429.7912  -2458140.0614   5  16   3.0857   3.1095   3.0556  -2.5321   1.9444  -2.0996   0.00    0.0
2019/01/15 09:37:00.000   4280292.6957  -4034429.5272  -2458140.8769   5  16   3.0889   3.1108   3.0547  -2.5351   1.9455  -2.0997   0.00    0.0
2019/01/15 09:37:15.000   4280292.7370  -4034429.6533  -2458140.8297   5  16   3.0921   3.1121   3.0537  -2.5381   1.9466  -2.0999   0.00    0.0
2019/01/15 09:37:30.000   4280292.9434  -4034429.8807  -2458141.4564   5  16   3.0952   3.1135   3.0527  -2.5412   1.9477  -2.1000   0.00    0.0
2019/01/15 09:37:45.000   4280292.9916  -4034429.7299  -2458141.8047   5  16   3.0984   3.1148   3.0517  -2.5443   1.9488  -2.1001   0.00    0.0
2019/01/15 09:38:00.000   4280292.4811  -4034429.7044  -2458141.8377   5  15   3.7742   3.3513   3.0572  -3.0233   1.8851  -1.9943   0.00    0.0
2019/01/15 09:38:15.000   4280293.0735  -4034430.2421  -2458142.7991   5  16   3.1048   3.1176   3.0495  -2.5504   1.9510  -2.1004   0.00    0.0
2019/01/15 09:38:30.000   4280293.2197  -4034429.9114  -2458142.2007   5  16   3.1080   3.1190   3.0483  -2.5535   1.9522  -2.1004   0.00    0.0
2019/01/15 09:38:45.000   4280293.0660  -4034430.2020  -2458141.9896   5  16   3.1113   3.1205   3.0471  -2.5567   1.9533  -2.1005   0.00    0.0
2019/01/15 09:39:00.000   4280292.6289  -4034429.8708  -2458141.2719   5  16   3.1145   3.1220   3.0459  -2.5598   1.9544  -2.1006   0.00    0.0
2019/01/15 09:39:15.000   4280292.5481  -4034430.1590  -2458140.9281   5  16   3.1178   3.1235   3.0446  -2.5630   1.9555  -2.1006   0.00    0.0
2019/01/15 09:39:30.000   4280292.0428  -4034429.9353  -2458140.5174   5  16   3.1210   3.1251   3.0434  -2.5661   1.9566  -2.1007   0.00    0.0
2019/01/15 09:39:45.000   4280292.2748  -4034429.8621  -2458139.9646   5  16   3.1243   3.1266   3.0420  -2.5693   1.9577  -2.1007   0.00    0.0
2019/01/15 09:40:00.000   4280292.5021  -4034429.5788  -2458139.8106   5  16   3.1276   3.1282   3.0407  -2.5725   1.9588  -2.1008   0.00    0.0
2019/01/15 09:40:15.000   4280292.8888  -4034430.0914  -2458140.1892   5  15   3.8033   3.3630   3.0489  -3.0481   1.8825  -1.9726   0.00    0.0
2019/01/15 09:40:30.000   4280292.6020  -4034430.1081  -2458140.1230   5  15   3.8066   3.3644   3.0479  -3.0509   1.8823  -1.9702   0.00    0.0
2019/01/15 09:40:45.000   4280292.5413  -4034429.8655  -2458140.4565   5  15   3.8098   3.3658   3.0468  -3.0537   1.8820  -1.9677   0.00    0.0
2019/01/15 09:41:00.000   4280292.4288  -4034429.5295  -2458140.6398   5  15   3.8131   3.3673   3.0457  -3.0566   1.8818  -1.9653   0.00    0.0
2019/01/15 09:41:15.000   4280292.5805  -4034429.8052  -2458140.8642   5  15   3.8164   3.3687   3.0445  -3.0594   1.8816  -1.9628   0.00    0.0
2019/01/15 09:41:30.000   4280292.7683  -4034430.4731  -2458141.6539   5  15   3.8196   3.3702   3.0434  -3.0622   1.8814  -1.9603   0.00    0.0
2019/01/15 09:41:45.000   4280291.6763  -4034429.8650  -2458141.8349   5  15   3.8229   3.3717   3.0422  -3.0651   1.8812  -1.9579   0.00    0.0
2019/01/15 09:42:00.000   4280292.4470  -4034429.7386  -2458142.1511   5  16   3.1542   3.1420   3.0288  -2.5987   1.9677  -2.1006   0.00    0.0
2019/01/15 09:42:15.000   4280292.5468  -4034430.0149  -2458142.3563   5  15   3.8295   3.3748   3.0398  -3.0708   1.8808  -1.9529   0.00    0.0
2019/01/15 09:42:30.000   4280291.9662  -4034429.6121  -2458141.8994   5  16   3.1610   3.1456   3.0255  -2.6055   1.9700  -2.1005   0.00    0.0
2019/01/15 09:42:45.000   4280291.8554  -4034429.2888  -2458141.4725   5  16   3.1644   3.1475   3.0239  -2.6088   1.9711  -2.1004   0.00    0.0
2019/01/15 09:43:00.000   4280292.3064  -4034429.9552  -2458140.9982   5  15   3.8394   3.3796   3.0359  -3.0795   1.8803  -1.9455   0.00    0.0
2019/01/15 09:43:15.000   4280292.0768  -4034429.7365  -2458140.8176   5  15   3.8427   3.3813   3.0346  -3.0824   1.8801  -1.9430   0.00    0.0
2019/01/15 09:43:30.000   4280292.0600  -4034429.6882  -2458141.1495   5  16   3.1746   3.1534   3.0187  -2.6191   1.9744  -2.1001   0.00    0.0
2019/01/15 09:43:45.000   4280293.1119  -4034431.0146  -2458141.2851   5  15   3.8493   3.3846   3.0319  -3.0882   1.8799  -1.9380   0.00    0.0
2019/01/15 09:44:00.000   4280293.4554  -4034430.9900  -2458141.5422   5  15   3.8526   3.3863   3.0305  -3.0911   1.8798  -1.9355   0.00    0.0
2019/01/15 09:44:15.000   4280292.7005  -4034430.2980  -2458141.2294   5  15   3.8559   3.3880   3.0291  -3.0940   1.8796  -1.9330   0.00    0.0
2019/01/15 09:44:30.000   4280292.1262  -4034429.7423  -2458141.3670   5  15   3.8592   3.3897   3.0277  -3.0970   1.8795  -1.9305   0.00    0.0
2019/01/15 09:44:45.000   4280292.7670  -4034430.0216  -2458141.3695   5  16   3.1920   3.1636   3.0096  -2.6365   1.9800  -2.0995   0.00    0.0
2019/01/15 09:45:00.000   4280292.2307  -4034429.2856  -2458140.6608   5  16   3.1955   3.1657   3.0077  -2.6400   1.9812  -2.0993   0.00    0.0
2019/01/15 09:45:15.000   4280292.1884  -4034429.2214  -2458140.8939   5  15   3.8692   3.3951   3.0233  -3.1058   1.8793  -1.9230   0.00    0.0
2019/01/15 09:45:30.000   4280291.5661  -4034429.2691  -2458141.0285   5  15   3.8725   3.3969   3.0218  -3.1088   1.8793  -1.9205   0.00    0.0
2019/01/15 09:45:45.000   4280291.8204  -4034429.0095  -2458141.3871   5  15   3.8758   3.3987   3.0203  -3.1118   1.8792  -1.9180   0.00    0.0
2019/01/15 09:46:00.000   4280291.8574  -4034429.0500  -2458140.7793   5  15   3.8792   3.4006   3.0188  -3.1147   1.8792  -1.9155   0.00    0.0
2019/01/15 09:46:15.000   4280292.4605  -4034429.4345  -2458141.2587   5  15   3.8825   3.4024   3.0172  -3.1177   1.8791  -1.9130   0.00    0.0
2019/01/15 09:46:30.000   4280292.6232  -4034430.6213  -2458141.7152   5  15   3.8858   3.4043   3.0156  -3.1207   1.8791  -1.9105   0.00    0.0
2019/01/15 09:46:45.000   4280292.5343  -4034430.8120  -2458141.3885   5  15   3.8892   3.4062   3.0140  -3.1237   1.8791  -1.9080   0.00    0.0
2019/01/15 09:47:00.000   4280292.7534  -4034430.6213  -2458140.8753   5  16   3.2239   3.1836   2.9917  -2.6687   1.9902  -2.0980   0.00    0.0
2019/01/15 09:47:15.000   4280292.2583  -4034429.5935  -2458141.1332   5  16   3.2275   3.1859   2.9896  -2.6724   1.9913  -2.0978   0.00    0.0
2019/01/15 09:47:30.000   4280292.2323  -4034429.7679  -2458140.7003   5  16   3.2311   3.1883   2.9874  -2.6761   1.9925  -2.0976   0.00    0.0
2019/01/15 09:47:45.000   4280292.7658  -4034430.3346  -2458141.1739   5  16   3.2347   3.1907   2.9853  -2.6798   1.9936  -2.0973   0.00    0.0
2019/01/15 09:48:00.000   4280292.6895  -4034430.3919  -2458140.8080   5  16   3.2383   3.1931   2.9832  -2.6835   1.9947  -2.0971   0.00    0.0
2019/01/15 09:48:15.000   4280293.0976  -4034430.6713  -2458141.4438   5  16   3.2420   3.1956   2.9810  -2.6872   1.9959  -2.0969   0.00    0.0
2019/01/15 09:48:30.000   4280293.2978  -4034430.2942  -2458140.8969   5  16   3.2456   3.1981   2.9788  -2.6910   1.9970  -2.0967   0.00    0.0
2019/01/15 09:48:45.000   4280293.4726  -4034430.3160  -2458141.1579   5  15   3.3281   3.3325   2.9780  -2.8160   1.9767  -2.0806   0.00    0.0
2019/01/15 09:49:00.000   4280293.2245  -4034429.8283  -2458140.7534   5  15   3.3330   3.3360   2.9757  -2.8211   1.9783  -2.0807   0.00    0.0
2019/01/15 09:49:15.000   4280293.0512  -4034428.9695  -2458140.2790   5  15   3.3379   3.3396   2.9734  -2.8262   1.9800  -2.0807   0.00    0.0
2019/01/15 09:49:30.000   4280291.7871  -4034428.6076  -2458139.9287   5  15   3.3428   3.3432   2.9711  -2.8314   1.9816  -2.0808   0.00    0.0
2019/01/15 09:49:45.000   4280291.6377  -4034428.0933  -2458139.9391   5  15   3.3478   3.3468   2.9688  -2.8365   1.9833  -2.0809   0.00    0.0
2019/01/15 09:50:00.000   4280291.5561  -4034428.7515  -2458139.9838   5  15   3.3528   3.3505   2.9664  -2.8417   1.9849  -2.0809   0.00    0.0
2019/01/15 09:50:15.000   4280292.3591  -4034429.5836  -2458140.3048   5  15   3.3577   3.3542   2.9640  -2.8469   1.9866  -2.0810   0.00    0.0
2019/01/15 09:50:30.000   4280292.9630  -4034429.7408  -2458141.1882   5  15   3.3628   3.3579   2.9617  -2.8522   1.9883  -2.0811   0.00    0.0
2019/01/15 09:50:45.000   4280292.0587  -4034429.2097  -2458141.2320   5  15   3.3678   3.3616   2.9593  -2.8574   1.9900  -2.0812   0.00    0.0
2019/01/15 09:51:00.000   4280291.8339  -4034428.9863  -2458140.9802   5  14   4.1487   3.6636   2.9892  -3.4194   1.8253  -1.8089   0.00    0.0
2019/01/15 09:51:15.000   4280292.1758  -4034429.0076  -2458140.8494   5  14   4.1544   3.6675   2.9873  -3.4248   1.8257  -1.8065   0.00    0.0
2019/01/15 09:51:30.000   4280292.3879  -4034429.4930  -2458140.9847   5  14   4.1602   3.6714   2.9854  -3.4302   1.8262  -1.8041   0.00    0.0
2019/01/15 09:51:45.000   4280292.5968  -4034430.2351  -2458140.9404   5  14   4.1659   3.6753   2.9834  -3.4355   1.8267  -1.8018   0.00    0.0
2019/01/15 09:52:00.000   4280292.4965  -4034429.8798  -2458141.0074   5  15   3.3933   3.3809   2.9471  -2.8841   1.9985  -2.0817   0.00    0.0
2019/01/15 09:52:15.000   4280292.8355  -4034430.2242  -2458141.3828   5  15   3.3985   3.3848   2.9446  -2.8895   2.0002  -2.0818   0.00    0.0
2019/01/15 09:52:30.000   4280292.6579  -4034430.5373  -2458141.7346   5  15   3.4037   3.3888   2.9422  -2.8950   2.0020  -2.0819   0.00    0.0
2019/01/15 09:52:45.000   4280292.3738  -4034430.2710  -2458141.1423   5  14   4.1890   3.6912   2.9756  -3.4571   1.8289  -1.7925   0.00    0.0
2019/01/15 09:53:00.000   4280292.0963  -4034429.3573  -2458141.3155   5  15   3.4142   3.3969   2.9372  -2.9059   2.0055  -2.0822   0.00    0.0
2019/01/15 09:53:15.000   4280292.7976  -4034429.9634  -2458141.7326   5  15   3.4194   3.4010   2.9347  -2.9114   2.0072  -2.0824   0.00    0.0
2019/01/15 09:53:30.000   4280292.7523  -4034429.7578  -2458141.0878   5  15   3.4247   3.4051   2.9322  -2.9169   2.0090  -2.0825   0.00    0.0
2019/01/15 09:53:45.000   4280292.7609  -4034430.4300  -2458141.0125   5  15   3.4300   3.4092   2.9297  -2.9225   2.0107  -2.0827   0.00    0.0
2019/01/15 09:54:00.000   4280293.1759  -4034430.2204  -2458141.3998   5  15   3.4353   3.4134   2.9272  -2.9281   2.0125  -2.0828   0.00    0.0
2019/01/15 09:54:15.000   4280293.4021  -4034430.8571  -2458140.9126   5  15   3.4407   3.4176   2.9246  -2.9337   2.0143  -2.0830   0.00    0.0
2019/01/15 09:54:30.000   4280292.8186  -4034430.5406  -2458140.7492   5  15   3.4461   3.4218   2.9221  -2.9393   2.0161  -2.0832   0.00    0.0
2019/01/15 09:54:45.000   4280291.9229  -4034429.7528  -2458140.4407   5  15   3.4515   3.4261   2.9195  -2.9449   2.0179  -2.0834   0.00    0.0
2019/01/15 09:55:00.000   4280292.2009  -4034429.6976  -2458140.9054   5  15   3.4569   3.4304   2.9170  -2.9506   2.0197  -2.0835   0.00    0.0
2019/01/15 09:55:15.000   4280292.4366  -4034429.0202  -2458141.0556   5  15   3.4623   3.4348   2.9144  -2.9563   2.0215  -2.0837   0.00    0.0
2019/01/15 09:55:30.000   4280292.8333  -4034429.6797  -2458140.9825   5  15   3.4678   3.4391   2.9119  -2.9620   2.0233  -2.0839   0.00    0.0
2019/01/15 09:55:45.000   4280293.3092  -4034429.7007  -2458140.9826   5  15   3.4733   3.4435   2.9093  -2.9678   2.0252  -2.0841   0.00    0.0
2019/01/15 09:56:00.000   4280292.7327  -4034429.2938  -2458141.1578   5  15   3.4788   3.4479   2.9067  -2.9735   2.0270  -2.0844   0.00    0.0
2019/01/15 09:56:15.000   4280291.1674  -4034427.9681  -2458141.1621   5  15   4.1804   3.6638   2.3876  -3.4340   1.4168  -1.2646   0.00    0.0
2019/01/15 09:56:30.000   4280292.4254  -4034429.2014  -2458141.5743   5  15   4.1878   3.6690   2.3878  -3.4408   1.4212  -1.2677   0.00    0.0
2019/01/15 09:56:45.000   4280291.7560  -4034429.1742  -2458141.4435   5  15   4.1951   3.6741   2.3881  -3.4477   1.4256  -1.2709   0.00    0.0
2019/01/15 09:57:00.000   4280291.9893  -4034429.1017  -2458141.1134   5  15   4.2024   3.6793   2.3884  -3.4545   1.4301  -1.2741   0.00    0.0
2019/01/15 09:57:15.000   4280292.7262  -4034429.0449  -2458141.0501   5  16   3.4001   3.3797   2.3349  -2.8878   1.6726  -1.6978   0.00    0.0
2019/01/15 09:57:30.000   4280292.1360  -4034428.4993  -2458140.5212   5  16   3.4069   3.3849   2.3350  -2.8948   1.6770  -1.7014   0.00    0.0
2019/01/15 09:57:45.000   4280292.5121  -4034429.8797  -2458140.7486   5  16   3.4138   3.3901   2.3351  -2.9018   1.6814  -1.7049   0.00    0.0
2019/01/15 09:58:00.000   4280292.7516  -4034429.4543  -2458141.2669   5  16   3.4207   3.3954   2.3351  -2.9088   1.6858  -1.7084   0.00    0.0
2019/01/15 09:58:15.000   4280292.4912  -4034429.7500  -2458140.8544   5  16   3.4276   3.4008   2.3352  -2.9159   1.6902  -1.7120   0.00    0.0
2019/01/15 09:58:30.000   4280292.8957  -4034430.2528  -2458141.4407   5  16   3.4346   3.4061   2.3353  -2.9230   1.6947  -1.7156   0.00    0.0
2019/01/15 09:58:45.000   4280292.3673  -4034429.4948  -2458140.8798   5  16   3.4415   3.4115   2.3354  -2.9302   1.6992  -1.7192   0.00    0.0
2019/01/15 09:59:00.000   4280291.4958  -4034428.9042  -2458140.3415   5  16   3.4485   3.4170   2.3355  -2.9373   1.7036  -1.7228   0.00    0.0
2019/01/15 09:59:15.000   4280292.1994  -4034428.9685  -2458140.7305   5  16   3.4555   3.4224   2.3356  -2.9445   1.7081  -1.7264   0.00    0.0
2019/01/15 09:59:30.000   4280292.3436  -4034428.8735  -2458140.4889   5  16   3.4625   3.4279   2.3357  -2.9517   1.7126  -1.7300   0.00    0.0
2019/01/15 09:59:45.000   4280292.5314  -4034429.3109  -2458140.7031   5  16   3.4696   3.4335   2.3358  -2.9589   1.7171  -1.7337   0.00    0.0
2019/01/15 10:00:00.000   4280292.1276  -4034429.3187  -2458141.0561   5  16   3.4767   3.4391   2.3359  -2.9662   1.7217  -1.7373   0.00    0.0
2019/01/15 10:00:15.000   4280291.7592  -4034428.7714  -2458141.4101   5  16   3.4838   3.4447   2.3360  -2.9735   1.7262  -1.7410   0.00    0.0
2019/01/15 10:00:30.000   4280291.4895  -4034428.3882  -2458140.6716   5  16   3.4909   3.4503   2.3361  -2.9808   1.7307  -1.7447   0.00    0.0
2019/01/15 10:00:45.000   4280292.4374  -4034429.2782  -2458140.5871   5  15   3.5875   3.5378   2.8571  -3.0872   2.0629  -2.0897   0.00    0.0
2019/01/15 10:01:00.000   4280292.8816  -4034430.1980  -2458140.4504   5  15   3.5935   3.5428   2.8545  -3.0934   2.0648  -2.0901   0.00    0.0
2019/01/15 10:01:15.000   4280293.2795  -4034430.1707  -2458140.4415   5  15   3.5994   3.5479   2.8519  -3.0997   2.0668  -2.0904   0.00    0.0
2019/01/15 10:01:30.000   4280293.0401  -4034429.5809  -2458140.7326   5  15   3.6054   3.5530   2.8492  -3.1059   2.0687  -2.0908   0.00    0.0
2019/01/15 10:01:45.000   4280292.9445  -4034429.3980  -2458140.4697   5  15   3.6114   3.5581   2.8466  -3.1121   2.0707  -2.0911   0.00    0.0
2019/01/15 10:02:00.000   4280293.3350  -4034429.8734  -2458141.1918   5  15   3.6174   3.5632   2.8440  -3.1184   2.0726  -2.0915   0.00    0.0
2019/01/15 10:02:15.000   4280292.2424  -4034428.6010  -2458140.1253   5  15   3.6234   3.5684   2.8414  -3.1247   2.0746  -2.0919   0.00    0.0
2019/01/15 10:02:30.000   4280292.8802  -4034429.3892  -2458140.5599   5  16   3.5485   3.4967   2.3368  -3.0400   1.7675  -1.7745   0.00    0.0
2019/01/15 10:02:45.000   4280291.8030  -4034428.5538  -2458140.9509   5  16   3.5558   3.5027   2.3370  -3.0475   1.7722  -1.7783   0.00    0.0
2019/01/15 10:03:00.000   4280291.7617  -4034428.8952  -2458141.2451   5  15   3.6416   3.5840   2.8335  -3.1437   2.0805  -2.0930   0.00    0.0
2019/01/15 10:03:15.000   4280292.0501  -4034429.2116  -2458141.1292   5  15   3.6477   3.5893   2.8309  -3.1501   2.0824  -2.0934   0.00    0.0
2019/01/15 10:03:30.000   4280292.7098  -4034429.4124  -2458141.3967   5  15   3.6538   3.5946   2.8283  -3.1564   2.0844  -2.0939   0.00    0.0
2019/01/15 10:03:45.000   4280291.6113  -4034428.0224  -2458141.4512   5  14   3.9335   3.6151   3.1081  -3.2374   2.1867  -2.5004   0.00    0.0
2019/01/15 10:04:00.000   4280292.8957  -4034429.3586  -2458141.5674   5  15   3.7934   3.5360   2.4909  -3.1141   1.8304  -2.0685   0.00    0.0
2019/01/15 10:04:15.000   4280293.0532  -4034429.7649  -2458141.2179   5  15   3.8021   3.5423   2.4916  -3.1229   1.8364  -2.0734   0.00    0.0
2019/01/15 10:04:30.000   4280292.7717  -4034429.6270  -2458141.2059   5  15   3.8109   3.5487   2.4922  -3.1317   1.8424  -2.0784   0.00    0.0
2019/01/15 10:04:45.000   4280293.0335  -4034430.0756  -2458141.9500   5  15   3.8196   3.5552   2.4929  -3.1405   1.8484  -2.0833   0.00    0.0
2019/01/15 10:05:00.000   4280292.8898  -4034429.7462  -2458141.8277   5  15   3.8284   3.5617   2.4935  -3.1494   1.8544  -2.0882   0.00    0.0
2019/01/15 10:05:15.000   4280292.8609  -4034429.4277  -2458141.6992   5  15   3.8372   3.5682   2.4942  -3.1582   1.8604  -2.0931   0.00    0.0
2019/01/15 10:05:30.000   4280293.7206  -4034429.9511  -2458141.6127   5  15   3.8461   3.5747   2.4949  -3.1671   1.8665  -2.0981   0.00    0.0
2019/01/15 10:05:45.000   4280292.6828  -4034428.7022  -2458141.4787   5  15   3.8549   3.5813   2.4955  -3.1760   1.8725  -2.1030   0.00    0.0
2019/01/15 10:06:00.000   4280292.4434  -4034428.8745  -2458141.3784   5  15   3.8638   3.5880   2.4962  -3.1850   1.8785  -2.1080   0.00    0.0
2019/01/15 10:06:15.000   4280292.6750  -4034429.2643  -2458141.4774   5  15   3.8727   3.5947   2.4968  -3.1939   1.8846  -2.1130   0.00    0.0
2019/01/15 10:06:30.000   4280291.5791  -4034428.7478  -2458140.9978   5  15   3.8816   3.6014   2.4975  -3.2029   1.8906  -2.1179   0.00    0.0
2019/01/15 10:06:45.000   4280292.0048  -4034428.5701  -2458140.9588   5  15   3.8905   3.6081   2.4982  -3.2119   1.8967  -2.1229   0.00    0.0
2019/01/15 10:07:00.000   4280292.4308  -4034429.3342  -2458141.1433   5  15   3.8994   3.6149   2.4988  -3.2210   1.9028  -2.1279   0.00    0.0
2019/01/15 10:07:15.000   4280291.8878  -4034428.8954  -2458140.9597   5  15   3.9084   3.6217   2.4995  -3.2300   1.9088  -2.1329   0.00    0.0
2019/01/15 10:07:30.000   4280292.7764  -4034429.6834  -2458141.2088   5  15   3.9174   3.6285   2.5002  -3.2391   1.9149  -2.1379   0.00    0.0
2019/01/15 10:07:45.000   4280293.3960  -4034430.2289  -2458141.1913   5  15   3.9263   3.6354   2.5009  -3.2481   1.9210  -2.1428   0.00    0.0
2019/01/15 10:08:00.000   4280293.1793  -4034429.6890  -2458140.8191   5  15   3.9353   3.6423   2.5015  -3.2572   1.9271  -2.1478   0.00    0.0
2019/01/15 10:08:15.000   4280293.8843  -4034430.1194  -2458141.4973   5  16   3.3689   3.5290   2.4611  -2.9602   1.8214  -1.9258   0.00    0.0
2019/01/15 10:08:30.000   4280293.2429  -4034429.5625  -2458141.4410   5  16   3.3761   3.5348   2.4619  -2.9676   1.8274  -1.9310   0.00    0.0
2019/01/15 10:08:45.000   4280293.0092  -4034429.7362  -2458141.5350   5  16   3.3834   3.5407   2.4627  -2.9751   1.8334  -1.9362   0.00    0.0
2019/01/15 10:09:00.000   4280293.4304  -4034430.2112  -2458141.5607   5  16   3.3906   3.5467   2.4635  -2.9825   1.8393  -1.9415   0.00    0.0
2019/01/15 10:09:15.000   4280293.1889  -4034430.1098  -2458141.5758   5  16   3.3978   3.5526   2.4643  -2.9900   1.8453  -1.9467   0.00    0.0
2019/01/15 10:09:30.000   4280293.2514  -4034429.7590  -2458141.2114   5  16   3.4051   3.5586   2.4651  -2.9975   1.8513  -1.9519   0.00    0.0
2019/01/15 10:09:45.000   4280292.7844  -4034429.0560  -2458140.9020   5  16   3.4124   3.5646   2.4659  -3.0051   1.8573  -1.9571   0.00    0.0
2019/01/15 10:10:00.000   4280292.3911  -4034428.8878  -2458141.3114   5  16   3.4197   3.5707   2.4667  -3.0126   1.8633  -1.9624   0.00    0.0
2019/01/15 10:10:15.000   4280291.9636  -4034428.8329  -2458140.8737   5  16   3.4270   3.5767   2.4675  -3.0202   1.8693  -1.9676   0.00    0.0
2019/01/15 10:10:30.000   4280292.9549  -4034429.7072  -2458141.0769   5  16   3.4343   3.5828   2.4683  -3.0277   1.8752  -1.9728   0.00    0.0
2019/01/15 10:10:45.000   4280292.9016  -4034429.8675  -2458140.8687   5  16   3.4416   3.5889   2.4691  -3.0353   1.8812  -1.9780   0.00    0.0
2019/01/15 10:11:00.000   4280292.9338  -4034430.0090  -2458140.8306   5  16   3.4489   3.5951   2.4699  -3.0429   1.8872  -1.9833   0.00    0.0
2019/01/15 10:11:15.000   4280293.6837  -4034430.2754  -2458140.9362   5  16   3.4562   3.6013   2.4707  -3.0505   1.8932  -1.9885   0.00    0.0
2019/01/15 10:11:30.000   4280293.6505  -4034430.3976  -2458141.2604   5  16   3.4636   3.6075   2.4715  -3.0581   1.8992  -1.9937   0.00    0.0
2019/01/15 10:11:45.000   4280292.7180  -4034429.6025  -2458141.2543   5  16   3.4709   3.6137   2.4723  -3.0657   1.9052  -1.9989   0.00    0.0
2019/01/15 10:12:00.000   4280292.1127  -4034429.0231  -2458141.0048   5  16   3.4783   3.6199   2.4731  -3.0734   1.9112  -2.0041   0.00    0.0
2019/01/15 10:12:15.000   4280292.5066  -4034428.9911  -2458141.0502   5  16   3.4856   3.6262   2.4739  -3.0810   1.9172  -2.0093   0.00    0.0
2019/01/15 10:12:30.000   4280293.2988  -4034429.9482  -2458141.2365   5  16   3.4930   3.6325   2.4747  -3.0887   1.9231  -2.0145   0.00    0.0
2019/01/15 10:12:45.000   4280293.2088  -4034429.7998  -2458141.0804   5  16   3.5004   3.6388   2.4755  -3.0964   1.9291  -2.0197   0.00    0.0
2019/01/15 10:13:00.000   4280292.3863  -4034428.6058  -2458141.1740   5  16   3.5078   3.6451   2.4763  -3.1040   1.9351  -2.0248   0.00    0.0
2019/01/15 10:13:15.000   4280292.6772  -4034428.9228  -2458141.0264   5  16   3.5151   3.6515   2.4771  -3.1117   1.9411  -2.0300   0.00    0.0
2019/01/15 10:13:30.000   4280292.4059  -4034428.4515  -2458141.0862   5  16   3.5225   3.6578   2.4779  -3.1194   1.9470  -2.0352   0.00    0.0
2019/01/15 10:13:45.000   4280292.7220  -4034428.9702  -2458141.0883   5  15   3.5646   3.6972   2.9223  -3.1659   2.1393  -2.2207   0.00    0.0
2019/01/15 10:14:00.000   4280292.4669  -4034428.5927  -2458140.1684   5  16   3.5373   3.6706   2.4795  -3.1348   1.9589  -2.0455   0.00    0.0
2019/01/15 10:14:15.000   4280291.4237  -4034427.8788  -2458140.1022   5  16   3.5447   3.6771   2.4803  -3.1425   1.9649  -2.0506   0.00    0.0
2019/01/15 10:14:30.000   4280292.3296  -4034428.5287  -2458140.6032   5  15   3.5843   3.7147   2.9163  -3.1866   2.1496  -2.2275   0.00    0.0
2019/01/15 10:14:45.000   4280291.8822  -4034428.1024  -2458141.2634   5  14   3.8036   3.7251   3.1682  -3.2290   2.2049  -2.5554   0.00    0.0
2019/01/15 10:15:00.000   4280292.6513  -4034429.3748  -2458141.5619   5  15   3.5975   3.7265   2.9122  -3.2004   2.1564  -2.2320   0.00    0.0
2019/01/15 10:15:15.000   4280292.3077  -4034429.0108  -2458141.2128   5  17   3.5358   3.5690   2.4639  -3.0910   2.0646  -2.1101   0.00    0.0
2019/01/15 10:15:30.000   4280291.5385  -4034428.4958  -2458141.0148   5  17   3.5423   3.5740   2.4654  -3.0973   2.0695  -2.1149   0.00    0.0
2019/01/15 10:15:45.000   4280291.7180  -4034428.6398  -2458140.7712   5  17   3.5488   3.5790   2.4669  -3.1037   2.0743  -2.1197   0.00    0.0
2019/01/15 10:16:00.000   4280291.9961  -4034428.8187  -2458140.9562   5  17   3.5553   3.5840   2.4684  -3.1101   2.0791  -2.1244   0.00    0.0
2019/01/15 10:16:15.000   4280292.2757  -4034429.2537  -2458141.2582   5  17   3.5618   3.5890   2.4698  -3.1164   2.0839  -2.1291   0.00    0.0
2019/01/15 10:16:30.000   4280292.4425  -4034428.8466  -2458141.1049   5  17   3.5683   3.5940   2.4713  -3.1227   2.0887  -2.1337   0.00    0.0
2019/01/15 10:16:45.000   4280292.8372  -4034429.3101  -2458141.0356   5  17   3.5747   3.5990   2.4727  -3.1290   2.0934  -2.1384   0.00    0.0
2019/01/15 10:17:00.000   4280291.7074  -4034428.4048  -2458140.7574   5  17   3.5811   3.6039   2.4742  -3.1352   2.0981  -2.1430   0.00    0.0
2019/01/15 10:17:15.000   4280291.5870  -4034428.0126  -2458141.0944   5  17   3.5875   3.6089   2.4756  -3.1415   2.1028  -2.1476   0.00    0.0
2019/01/15 10:17:30.000   4280292.0412  -4034429.1368  -2458141.3517   5  17   3.5939   3.6139   2.4770  -3.1477   2.1075  -2.1521   0.00    0.0
2019/01/15 10:17:45.000   4280292.8188  -4034429.3700  -2458141.4538   5  16   3.8149   3.6269   2.6386  -3.2020   2.1634  -2.4069   0.00    0.0
2019/01/15 10:18:00.000   4280293.0060  -4034428.9354  -2458141.3975   5  16   3.8232   3.6322   2.6410  -3.2093   2.1691  -2.4131   0.00    0.0
2019/01/15 10:18:15.000   4280292.8249  -4034429.1847  -2458141.4259   5  16   3.8315   3.6374   2.6434  -3.2166   2.1748  -2.4193   0.00    0.0
2019/01/15 10:18:30.000   4280293.0411  -4034429.6928  -2458141.4401   5  17   3.6191   3.6336   2.4826  -3.1723   2.1258  -2.1700   0.00    0.0
2019/01/15 10:18:45.000   4280293.7443  -4034429.7851  -2458141.1702   5  16   3.8480   3.6479   2.6481  -3.2312   2.1861  -2.4315   0.00    0.0
2019/01/15 10:19:00.000   4280293.2756  -4034429.4865  -2458141.2445   5  16   3.8562   3.6532   2.6505  -3.2384   2.1918  -2.4376   0.00    0.0
2019/01/15 10:19:15.000   4280293.2385  -4034429.2264  -2458141.2024   5  16   3.8644   3.6584   2.6528  -3.2456   2.1973  -2.4436   0.00    0.0
2019/01/15 10:19:30.000   4280292.4008  -4034429.2970  -2458141.4873   5  17   3.6439   3.6531   2.4879  -3.1964   2.1437  -2.1873   0.00    0.0
2019/01/15 10:19:45.000   4280292.6201  -4034429.4455  -2458141.4757   5  16   3.8808   3.6688   2.6575  -3.2600   2.2084  -2.4556   0.00    0.0
2019/01/15 10:20:00.000   4280293.4906  -4034429.3913  -2458141.2553   5  17   3.6561   3.6627   2.4904  -3.2083   2.1524  -2.1958   0.00    0.0
2019/01/15 10:20:15.000   4280293.2139  -4034429.1835  -2458140.7744   5  17   3.6621   3.6675   2.4917  -3.2142   2.1567  -2.1999   0.00    0.0
2019/01/15 10:20:30.000   4280293.9864  -4034430.5604  -2458141.5900   5  17   3.6681   3.6723   2.4929  -3.2200   2.1610  -2.2041   0.00    0.0
2019/01/15 10:20:45.000   4280293.1341  -4034429.8027  -2458141.5949   5  18   3.4419   3.5943   2.4916  -3.0674   2.1448  -2.1749   0.00    0.0
2019/01/15 10:21:00.000   4280292.0118  -4034428.2423  -2458140.5687   5  18   3.4479   3.5990   2.4928  -3.0731   2.1490  -2.1790   0.00    0.0
2019/01/15 10:21:15.000   4280291.8523  -4034428.4669  -2458140.9854   5  18   3.4538   3.6036   2.4939  -3.0789   2.1532  -2.1830   0.00    0.0
2019/01/15 10:21:30.000   4280292.2012  -4034428.2237  -2458140.8187   5  17   3.6766   4.2890   2.5208  -3.5212   2.3423  -2.2868   0.00    0.0
2019/01/15 10:21:45.000   4280291.9855  -4034428.6082  -2458141.0110   5  17   3.6840   4.2953   2.5227  -3.5287   2.3491  -2.2924   0.00    0.0
2019/01/15 10:22:00.000   4280292.1432  -4034428.5328  -2458141.2246   5  17   3.6913   4.3016   2.5246  -3.5362   2.3558  -2.2980   0.00    0.0
2019/01/15 10:22:15.000   4280291.5298  -4034427.9954  -2458141.2735   5  17   3.6986   4.3078   2.5265  -3.5437   2.3625  -2.3036   0.00    0.0
2019/01/15 10:22:30.000   4280291.0666  -4034428.1220  -2458141.2717   5  17   3.7059   4.3141   2.5284  -3.5512   2.3691  -2.3091   0.00    0.0
2019/01/15 10:22:45.000   4280291.3600  -4034428.0509  -2458141.2018   5  17   3.7132   4.3203   2.5302  -3.5586   2.3757  -2.3146   0.00    0.0
2019/01/15 10:23:00.000   4280290.8283  -4034427.4972  -2458141.1563   5  17   3.7204   4.3265   2.5321  -3.5659   2.3822  -2.3201   0.00    0.0
2019/01/15 10:23:15.000   4280291.0685  -4034427.6942  -2458141.1166   5  17   3.7276   4.3326   2.5339  -3.5733   2.3887  -2.3255   0.00    0.0
2019/01/15 10:23:30.000   4280292.1622  -4034428.8463  -2458141.4963   5  17   3.7347   4.3388   2.5358  -3.5806   2.3951  -2.3309   0.00    0.0
2019/01/15 10:23:45.000   4280291.3846  -4034427.2130  -2458141.0046   5  17   3.7419   4.3449   2.5376  -3.5878   2.4015  -2.3362   0.00    0.0
2019/01/15 10:24:00.000   4280291.1130  -4034426.8094  -2458140.7098   5  17   3.7489   4.3510   2.5394  -3.5950   2.4078  -2.3415   0.00    0.0
2019/01/15 10:24:15.000   4280292.1506  -4034428.0092  -2458141.3819   5  15   3.9953   4.4113   3.1057  -3.6784   2.6336  -2.7670   0.00    0.0
2019/01/15 10:24:30.000   4280293.0338  -4034429.2255  -2458141.7977   5  15   4.0028   4.4165   3.1054  -3.6853   2.6382  -2.7707   0.00    0.0
2019/01/15 10:24:45.000   4280292.0481  -4034429.4295  -2458141.2713   5  16   3.7997   4.4175   2.8742  -3.6589   2.5999  -2.4879   0.00    0.0
2019/01/15 10:25:00.000   4280291.1860  -4034428.1535  -2458140.7416   5  16   4.0423   4.4961   2.5513  -3.8239   2.4659  -2.4098   0.00    0.0
2019/01/15 10:25:15.000   4280291.7980  -4034428.5759  -2458140.5529   5  16   3.8115   4.4272   2.8725  -3.6705   2.6064  -2.4925   0.00    0.0
2019/01/15 10:25:30.000   4280290.9236  -4034427.2548  -2458139.7827   5  16   4.0555   4.5077   2.5547  -3.8373   2.4778  -2.4198   0.00    0.0
