% program   : RTKPOST ver.2.4.2
% inp file  : D:\Google Drive\UERJ\_Projeto Final\20190114_Marco 91500 IBGE\IBGE014O.19o
% inp file  : D:\Google Drive\UERJ\_Projeto Final\20190114_Marco 91500 IBGE\riod0141\riod0141.19d
% inp file  : D:\Google Drive\UERJ\_Projeto Final\20190114_Marco 91500 IBGE\brdm0140.19p
% obs start : 2019/01/14 14:54:46.0 GPST (week2036 140086.0s)
% obs end   : 2019/01/14 15:00:00.0 GPST (week2036 140400.0s)
% pos mode  : static
% freqs     : L1
% solution  : forward
% elev mask : 15.0 deg
% dynamics  : off
% tidecorr  : off
% ionos opt : broadcast
% tropo opt : saastamoinen
% ephemeris : broadcast
% navi sys  : gps glonass
% amb res   : fix and hold
% amb glo   : on
% val thres : 3.0
% antenna1  :                       ( 0.0000  0.0000  0.0000)
% antenna2  :                       ( 0.0000  0.0000  0.0080)
% ref pos   :  4280294.8840  -4034431.2298  -2458141.3831
%
% (x/y/z-ecef=WGS84,Q=1:fix,2:float,3:sbas,4:dgps,5:single,6:ppp,ns=# of satellites)
%  GPST                      x-ecef(m)      y-ecef(m)      z-ecef(m)   Q  ns   sdx(m)   sdy(m)   sdz(m)  sdxy(m)  sdyz(m)  sdzx(m) age(s)  ratio
2019/01/14 14:54:46.000   4280213.1113  -4034419.1007  -2458260.6984   5  10  30.0000  30.0000  30.0000   0.0000   0.0000   0.0000   1.00    0.0
2019/01/14 14:54:47.000   4280213.1113  -4034419.1007  -2458260.6984   5   9  30.0000  30.0000  30.0000   0.0000   0.0000   0.0000   2.00    0.0
2019/01/14 14:54:48.000   4280213.1113  -4034419.1007  -2458260.6984   5  10  30.0000  30.0000  30.0000   0.0000   0.0000   0.0000   3.00    0.0
2019/01/14 14:54:49.000   4280213.1113  -4034419.1007  -2458260.6984   5   9  30.0000  30.0000  30.0000   0.0000   0.0000   0.0000   4.00    0.0
2019/01/14 14:54:50.000   4280213.1113  -4034419.1007  -2458260.6984   5   8  30.0000  30.0000  30.0000   0.0000   0.0000   0.0000   5.00    0.0
2019/01/14 14:54:51.000   4280213.1113  -4034419.1007  -2458260.6984   5   8  30.0000  30.0000  30.0000   0.0000   0.0000   0.0000   6.00    0.0
2019/01/14 14:54:54.000   4280213.1113  -4034419.1007  -2458260.6984   5   8  30.0000  30.0000  30.0000   0.0000   0.0000   0.0000   9.00    0.0
2019/01/14 14:54:55.000   4280213.1113  -4034419.1007  -2458260.6984   5   7  30.0000  30.0000  30.0000   0.0000   0.0000   0.0000  10.00    0.0
2019/01/14 14:54:56.000   4280213.1113  -4034419.1007  -2458260.6984   5   9  30.0000  30.0000  30.0000   0.0000   0.0000   0.0000  11.00    0.0
2019/01/14 14:54:57.000   4280213.1113  -4034419.1007  -2458260.6984   5   9  30.0000  30.0000  30.0000   0.0000   0.0000   0.0000  12.00    0.0
2019/01/14 14:54:58.000   4280213.1113  -4034419.1007  -2458260.6984   5   8  30.0000  30.0000  30.0000   0.0000   0.0000   0.0000  13.00    0.0
2019/01/14 14:54:59.000   4280213.1113  -4034419.1007  -2458260.6984   5   8  30.0000  30.0000  30.0000   0.0000   0.0000   0.0000  14.00    0.0
2019/01/14 14:55:00.000   4280213.1113  -4034419.1007  -2458260.6984   5   8  30.0000  30.0000  30.0000   0.0000   0.0000   0.0000   0.00    0.0
2019/01/14 14:55:01.000   4280213.1113  -4034419.1007  -2458260.6984   5  10  30.0000  30.0000  30.0000   0.0000   0.0000   0.0000   1.00    0.0
2019/01/14 14:55:02.000   4280213.1113  -4034419.1007  -2458260.6984   5   9  30.0000  30.0000  30.0000   0.0000   0.0000   0.0000   2.00    0.0
2019/01/14 14:55:04.000   4280213.1113  -4034419.1007  -2458260.6984   5   9  30.0000  30.0000  30.0000   0.0000   0.0000   0.0000   4.00    0.0
2019/01/14 14:55:05.000   4280213.1113  -4034419.1007  -2458260.6984   5   7  30.0000  30.0000  30.0000   0.0000   0.0000   0.0000   5.00    0.0
2019/01/14 14:55:06.000   4280213.1113  -4034419.1007  -2458260.6984   5   8  30.0000  30.0000  30.0000   0.0000   0.0000   0.0000   6.00    0.0
2019/01/14 14:55:07.000   4280213.1113  -4034419.1007  -2458260.6984   5   7  30.0000  30.0000  30.0000   0.0000   0.0000   0.0000   7.00    0.0
2019/01/14 14:55:08.000   4280213.1113  -4034419.1007  -2458260.6984   5   8  30.0000  30.0000  30.0000   0.0000   0.0000   0.0000   8.00    0.0
2019/01/14 14:55:09.000   4280213.1113  -4034419.1007  -2458260.6984   5   8  30.0000  30.0000  30.0000   0.0000   0.0000   0.0000   9.00    0.0
2019/01/14 14:55:10.000   4280213.1113  -4034419.1007  -2458260.6984   5   8  30.0000  30.0000  30.0000   0.0000   0.0000   0.0000  10.00    0.0
2019/01/14 14:55:11.000   4280213.1113  -4034419.1007  -2458260.6984   5   7  30.0000  30.0000  30.0000   0.0000   0.0000   0.0000  11.00    0.0
2019/01/14 14:55:12.000   4280213.1113  -4034419.1007  -2458260.6984   5   8  30.0000  30.0000  30.0000   0.0000   0.0000   0.0000  12.00    0.0
2019/01/14 14:55:13.000   4280213.1113  -4034419.1007  -2458260.6984   5   9  30.0000  30.0000  30.0000   0.0000   0.0000   0.0000  13.00    0.0
2019/01/14 14:55:14.000   4280213.1113  -4034419.1007  -2458260.6984   5   8  30.0000  30.0000  30.0000   0.0000   0.0000   0.0000  14.00    0.0
2019/01/14 14:55:15.000   4280213.1113  -4034419.1007  -2458260.6984   5   8  30.0000  30.0000  30.0000   0.0000   0.0000   0.0000   0.00    0.0
2019/01/14 14:55:16.000   4280213.1113  -4034419.1007  -2458260.6984   5   7  30.0000  30.0000  30.0000   0.0000   0.0000   0.0000   1.00    0.0
2019/01/14 14:55:17.000   4280213.1113  -4034419.1007  -2458260.6984   5   8  30.0000  30.0000  30.0000   0.0000   0.0000   0.0000   2.00    0.0
2019/01/14 14:55:18.000   4280213.1113  -4034419.1007  -2458260.6984   5   7  30.0000  30.0000  30.0000   0.0000   0.0000   0.0000   3.00    0.0
2019/01/14 14:55:19.000   4280213.1113  -4034419.1007  -2458260.6984   5   8  30.0000  30.0000  30.0000   0.0000   0.0000   0.0000   4.00    0.0
2019/01/14 14:55:20.000   4280213.1113  -4034419.1007  -2458260.6984   5   8  30.0000  30.0000  30.0000   0.0000   0.0000   0.0000   5.00    0.0
2019/01/14 14:55:21.000   4280213.1113  -4034419.1007  -2458260.6984   5   8  30.0000  30.0000  30.0000   0.0000   0.0000   0.0000   6.00    0.0
2019/01/14 14:55:22.000   4280213.1113  -4034419.1007  -2458260.6984   5   8  30.0000  30.0000  30.0000   0.0000   0.0000   0.0000   7.00    0.0
2019/01/14 14:55:23.000   4280213.1113  -4034419.1007  -2458260.6984   5   8  30.0000  30.0000  30.0000   0.0000   0.0000   0.0000   8.00    0.0
2019/01/14 14:55:24.000   4280213.1113  -4034419.1007  -2458260.6984   5   8  30.0000  30.0000  30.0000   0.0000   0.0000   0.0000   9.00    0.0
2019/01/14 14:55:25.000   4280213.1113  -4034419.1007  -2458260.6984   5   8  30.0000  30.0000  30.0000   0.0000   0.0000   0.0000  10.00    0.0
2019/01/14 14:55:26.000   4280213.1113  -4034419.1007  -2458260.6984   5   8  30.0000  30.0000  30.0000   0.0000   0.0000   0.0000  11.00    0.0
2019/01/14 14:55:27.000   4280213.1113  -4034419.1007  -2458260.6984   5   8  30.0000  30.0000  30.0000   0.0000   0.0000   0.0000  12.00    0.0
2019/01/14 14:55:28.000   4280213.1113  -4034419.1007  -2458260.6984   5   8  30.0000  30.0000  30.0000   0.0000   0.0000   0.0000  13.00    0.0
2019/01/14 14:55:29.000   4280213.1113  -4034419.1007  -2458260.6984   5   8  30.0000  30.0000  30.0000   0.0000   0.0000   0.0000  14.00    0.0
2019/01/14 14:55:30.000   4280213.1113  -4034419.1007  -2458260.6984   5   8  30.0000  30.0000  30.0000   0.0000   0.0000   0.0000   0.00    0.0
2019/01/14 14:55:31.000   4280213.1113  -4034419.1007  -2458260.6984   5   8  30.0000  30.0000  30.0000   0.0000   0.0000   0.0000   1.00    0.0
2019/01/14 14:55:32.000   4280213.1113  -4034419.1007  -2458260.6984   5   8  30.0000  30.0000  30.0000   0.0000   0.0000   0.0000   2.00    0.0
2019/01/14 14:55:33.000   4280213.1113  -4034419.1007  -2458260.6984   5   8  30.0000  30.0000  30.0000   0.0000   0.0000   0.0000   3.00    0.0
2019/01/14 14:55:34.000   4280213.1113  -4034419.1007  -2458260.6984   5   8  30.0000  30.0000  30.0000   0.0000   0.0000   0.0000   4.00    0.0
2019/01/14 14:55:35.000   4280213.1113  -4034419.1007  -2458260.6984   5   8  30.0000  30.0000  30.0000   0.0000   0.0000   0.0000   5.00    0.0
2019/01/14 14:55:36.000   4280213.1113  -4034419.1007  -2458260.6984   5   8  30.0000  30.0000  30.0000   0.0000   0.0000   0.0000   6.00    0.0
2019/01/14 14:55:37.000   4280213.1113  -4034419.1007  -2458260.6984   5   8  30.0000  30.0000  30.0000   0.0000   0.0000   0.0000   7.00    0.0
2019/01/14 14:55:38.000   4280213.1113  -4034419.1007  -2458260.6984   5   8  30.0000  30.0000  30.0000   0.0000   0.0000   0.0000   8.00    0.0
2019/01/14 14:55:39.000   4280213.1113  -4034419.1007  -2458260.6984   5   8  30.0000  30.0000  30.0000   0.0000   0.0000   0.0000   9.00    0.0
2019/01/14 14:55:40.000   4280213.1113  -4034419.1007  -2458260.6984   5   7  30.0000  30.0000  30.0000   0.0000   0.0000   0.0000  10.00    0.0
2019/01/14 14:55:41.000   4280213.1113  -4034419.1007  -2458260.6984   5   8  30.0000  30.0000  30.0000   0.0000   0.0000   0.0000  11.00    0.0
2019/01/14 14:55:42.000   4280213.1113  -4034419.1007  -2458260.6984   5   8  30.0000  30.0000  30.0000   0.0000   0.0000   0.0000  12.00    0.0
2019/01/14 14:55:43.000   4280213.1113  -4034419.1007  -2458260.6984   5   8  30.0000  30.0000  30.0000   0.0000   0.0000   0.0000  13.00    0.0
2019/01/14 14:55:44.000   4280213.1113  -4034419.1007  -2458260.6984   5   7  30.0000  30.0000  30.0000   0.0000   0.0000   0.0000  14.00    0.0
2019/01/14 14:55:45.000   4280213.1113  -4034419.1007  -2458260.6984   5   8  30.0000  30.0000  30.0000   0.0000   0.0000   0.0000   0.00    0.0
2019/01/14 14:55:46.000   4280213.1113  -4034419.1007  -2458260.6984   5   8  30.0000  30.0000  30.0000   0.0000   0.0000   0.0000   1.00    0.0
2019/01/14 14:55:47.000   4280213.1113  -4034419.1007  -2458260.6984   5   9  30.0000  30.0000  30.0000   0.0000   0.0000   0.0000   2.00    0.0
2019/01/14 14:55:48.000   4280213.1113  -4034419.1007  -2458260.6984   5   9  30.0000  30.0000  30.0000   0.0000   0.0000   0.0000   3.00    0.0
2019/01/14 14:55:49.000   4280213.1113  -4034419.1007  -2458260.6984   5   8  30.0000  30.0000  30.0000   0.0000   0.0000   0.0000   4.00    0.0
2019/01/14 14:55:50.000   4280213.1113  -4034419.1007  -2458260.6984   5   8  30.0000  30.0000  30.0000   0.0000   0.0000   0.0000   5.00    0.0
2019/01/14 14:55:51.000   4280213.1113  -4034419.1007  -2458260.6984   5   8  30.0000  30.0000  30.0000   0.0000   0.0000   0.0000   6.00    0.0
2019/01/14 14:55:52.000   4280213.1113  -4034419.1007  -2458260.6984   5   8  30.0000  30.0000  30.0000   0.0000   0.0000   0.0000   7.00    0.0
2019/01/14 14:55:53.000   4280213.1113  -4034419.1007  -2458260.6984   5   8  30.0000  30.0000  30.0000   0.0000   0.0000   0.0000   8.00    0.0
2019/01/14 14:55:54.000   4280213.1113  -4034419.1007  -2458260.6984   5   8  30.0000  30.0000  30.0000   0.0000   0.0000   0.0000   9.00    0.0
2019/01/14 14:55:55.000   4280213.1113  -4034419.1007  -2458260.6984   5   8  30.0000  30.0000  30.0000   0.0000   0.0000   0.0000  10.00    0.0
2019/01/14 14:55:56.000   4280213.1113  -4034419.1007  -2458260.6984   5   7  30.0000  30.0000  30.0000   0.0000   0.0000   0.0000  11.00    0.0
2019/01/14 14:55:57.000   4280213.1113  -4034419.1007  -2458260.6984   5   9  30.0000  30.0000  30.0000   0.0000   0.0000   0.0000  12.00    0.0
2019/01/14 14:55:58.000   4280213.1113  -4034419.1007  -2458260.6984   5   8  30.0000  30.0000  30.0000   0.0000   0.0000   0.0000  13.00    0.0
2019/01/14 14:55:59.000   4280213.1113  -4034419.1007  -2458260.6984   5   8  30.0000  30.0000  30.0000   0.0000   0.0000   0.0000  14.00    0.0
2019/01/14 14:56:00.000   4280213.1113  -4034419.1007  -2458260.6984   5   7  30.0000  30.0000  30.0000   0.0000   0.0000   0.0000   0.00    0.0
2019/01/14 14:56:01.000   4280213.1113  -4034419.1007  -2458260.6984   5   9  30.0000  30.0000  30.0000   0.0000   0.0000   0.0000   1.00    0.0
2019/01/14 14:56:02.000   4280213.1113  -4034419.1007  -2458260.6984   5   8  30.0000  30.0000  30.0000   0.0000   0.0000   0.0000   2.00    0.0
2019/01/14 14:56:03.000   4280213.1113  -4034419.1007  -2458260.6984   5   8  30.0000  30.0000  30.0000   0.0000   0.0000   0.0000   3.00    0.0
2019/01/14 14:56:05.000   4280213.1113  -4034419.1007  -2458260.6984   5   8  30.0000  30.0000  30.0000   0.0000   0.0000   0.0000   5.00    0.0
2019/01/14 14:56:06.000   4280213.1113  -4034419.1007  -2458260.6984   5   9  30.0000  30.0000  30.0000   0.0000   0.0000   0.0000   6.00    0.0
2019/01/14 14:56:07.000   4280213.1113  -4034419.1007  -2458260.6984   5   9  30.0000  30.0000  30.0000   0.0000   0.0000   0.0000   7.00    0.0
2019/01/14 14:56:08.000   4280213.1113  -4034419.1007  -2458260.6984   5   8  30.0000  30.0000  30.0000   0.0000   0.0000   0.0000   8.00    0.0
2019/01/14 14:56:09.000   4280213.1113  -4034419.1007  -2458260.6984   5   7  30.0000  30.0000  30.0000   0.0000   0.0000   0.0000   9.00    0.0
2019/01/14 14:56:10.000   4280213.1113  -4034419.1007  -2458260.6984   5   9  30.0000  30.0000  30.0000   0.0000   0.0000   0.0000  10.00    0.0
2019/01/14 14:56:11.000   4280213.1113  -4034419.1007  -2458260.6984   5   9  30.0000  30.0000  30.0000   0.0000   0.0000   0.0000  11.00    0.0
2019/01/14 14:56:12.000   4280213.1113  -4034419.1007  -2458260.6984   5   9  30.0000  30.0000  30.0000   0.0000   0.0000   0.0000  12.00    0.0
2019/01/14 14:56:13.000   4280213.1113  -4034419.1007  -2458260.6984   5   9  30.0000  30.0000  30.0000   0.0000   0.0000   0.0000  13.00    0.0
2019/01/14 14:56:14.000   4280213.1113  -4034419.1007  -2458260.6984   5   9  30.0000  30.0000  30.0000   0.0000   0.0000   0.0000  14.00    0.0
2019/01/14 14:56:15.000   4280213.1113  -4034419.1007  -2458260.6984   5   8  30.0000  30.0000  30.0000   0.0000   0.0000   0.0000   0.00    0.0
2019/01/14 14:56:16.000   4280213.1113  -4034419.1007  -2458260.6984   5   9  30.0000  30.0000  30.0000   0.0000   0.0000   0.0000   1.00    0.0
2019/01/14 14:56:17.000   4280213.1113  -4034419.1007  -2458260.6984   5   8  30.0000  30.0000  30.0000   0.0000   0.0000   0.0000   2.00    0.0
2019/01/14 14:56:18.000   4280213.1113  -4034419.1007  -2458260.6984   5   8  30.0000  30.0000  30.0000   0.0000   0.0000   0.0000   3.00    0.0
2019/01/14 14:56:19.000   4280213.1113  -4034419.1007  -2458260.6984   5   8  30.0000  30.0000  30.0000   0.0000   0.0000   0.0000   4.00    0.0
2019/01/14 14:56:20.000   4280213.1113  -4034419.1007  -2458260.6984   5   8  30.0000  30.0000  30.0000   0.0000   0.0000   0.0000   5.00    0.0
2019/01/14 14:56:21.000   4280213.1113  -4034419.1007  -2458260.6984   5   8  30.0000  30.0000  30.0000   0.0000   0.0000   0.0000   6.00    0.0
2019/01/14 14:56:22.000   4280213.1113  -4034419.1007  -2458260.6984   5   9  30.0000  30.0000  30.0000   0.0000   0.0000   0.0000   7.00    0.0
2019/01/14 14:56:23.000   4280213.1113  -4034419.1007  -2458260.6984   5   9  30.0000  30.0000  30.0000   0.0000   0.0000   0.0000   8.00    0.0
2019/01/14 14:56:24.000   4280213.1113  -4034419.1007  -2458260.6984   5   9  30.0000  30.0000  30.0000   0.0000   0.0000   0.0000   9.00    0.0
2019/01/14 14:56:25.000   4280213.1113  -4034419.1007  -2458260.6984   5   9  30.0000  30.0000  30.0000   0.0000   0.0000   0.0000  10.00    0.0
2019/01/14 14:56:26.000   4280213.1113  -4034419.1007  -2458260.6984   5   9  30.0000  30.0000  30.0000   0.0000   0.0000   0.0000  11.00    0.0
2019/01/14 14:56:27.000   4280213.1113  -4034419.1007  -2458260.6984   5   8  30.0000  30.0000  30.0000   0.0000   0.0000   0.0000  12.00    0.0
2019/01/14 14:56:28.000   4280213.1113  -4034419.1007  -2458260.6984   5   9  30.0000  30.0000  30.0000   0.0000   0.0000   0.0000  13.00    0.0
2019/01/14 14:56:29.000   4280213.1113  -4034419.1007  -2458260.6984   5   9  30.0000  30.0000  30.0000   0.0000   0.0000   0.0000  14.00    0.0
2019/01/14 14:56:30.000   4280213.1113  -4034419.1007  -2458260.6984   5   9  30.0000  30.0000  30.0000   0.0000   0.0000   0.0000   0.00    0.0
2019/01/14 14:56:31.000   4280213.1113  -4034419.1007  -2458260.6984   5   8  30.0000  30.0000  30.0000   0.0000   0.0000   0.0000   1.00    0.0
2019/01/14 14:56:32.000   4280213.1113  -4034419.1007  -2458260.6984   5   9  30.0000  30.0000  30.0000   0.0000   0.0000   0.0000   2.00    0.0
2019/01/14 14:56:33.000   4280213.1113  -4034419.1007  -2458260.6984   5   8  30.0000  30.0000  30.0000   0.0000   0.0000   0.0000   3.00    0.0
2019/01/14 14:56:34.000   4280213.1113  -4034419.1007  -2458260.6984   5   9  30.0000  30.0000  30.0000   0.0000   0.0000   0.0000   4.00    0.0
2019/01/14 14:56:35.000   4280213.1113  -4034419.1007  -2458260.6984   5   9  30.0000  30.0000  30.0000   0.0000   0.0000   0.0000   5.00    0.0
2019/01/14 14:56:36.000   4280213.1113  -4034419.1007  -2458260.6984   5   9  30.0000  30.0000  30.0000   0.0000   0.0000   0.0000   6.00    0.0
2019/01/14 14:56:37.000   4280213.1113  -4034419.1007  -2458260.6984   5   9  30.0000  30.0000  30.0000   0.0000   0.0000   0.0000   7.00    0.0
2019/01/14 14:56:38.000   4280213.1113  -4034419.1007  -2458260.6984   5   8  30.0000  30.0000  30.0000   0.0000   0.0000   0.0000   8.00    0.0
2019/01/14 14:56:39.000   4280213.1113  -4034419.1007  -2458260.6984   5   8  30.0000  30.0000  30.0000   0.0000   0.0000   0.0000   9.00    0.0
2019/01/14 14:56:40.000   4280213.1113  -4034419.1007  -2458260.6984   5   9  30.0000  30.0000  30.0000   0.0000   0.0000   0.0000  10.00    0.0
2019/01/14 14:56:41.000   4280213.1113  -4034419.1007  -2458260.6984   5   9  30.0000  30.0000  30.0000   0.0000   0.0000   0.0000  11.00    0.0
2019/01/14 14:56:42.000   4280213.1113  -4034419.1007  -2458260.6984   5   9  30.0000  30.0000  30.0000   0.0000   0.0000   0.0000  12.00    0.0
2019/01/14 14:56:43.000   4280213.1113  -4034419.1007  -2458260.6984   5   8  30.0000  30.0000  30.0000   0.0000   0.0000   0.0000  13.00    0.0
2019/01/14 14:56:44.000   4280213.1113  -4034419.1007  -2458260.6984   5   9  30.0000  30.0000  30.0000   0.0000   0.0000   0.0000  14.00    0.0
2019/01/14 14:56:45.000   4280213.1113  -4034419.1007  -2458260.6984   5   9  30.0000  30.0000  30.0000   0.0000   0.0000   0.0000   0.00    0.0
2019/01/14 14:56:46.000   4280213.1113  -4034419.1007  -2458260.6984   5   8  30.0000  30.0000  30.0000   0.0000   0.0000   0.0000   1.00    0.0
2019/01/14 14:56:47.000   4280213.1113  -4034419.1007  -2458260.6984   5   9  30.0000  30.0000  30.0000   0.0000   0.0000   0.0000   2.00    0.0
2019/01/14 14:56:48.000   4280213.1113  -4034419.1007  -2458260.6984   5   9  30.0000  30.0000  30.0000   0.0000   0.0000   0.0000   3.00    0.0
2019/01/14 14:56:49.000   4280213.1113  -4034419.1007  -2458260.6984   5   9  30.0000  30.0000  30.0000   0.0000   0.0000   0.0000   4.00    0.0
2019/01/14 14:56:50.000   4280213.1113  -4034419.1007  -2458260.6984   5   9  30.0000  30.0000  30.0000   0.0000   0.0000   0.0000   5.00    0.0
2019/01/14 14:56:51.000   4280213.1113  -4034419.1007  -2458260.6984   5   9  30.0000  30.0000  30.0000   0.0000   0.0000   0.0000   6.00    0.0
2019/01/14 14:56:52.000   4280213.1113  -4034419.1007  -2458260.6984   5   9  30.0000  30.0000  30.0000   0.0000   0.0000   0.0000   7.00    0.0
2019/01/14 14:56:53.000   4280213.1113  -4034419.1007  -2458260.6984   5   9  30.0000  30.0000  30.0000   0.0000   0.0000   0.0000   8.00    0.0
2019/01/14 14:56:54.000   4280213.1113  -4034419.1007  -2458260.6984   5   8  30.0000  30.0000  30.0000   0.0000   0.0000   0.0000   9.00    0.0
2019/01/14 14:56:55.000   4280213.1113  -4034419.1007  -2458260.6984   5   8  30.0000  30.0000  30.0000   0.0000   0.0000   0.0000  10.00    0.0
2019/01/14 14:56:56.000   4280213.1113  -4034419.1007  -2458260.6984   5   8  30.0000  30.0000  30.0000   0.0000   0.0000   0.0000  11.00    0.0
2019/01/14 14:56:57.000   4280213.1113  -4034419.1007  -2458260.6984   5   8  30.0000  30.0000  30.0000   0.0000   0.0000   0.0000  12.00    0.0
2019/01/14 14:56:58.000   4280213.1113  -4034419.1007  -2458260.6984   5   8  30.0000  30.0000  30.0000   0.0000   0.0000   0.0000  13.00    0.0
2019/01/14 14:56:59.000   4280213.1113  -4034419.1007  -2458260.6984   5   9  30.0000  30.0000  30.0000   0.0000   0.0000   0.0000  14.00    0.0
2019/01/14 14:57:00.000   4280213.1113  -4034419.1007  -2458260.6984   5   9  30.0000  30.0000  30.0000   0.0000   0.0000   0.0000   0.00    0.0
2019/01/14 14:57:01.000   4280213.1113  -4034419.1007  -2458260.6984   5   8  30.0000  30.0000  30.0000   0.0000   0.0000   0.0000   1.00    0.0
2019/01/14 14:57:02.000   4280213.1113  -4034419.1007  -2458260.6984   5   9  30.0000  30.0000  30.0000   0.0000   0.0000   0.0000   2.00    0.0
2019/01/14 14:57:03.000   4280213.1113  -4034419.1007  -2458260.6984   5   9  30.0000  30.0000  30.0000   0.0000   0.0000   0.0000   3.00    0.0
2019/01/14 14:57:04.000   4280213.1113  -4034419.1007  -2458260.6984   5   9  30.0000  30.0000  30.0000   0.0000   0.0000   0.0000   4.00    0.0
2019/01/14 14:57:05.000   4280213.1113  -4034419.1007  -2458260.6984   5   8  30.0000  30.0000  30.0000   0.0000   0.0000   0.0000   5.00    0.0
2019/01/14 14:57:06.000   4280213.1113  -4034419.1007  -2458260.6984   5   9  30.0000  30.0000  30.0000   0.0000   0.0000   0.0000   6.00    0.0
2019/01/14 14:57:07.000   4280213.1113  -4034419.1007  -2458260.6984   5   8  30.0000  30.0000  30.0000   0.0000   0.0000   0.0000   7.00    0.0
2019/01/14 14:57:08.000   4280213.1113  -4034419.1007  -2458260.6984   5   8  30.0000  30.0000  30.0000   0.0000   0.0000   0.0000   8.00    0.0
2019/01/14 14:57:09.000   4280213.1113  -4034419.1007  -2458260.6984   5   9  30.0000  30.0000  30.0000   0.0000   0.0000   0.0000   9.00    0.0
2019/01/14 14:57:10.000   4280213.1113  -4034419.1007  -2458260.6984   5   8  30.0000  30.0000  30.0000   0.0000   0.0000   0.0000  10.00    0.0
2019/01/14 14:57:11.000   4280213.1113  -4034419.1007  -2458260.6984   5   9  30.0000  30.0000  30.0000   0.0000   0.0000   0.0000  11.00    0.0
2019/01/14 14:57:12.000   4280213.1113  -4034419.1007  -2458260.6984   5   8  30.0000  30.0000  30.0000   0.0000   0.0000   0.0000  12.00    0.0
2019/01/14 14:57:13.000   4280213.1113  -4034419.1007  -2458260.6984   5   8  30.0000  30.0000  30.0000   0.0000   0.0000   0.0000  13.00    0.0
2019/01/14 14:57:14.000   4280213.1113  -4034419.1007  -2458260.6984   5   9  30.0000  30.0000  30.0000   0.0000   0.0000   0.0000  14.00    0.0
2019/01/14 14:57:15.000   4280213.1113  -4034419.1007  -2458260.6984   5   8  30.0000  30.0000  30.0000   0.0000   0.0000   0.0000   0.00    0.0
2019/01/14 14:57:16.000   4280213.1113  -4034419.1007  -2458260.6984   5   9  30.0000  30.0000  30.0000   0.0000   0.0000   0.0000   1.00    0.0
2019/01/14 14:57:17.000   4280213.1113  -4034419.1007  -2458260.6984   5   8  30.0000  30.0000  30.0000   0.0000   0.0000   0.0000   2.00    0.0
2019/01/14 14:57:18.000   4280213.1113  -4034419.1007  -2458260.6984   5   9  30.0000  30.0000  30.0000   0.0000   0.0000   0.0000   3.00    0.0
2019/01/14 14:57:19.000   4280213.1113  -4034419.1007  -2458260.6984   5   9  30.0000  30.0000  30.0000   0.0000   0.0000   0.0000   4.00    0.0
2019/01/14 14:57:20.000   4280213.1113  -4034419.1007  -2458260.6984   5   9  30.0000  30.0000  30.0000   0.0000   0.0000   0.0000   5.00    0.0
2019/01/14 14:57:21.000   4280213.1113  -4034419.1007  -2458260.6984   5   8  30.0000  30.0000  30.0000   0.0000   0.0000   0.0000   6.00    0.0
2019/01/14 14:57:22.000   4280213.1113  -4034419.1007  -2458260.6984   5   8  30.0000  30.0000  30.0000   0.0000   0.0000   0.0000   7.00    0.0
2019/01/14 14:57:23.000   4280213.1113  -4034419.1007  -2458260.6984   5   8  30.0000  30.0000  30.0000   0.0000   0.0000   0.0000   8.00    0.0
2019/01/14 14:57:24.000   4280213.1113  -4034419.1007  -2458260.6984   5   9  30.0000  30.0000  30.0000   0.0000   0.0000   0.0000   9.00    0.0
2019/01/14 14:57:25.000   4280213.1113  -4034419.1007  -2458260.6984   5   9  30.0000  30.0000  30.0000   0.0000   0.0000   0.0000  10.00    0.0
2019/01/14 14:57:26.000   4280213.1113  -4034419.1007  -2458260.6984   5   8  30.0000  30.0000  30.0000   0.0000   0.0000   0.0000  11.00    0.0
2019/01/14 14:57:27.000   4280213.1113  -4034419.1007  -2458260.6984   5   8  30.0000  30.0000  30.0000   0.0000   0.0000   0.0000  12.00    0.0
2019/01/14 14:57:28.000   4280213.1113  -4034419.1007  -2458260.6984   5   8  30.0000  30.0000  30.0000   0.0000   0.0000   0.0000  13.00    0.0
2019/01/14 14:57:29.000   4280213.1113  -4034419.1007  -2458260.6984   5   8  30.0000  30.0000  30.0000   0.0000   0.0000   0.0000  14.00    0.0
2019/01/14 14:57:30.000   4280213.1113  -4034419.1007  -2458260.6984   5   9  30.0000  30.0000  30.0000   0.0000   0.0000   0.0000   0.00    0.0
2019/01/14 14:57:31.000   4280213.1113  -4034419.1007  -2458260.6984   5   9  30.0000  30.0000  30.0000   0.0000   0.0000   0.0000   1.00    0.0
2019/01/14 14:57:32.000   4280213.1113  -4034419.1007  -2458260.6984   5   9  30.0000  30.0000  30.0000   0.0000   0.0000   0.0000   2.00    0.0
2019/01/14 14:57:33.000   4280213.1113  -4034419.1007  -2458260.6984   5   8  30.0000  30.0000  30.0000   0.0000   0.0000   0.0000   3.00    0.0
2019/01/14 14:57:34.000   4280213.1113  -4034419.1007  -2458260.6984   5   8  30.0000  30.0000  30.0000   0.0000   0.0000   0.0000   4.00    0.0
2019/01/14 14:57:35.000   4280213.1113  -4034419.1007  -2458260.6984   5   9  30.0000  30.0000  30.0000   0.0000   0.0000   0.0000   5.00    0.0
2019/01/14 14:57:36.000   4280213.1113  -4034419.1007  -2458260.6984   5   9  30.0000  30.0000  30.0000   0.0000   0.0000   0.0000   6.00    0.0
2019/01/14 14:57:37.000   4280213.1113  -4034419.1007  -2458260.6984   5   8  30.0000  30.0000  30.0000   0.0000   0.0000   0.0000   7.00    0.0
2019/01/14 14:57:38.000   4280213.1113  -4034419.1007  -2458260.6984   5   8  30.0000  30.0000  30.0000   0.0000   0.0000   0.0000   8.00    0.0
2019/01/14 14:57:39.000   4280213.1113  -4034419.1007  -2458260.6984   5   8  30.0000  30.0000  30.0000   0.0000   0.0000   0.0000   9.00    0.0
2019/01/14 14:57:40.000   4280213.1113  -4034419.1007  -2458260.6984   5   9  30.0000  30.0000  30.0000   0.0000   0.0000   0.0000  10.00    0.0
2019/01/14 14:57:41.000   4280213.1113  -4034419.1007  -2458260.6984   5   9  30.0000  30.0000  30.0000   0.0000   0.0000   0.0000  11.00    0.0
2019/01/14 14:57:42.000   4280213.1113  -4034419.1007  -2458260.6984   5   9  30.0000  30.0000  30.0000   0.0000   0.0000   0.0000  12.00    0.0
2019/01/14 14:57:43.000   4280213.1113  -4034419.1007  -2458260.6984   5   9  30.0000  30.0000  30.0000   0.0000   0.0000   0.0000  13.00    0.0
2019/01/14 14:57:44.000   4280213.1113  -4034419.1007  -2458260.6984   5   9  30.0000  30.0000  30.0000   0.0000   0.0000   0.0000  14.00    0.0
2019/01/14 14:57:45.000   4280213.1113  -4034419.1007  -2458260.6984   5   9  30.0000  30.0000  30.0000   0.0000   0.0000   0.0000   0.00    0.0
2019/01/14 14:57:46.000   4280213.1113  -4034419.1007  -2458260.6984   5   9  30.0000  30.0000  30.0000   0.0000   0.0000   0.0000   1.00    0.0
2019/01/14 14:57:47.000   4280213.1113  -4034419.1007  -2458260.6984   5   8  30.0000  30.0000  30.0000   0.0000   0.0000   0.0000   2.00    0.0
2019/01/14 14:57:48.000   4280213.1113  -4034419.1007  -2458260.6984   5   8  30.0000  30.0000  30.0000   0.0000   0.0000   0.0000   3.00    0.0
2019/01/14 14:57:49.000   4280213.1113  -4034419.1007  -2458260.6984   5   9  30.0000  30.0000  30.0000   0.0000   0.0000   0.0000   4.00    0.0
2019/01/14 14:57:50.000   4280213.1113  -4034419.1007  -2458260.6984   5   9  30.0000  30.0000  30.0000   0.0000   0.0000   0.0000   5.00    0.0
2019/01/14 14:57:51.000   4280213.1113  -4034419.1007  -2458260.6984   5   9  30.0000  30.0000  30.0000   0.0000   0.0000   0.0000   6.00    0.0
2019/01/14 14:57:52.000   4280213.1113  -4034419.1007  -2458260.6984   5   8  30.0000  30.0000  30.0000   0.0000   0.0000   0.0000   7.00    0.0
2019/01/14 14:57:53.000   4280213.1113  -4034419.1007  -2458260.6984   5   9  30.0000  30.0000  30.0000   0.0000   0.0000   0.0000   8.00    0.0
2019/01/14 14:57:54.000   4280213.1113  -4034419.1007  -2458260.6984   5   8  30.0000  30.0000  30.0000   0.0000   0.0000   0.0000   9.00    0.0
2019/01/14 14:57:55.000   4280213.1113  -4034419.1007  -2458260.6984   5   9  30.0000  30.0000  30.0000   0.0000   0.0000   0.0000  10.00    0.0
2019/01/14 14:57:56.000   4280213.1113  -4034419.1007  -2458260.6984   5   9  30.0000  30.0000  30.0000   0.0000   0.0000   0.0000  11.00    0.0
2019/01/14 14:57:57.000   4280213.1113  -4034419.1007  -2458260.6984   5   9  30.0000  30.0000  30.0000   0.0000   0.0000   0.0000  12.00    0.0
2019/01/14 14:57:58.000   4280213.1113  -4034419.1007  -2458260.6984   5   8  30.0000  30.0000  30.0000   0.0000   0.0000   0.0000  13.00    0.0
2019/01/14 14:57:59.000   4280213.1113  -4034419.1007  -2458260.6984   5   8  30.0000  30.0000  30.0000   0.0000   0.0000   0.0000  14.00    0.0
2019/01/14 14:58:00.000   4280213.1113  -4034419.1007  -2458260.6984   5   8  30.0000  30.0000  30.0000   0.0000   0.0000   0.0000   0.00    0.0
2019/01/14 14:58:01.000   4280213.1113  -4034419.1007  -2458260.6984   5   8  30.0000  30.0000  30.0000   0.0000   0.0000   0.0000   1.00    0.0
2019/01/14 14:58:02.000   4280213.1113  -4034419.1007  -2458260.6984   5   9  30.0000  30.0000  30.0000   0.0000   0.0000   0.0000   2.00    0.0
2019/01/14 14:58:03.000   4280213.1113  -4034419.1007  -2458260.6984   5   9  30.0000  30.0000  30.0000   0.0000   0.0000   0.0000   3.00    0.0
2019/01/14 14:58:04.000   4280213.1113  -4034419.1007  -2458260.6984   5   8  30.0000  30.0000  30.0000   0.0000   0.0000   0.0000   4.00    0.0
2019/01/14 14:58:05.000   4280213.1113  -4034419.1007  -2458260.6984   5   9  30.0000  30.0000  30.0000   0.0000   0.0000   0.0000   5.00    0.0
2019/01/14 14:58:06.000   4280213.1113  -4034419.1007  -2458260.6984   5   9  30.0000  30.0000  30.0000   0.0000   0.0000   0.0000   6.00    0.0
2019/01/14 14:58:07.000   4280213.1113  -4034419.1007  -2458260.6984   5   9  30.0000  30.0000  30.0000   0.0000   0.0000   0.0000   7.00    0.0
2019/01/14 14:58:08.000   4280213.1113  -4034419.1007  -2458260.6984   5   9  30.0000  30.0000  30.0000   0.0000   0.0000   0.0000   8.00    0.0
2019/01/14 14:58:09.000   4280213.1113  -4034419.1007  -2458260.6984   5   9  30.0000  30.0000  30.0000   0.0000   0.0000   0.0000   9.00    0.0
2019/01/14 14:58:10.000   4280213.1113  -4034419.1007  -2458260.6984   5   9  30.0000  30.0000  30.0000   0.0000   0.0000   0.0000  10.00    0.0
2019/01/14 14:58:11.000   4280213.1113  -4034419.1007  -2458260.6984   5   8  30.0000  30.0000  30.0000   0.0000   0.0000   0.0000  11.00    0.0
2019/01/14 14:58:12.000   4280213.1113  -4034419.1007  -2458260.6984   5   8  30.0000  30.0000  30.0000   0.0000   0.0000   0.0000  12.00    0.0
2019/01/14 14:58:13.000   4280213.1113  -4034419.1007  -2458260.6984   5   9  30.0000  30.0000  30.0000   0.0000   0.0000   0.0000  13.00    0.0
2019/01/14 14:58:14.000   4280213.1113  -4034419.1007  -2458260.6984   5   9  30.0000  30.0000  30.0000   0.0000   0.0000   0.0000  14.00    0.0
2019/01/14 14:58:15.000   4280213.1113  -4034419.1007  -2458260.6984   5   9  30.0000  30.0000  30.0000   0.0000   0.0000   0.0000   0.00    0.0
2019/01/14 14:58:16.000   4280213.1113  -4034419.1007  -2458260.6984   5   9  30.0000  30.0000  30.0000   0.0000   0.0000   0.0000   1.00    0.0
2019/01/14 14:58:17.000   4280213.1113  -4034419.1007  -2458260.6984   5   9  30.0000  30.0000  30.0000   0.0000   0.0000   0.0000   2.00    0.0
2019/01/14 14:58:18.000   4280213.1113  -4034419.1007  -2458260.6984   5   9  30.0000  30.0000  30.0000   0.0000   0.0000   0.0000   3.00    0.0
2019/01/14 14:58:19.000   4280213.1113  -4034419.1007  -2458260.6984   5   9  30.0000  30.0000  30.0000   0.0000   0.0000   0.0000   4.00    0.0
2019/01/14 14:58:20.000   4280213.1113  -4034419.1007  -2458260.6984   5   9  30.0000  30.0000  30.0000   0.0000   0.0000   0.0000   5.00    0.0
2019/01/14 14:58:21.000   4280213.1113  -4034419.1007  -2458260.6984   5   9  30.0000  30.0000  30.0000   0.0000   0.0000   0.0000   6.00    0.0
2019/01/14 14:58:22.000   4280213.1113  -4034419.1007  -2458260.6984   5   8  30.0000  30.0000  30.0000   0.0000   0.0000   0.0000   7.00    0.0
2019/01/14 14:58:23.000   4280213.1113  -4034419.1007  -2458260.6984   5   9  30.0000  30.0000  30.0000   0.0000   0.0000   0.0000   8.00    0.0
2019/01/14 14:58:24.000   4280213.1113  -4034419.1007  -2458260.6984   5   9  30.0000  30.0000  30.0000   0.0000   0.0000   0.0000   9.00    0.0
2019/01/14 14:58:25.000   4280213.1113  -4034419.1007  -2458260.6984   5   8  30.0000  30.0000  30.0000   0.0000   0.0000   0.0000  10.00    0.0
2019/01/14 14:58:26.000   4280213.1113  -4034419.1007  -2458260.6984   5   8  30.0000  30.0000  30.0000   0.0000   0.0000   0.0000  11.00    0.0
2019/01/14 14:58:28.000   4280213.1113  -4034419.1007  -2458260.6984   5   8  30.0000  30.0000  30.0000   0.0000   0.0000   0.0000  13.00    0.0
2019/01/14 14:58:29.000   4280213.1113  -4034419.1007  -2458260.6984   5   9  30.0000  30.0000  30.0000   0.0000   0.0000   0.0000  14.00    0.0
2019/01/14 14:58:30.000   4280213.1113  -4034419.1007  -2458260.6984   5   8  30.0000  30.0000  30.0000   0.0000   0.0000   0.0000   0.00    0.0
2019/01/14 14:58:31.000   4280213.1113  -4034419.1007  -2458260.6984   5   9  30.0000  30.0000  30.0000   0.0000   0.0000   0.0000   1.00    0.0
2019/01/14 14:58:32.000   4280213.1113  -4034419.1007  -2458260.6984   5   9  30.0000  30.0000  30.0000   0.0000   0.0000   0.0000   2.00    0.0
2019/01/14 14:58:33.000   4280213.1113  -4034419.1007  -2458260.6984   5   8  30.0000  30.0000  30.0000   0.0000   0.0000   0.0000   3.00    0.0
2019/01/14 14:58:34.000   4280213.1113  -4034419.1007  -2458260.6984   5   8  30.0000  30.0000  30.0000   0.0000   0.0000   0.0000   4.00    0.0
2019/01/14 14:58:35.000   4280213.1113  -4034419.1007  -2458260.6984   5   9  30.0000  30.0000  30.0000   0.0000   0.0000   0.0000   5.00    0.0
2019/01/14 14:58:36.000   4280213.1113  -4034419.1007  -2458260.6984   5   9  30.0000  30.0000  30.0000   0.0000   0.0000   0.0000   6.00    0.0
2019/01/14 14:58:37.000   4280213.1113  -4034419.1007  -2458260.6984   5   9  30.0000  30.0000  30.0000   0.0000   0.0000   0.0000   7.00    0.0
2019/01/14 14:58:38.000   4280213.1113  -4034419.1007  -2458260.6984   5   9  30.0000  30.0000  30.0000   0.0000   0.0000   0.0000   8.00    0.0
2019/01/14 14:58:39.000   4280213.1113  -4034419.1007  -2458260.6984   5   9  30.0000  30.0000  30.0000   0.0000   0.0000   0.0000   9.00    0.0
2019/01/14 14:58:40.000   4280213.1113  -4034419.1007  -2458260.6984   5   9  30.0000  30.0000  30.0000   0.0000   0.0000   0.0000  10.00    0.0
2019/01/14 14:58:41.000   4280213.1113  -4034419.1007  -2458260.6984   5   9  30.0000  30.0000  30.0000   0.0000   0.0000   0.0000  11.00    0.0
2019/01/14 14:58:42.000   4280213.1113  -4034419.1007  -2458260.6984   5   8  30.0000  30.0000  30.0000   0.0000   0.0000   0.0000  12.00    0.0
2019/01/14 14:58:43.000   4280213.1113  -4034419.1007  -2458260.6984   5   8  30.0000  30.0000  30.0000   0.0000   0.0000   0.0000  13.00    0.0
2019/01/14 14:58:44.000   4280213.1113  -4034419.1007  -2458260.6984   5   9  30.0000  30.0000  30.0000   0.0000   0.0000   0.0000  14.00    0.0
2019/01/14 14:58:45.000   4280213.1113  -4034419.1007  -2458260.6984   5   9  30.0000  30.0000  30.0000   0.0000   0.0000   0.0000   0.00    0.0
2019/01/14 14:58:46.000   4280213.1113  -4034419.1007  -2458260.6984   5   9  30.0000  30.0000  30.0000   0.0000   0.0000   0.0000   1.00    0.0
2019/01/14 14:58:47.000   4280213.1113  -4034419.1007  -2458260.6984   5   9  30.0000  30.0000  30.0000   0.0000   0.0000   0.0000   2.00    0.0
2019/01/14 14:58:48.000   4280213.1113  -4034419.1007  -2458260.6984   5   9  30.0000  30.0000  30.0000   0.0000   0.0000   0.0000   3.00    0.0
2019/01/14 14:58:49.000   4280213.1113  -4034419.1007  -2458260.6984   5   9  30.0000  30.0000  30.0000   0.0000   0.0000   0.0000   4.00    0.0
2019/01/14 14:58:50.000   4280213.1113  -4034419.1007  -2458260.6984   5   9  30.0000  30.0000  30.0000   0.0000   0.0000   0.0000   5.00    0.0
2019/01/14 14:58:51.000   4280213.1113  -4034419.1007  -2458260.6984   5   9  30.0000  30.0000  30.0000   0.0000   0.0000   0.0000   6.00    0.0
2019/01/14 14:58:52.000   4280213.1113  -4034419.1007  -2458260.6984   5   9  30.0000  30.0000  30.0000   0.0000   0.0000   0.0000   7.00    0.0
2019/01/14 14:58:53.000   4280213.1113  -4034419.1007  -2458260.6984   5   8  30.0000  30.0000  30.0000   0.0000   0.0000   0.0000   8.00    0.0
2019/01/14 14:58:54.000   4280213.1113  -4034419.1007  -2458260.6984   5   9  30.0000  30.0000  30.0000   0.0000   0.0000   0.0000   9.00    0.0
2019/01/14 14:58:55.000   4280213.1113  -4034419.1007  -2458260.6984   5   9  30.0000  30.0000  30.0000   0.0000   0.0000   0.0000  10.00    0.0
2019/01/14 14:58:56.000   4280213.1113  -4034419.1007  -2458260.6984   5   9  30.0000  30.0000  30.0000   0.0000   0.0000   0.0000  11.00    0.0
2019/01/14 14:58:57.000   4280213.1113  -4034419.1007  -2458260.6984   5   9  30.0000  30.0000  30.0000   0.0000   0.0000   0.0000  12.00    0.0
2019/01/14 14:58:58.000   4280213.1113  -4034419.1007  -2458260.6984   5   8  30.0000  30.0000  30.0000   0.0000   0.0000   0.0000  13.00    0.0
2019/01/14 14:58:59.000   4280213.1113  -4034419.1007  -2458260.6984   5   9  30.0000  30.0000  30.0000   0.0000   0.0000   0.0000  14.00    0.0
2019/01/14 14:59:00.000   4280213.1113  -4034419.1007  -2458260.6984   5   9  30.0000  30.0000  30.0000   0.0000   0.0000   0.0000   0.00    0.0
2019/01/14 14:59:01.000   4280213.1113  -4034419.1007  -2458260.6984   5   9  30.0000  30.0000  30.0000   0.0000   0.0000   0.0000   1.00    0.0
2019/01/14 14:59:02.000   4280213.1113  -4034419.1007  -2458260.6984   5   8  30.0000  30.0000  30.0000   0.0000   0.0000   0.0000   2.00    0.0
2019/01/14 14:59:03.000   4280213.1113  -4034419.1007  -2458260.6984   5   8  30.0000  30.0000  30.0000   0.0000   0.0000   0.0000   3.00    0.0
2019/01/14 14:59:04.000   4280213.1113  -4034419.1007  -2458260.6984   5   8  30.0000  30.0000  30.0000   0.0000   0.0000   0.0000   4.00    0.0
2019/01/14 14:59:05.000   4280213.1113  -4034419.1007  -2458260.6984   5   9  30.0000  30.0000  30.0000   0.0000   0.0000   0.0000   5.00    0.0
2019/01/14 14:59:06.000   4280213.1113  -4034419.1007  -2458260.6984   5   8  30.0000  30.0000  30.0000   0.0000   0.0000   0.0000   6.00    0.0
2019/01/14 14:59:07.000   4280213.1113  -4034419.1007  -2458260.6984   5   8  30.0000  30.0000  30.0000   0.0000   0.0000   0.0000   7.00    0.0
2019/01/14 14:59:08.000   4280213.1113  -4034419.1007  -2458260.6984   5   8  30.0000  30.0000  30.0000   0.0000   0.0000   0.0000   8.00    0.0
2019/01/14 14:59:09.000   4280213.1113  -4034419.1007  -2458260.6984   5   9  30.0000  30.0000  30.0000   0.0000   0.0000   0.0000   9.00    0.0
2019/01/14 14:59:10.000   4280213.1113  -4034419.1007  -2458260.6984   5   9  30.0000  30.0000  30.0000   0.0000   0.0000   0.0000  10.00    0.0
2019/01/14 14:59:11.000   4280213.1113  -4034419.1007  -2458260.6984   5   8  30.0000  30.0000  30.0000   0.0000   0.0000   0.0000  11.00    0.0
2019/01/14 14:59:12.000   4280213.1113  -4034419.1007  -2458260.6984   5   8  30.0000  30.0000  30.0000   0.0000   0.0000   0.0000  12.00    0.0
2019/01/14 14:59:13.000   4280213.1113  -4034419.1007  -2458260.6984   5   9  30.0000  30.0000  30.0000   0.0000   0.0000   0.0000  13.00    0.0
2019/01/14 14:59:14.000   4280213.1113  -4034419.1007  -2458260.6984   5   9  30.0000  30.0000  30.0000   0.0000   0.0000   0.0000  14.00    0.0
2019/01/14 14:59:15.000   4280213.1113  -4034419.1007  -2458260.6984   5   9  30.0000  30.0000  30.0000   0.0000   0.0000   0.0000   0.00    0.0
2019/01/14 14:59:16.000   4280213.1113  -4034419.1007  -2458260.6984   5   9  30.0000  30.0000  30.0000   0.0000   0.0000   0.0000   1.00    0.0
2019/01/14 14:59:17.000   4280213.1113  -4034419.1007  -2458260.6984   5   9  30.0000  30.0000  30.0000   0.0000   0.0000   0.0000   2.00    0.0
2019/01/14 14:59:18.000   4280213.1113  -4034419.1007  -2458260.6984   5   9  30.0000  30.0000  30.0000   0.0000   0.0000   0.0000   3.00    0.0
2019/01/14 14:59:19.000   4280213.1113  -4034419.1007  -2458260.6984   5   9  30.0000  30.0000  30.0000   0.0000   0.0000   0.0000   4.00    0.0
2019/01/14 14:59:20.000   4280213.1113  -4034419.1007  -2458260.6984   5   9  30.0000  30.0000  30.0000   0.0000   0.0000   0.0000   5.00    0.0
2019/01/14 14:59:21.000   4280213.1113  -4034419.1007  -2458260.6984   5   8  30.0000  30.0000  30.0000   0.0000   0.0000   0.0000   6.00    0.0
2019/01/14 14:59:22.000   4280213.1113  -4034419.1007  -2458260.6984   5   9  30.0000  30.0000  30.0000   0.0000   0.0000   0.0000   7.00    0.0
2019/01/14 14:59:23.000   4280213.1113  -4034419.1007  -2458260.6984   5   9  30.0000  30.0000  30.0000   0.0000   0.0000   0.0000   8.00    0.0
2019/01/14 14:59:24.000   4280213.1113  -4034419.1007  -2458260.6984   5   9  30.0000  30.0000  30.0000   0.0000   0.0000   0.0000   9.00    0.0
2019/01/14 14:59:25.000   4280213.1113  -4034419.1007  -2458260.6984   5   9  30.0000  30.0000  30.0000   0.0000   0.0000   0.0000  10.00    0.0
2019/01/14 14:59:26.000   4280213.1113  -4034419.1007  -2458260.6984   5   9  30.0000  30.0000  30.0000   0.0000   0.0000   0.0000  11.00    0.0
2019/01/14 14:59:27.000   4280213.1113  -4034419.1007  -2458260.6984   5   9  30.0000  30.0000  30.0000   0.0000   0.0000   0.0000  12.00    0.0
2019/01/14 14:59:28.000   4280213.1113  -4034419.1007  -2458260.6984   5   9  30.0000  30.0000  30.0000   0.0000   0.0000   0.0000  13.00    0.0
2019/01/14 14:59:29.000   4280213.1113  -4034419.1007  -2458260.6984   5   9  30.0000  30.0000  30.0000   0.0000   0.0000   0.0000  14.00    0.0
2019/01/14 14:59:30.000   4280213.1113  -4034419.1007  -2458260.6984   5   8  30.0000  30.0000  30.0000   0.0000   0.0000   0.0000   0.00    0.0
2019/01/14 14:59:31.000   4280213.1113  -4034419.1007  -2458260.6984   5   9  30.0000  30.0000  30.0000   0.0000   0.0000   0.0000   1.00    0.0
2019/01/14 14:59:32.000   4280213.1113  -4034419.1007  -2458260.6984   5   9  30.0000  30.0000  30.0000   0.0000   0.0000   0.0000   2.00    0.0
2019/01/14 14:59:33.000   4280213.1113  -4034419.1007  -2458260.6984   5   9  30.0000  30.0000  30.0000   0.0000   0.0000   0.0000   3.00    0.0
2019/01/14 14:59:34.000   4280213.1113  -4034419.1007  -2458260.6984   5   8  30.0000  30.0000  30.0000   0.0000   0.0000   0.0000   4.00    0.0
2019/01/14 14:59:35.000   4280213.1113  -4034419.1007  -2458260.6984   5   8  30.0000  30.0000  30.0000   0.0000   0.0000   0.0000   5.00    0.0
2019/01/14 14:59:36.000   4280213.1113  -4034419.1007  -2458260.6984   5   8  30.0000  30.0000  30.0000   0.0000   0.0000   0.0000   6.00    0.0
2019/01/14 14:59:37.000   4280213.1113  -4034419.1007  -2458260.6984   5   9  30.0000  30.0000  30.0000   0.0000   0.0000   0.0000   7.00    0.0
2019/01/14 14:59:38.000   4280213.1113  -4034419.1007  -2458260.6984   5   9  30.0000  30.0000  30.0000   0.0000   0.0000   0.0000   8.00    0.0
2019/01/14 14:59:39.000   4280213.1113  -4034419.1007  -2458260.6984   5   9  30.0000  30.0000  30.0000   0.0000   0.0000   0.0000   9.00    0.0
2019/01/14 14:59:40.000   4280213.1113  -4034419.1007  -2458260.6984   5   9  30.0000  30.0000  30.0000   0.0000   0.0000   0.0000  10.00    0.0
2019/01/14 14:59:41.000   4280213.1113  -4034419.1007  -2458260.6984   5   8  30.0000  30.0000  30.0000   0.0000   0.0000   0.0000  11.00    0.0
2019/01/14 14:59:42.001   4280213.1113  -4034419.1007  -2458260.6984   5   9  30.0000  30.0000  30.0000   0.0000   0.0000   0.0000  12.00    0.0
2019/01/14 14:59:43.001   4280213.1113  -4034419.1007  -2458260.6984   5   9  30.0000  30.0000  30.0000   0.0000   0.0000   0.0000  13.00    0.0
2019/01/14 14:59:44.000   4280213.1113  -4034419.1007  -2458260.6984   5   9  30.0000  30.0000  30.0000   0.0000   0.0000   0.0000  14.00    0.0
2019/01/14 14:59:45.000   4280213.1113  -4034419.1007  -2458260.6984   5   9  30.0000  30.0000  30.0000   0.0000   0.0000   0.0000  -0.00    0.0
2019/01/14 14:59:46.000   4280213.1113  -4034419.1007  -2458260.6984   5   8  30.0000  30.0000  30.0000   0.0000   0.0000   0.0000   1.00    0.0
2019/01/14 14:59:47.000   4280213.1113  -4034419.1007  -2458260.6984   5   9  30.0000  30.0000  30.0000   0.0000   0.0000   0.0000   2.00    0.0
2019/01/14 14:59:48.000   4280213.1113  -4034419.1007  -2458260.6984   5   9  30.0000  30.0000  30.0000   0.0000   0.0000   0.0000   3.00    0.0
2019/01/14 14:59:49.000   4280213.1113  -4034419.1007  -2458260.6984   5   8  30.0000  30.0000  30.0000   0.0000   0.0000   0.0000   4.00    0.0
2019/01/14 14:59:50.000   4280213.1113  -4034419.1007  -2458260.6984   5   9  30.0000  30.0000  30.0000   0.0000   0.0000   0.0000   5.00    0.0
2019/01/14 14:59:51.000   4280213.1113  -4034419.1007  -2458260.6984   5   8  30.0000  30.0000  30.0000   0.0000   0.0000   0.0000   6.00    0.0
2019/01/14 14:59:52.000   4280213.1113  -4034419.1007  -2458260.6984   5   8  30.0000  30.0000  30.0000   0.0000   0.0000   0.0000   7.00    0.0
2019/01/14 14:59:53.000   4280213.1113  -4034419.1007  -2458260.6984   5   9  30.0000  30.0000  30.0000   0.0000   0.0000   0.0000   8.00    0.0
2019/01/14 14:59:54.000   4280213.1113  -4034419.1007  -2458260.6984   5   9  30.0000  30.0000  30.0000   0.0000   0.0000   0.0000   9.00    0.0
2019/01/14 14:59:55.000   4280213.1113  -4034419.1007  -2458260.6984   5   9  30.0000  30.0000  30.0000   0.0000   0.0000   0.0000  10.00    0.0
2019/01/14 14:59:56.000   4280213.1113  -4034419.1007  -2458260.6984   5   9  30.0000  30.0000  30.0000   0.0000   0.0000   0.0000  11.00    0.0
2019/01/14 14:59:57.000   4280213.1113  -4034419.1007  -2458260.6984   5   8  30.0000  30.0000  30.0000   0.0000   0.0000   0.0000  12.00    0.0
2019/01/14 14:59:58.000   4280213.1113  -4034419.1007  -2458260.6984   5   9  30.0000  30.0000  30.0000   0.0000   0.0000   0.0000  13.00    0.0
2019/01/14 14:59:59.000   4280213.1113  -4034419.1007  -2458260.6984   5   9  30.0000  30.0000  30.0000   0.0000   0.0000   0.0000  14.00    0.0
2019/01/14 15:00:00.000   4280213.1113  -4034419.1007  -2458260.6984   5   9  30.0000  30.0000  30.0000   0.0000   0.0000   0.0000  -0.00    0.0
