% program   : RTKPOST ver.2.4.2
% inp file  : D:\Google Drive\UERJ\_Projeto Final\20190114_Marco 91500 IBGE\IBGE014Q.19o
% inp file  : D:\Google Drive\UERJ\_Projeto Final\20190114_Marco 91500 IBGE\riod0141\riod0141.19d
% inp file  : D:\Google Drive\UERJ\_Projeto Final\20190114_Marco 91500 IBGE\brdm0140.19p
% obs start : 2019/01/14 16:12:21.0 GPST (week2036 144741.0s)
% obs end   : 2019/01/14 16:18:07.0 GPST (week2036 145087.0s)
% pos mode  : static
% freqs     : L1
% solution  : forward
% elev mask : 15.0 deg
% dynamics  : off
% tidecorr  : off
% ionos opt : broadcast
% tropo opt : saastamoinen
% ephemeris : broadcast
% navi sys  : gps glonass
% amb res   : fix and hold
% amb glo   : on
% val thres : 3.0
% antenna1  :                       ( 0.0000  0.0000  0.0000)
% antenna2  :                       ( 0.0000  0.0000  0.0080)
% ref pos   :  4280294.8840  -4034431.2298  -2458141.3831
%
% (x/y/z-ecef=WGS84,Q=1:fix,2:float,3:sbas,4:dgps,5:single,6:ppp,ns=# of satellites)
%  GPST                      x-ecef(m)      y-ecef(m)      z-ecef(m)   Q  ns   sdx(m)   sdy(m)   sdz(m)  sdxy(m)  sdyz(m)  sdzx(m) age(s)  ratio
2019/01/14 16:12:21.000   4280219.3508  -4034418.2581  -2458259.6728   2   9   1.5602   1.4772   0.8208  -1.3249   0.8119  -0.9511   6.00    1.4
2019/01/14 16:12:22.000   4280211.7040  -4034407.7061  -2458257.9490   2   9   1.1119   1.0536   0.5843  -0.9449   0.5797  -0.6773   7.00    1.1
2019/01/14 16:12:23.000   4280217.4520  -4034412.0321  -2458260.3519   2   7   0.9424   0.9653   0.5185  -0.8534   0.5579  -0.5891   8.00    1.7
2019/01/14 16:12:24.000   4280217.4520  -4034412.0321  -2458260.3519   5  13   0.9424   0.9653   0.5185  -0.8534   0.5579  -0.5891   9.00    0.0
2019/01/14 16:12:26.000   4280217.4520  -4034412.0321  -2458260.3519   5  12   0.9424   0.9653   0.5185  -0.8534   0.5579  -0.5891  11.00    0.0
2019/01/14 16:12:27.000   4280217.4520  -4034412.0321  -2458260.3519   5  13   0.9424   0.9653   0.5185  -0.8534   0.5579  -0.5891  12.00    0.0
2019/01/14 16:12:28.000   4280217.4520  -4034412.0321  -2458260.3519   5  13   0.9424   0.9653   0.5185  -0.8534   0.5579  -0.5891  13.00    0.0
2019/01/14 16:12:29.000   4280217.4520  -4034412.0321  -2458260.3519   5  13   0.9424   0.9653   0.5185  -0.8534   0.5579  -0.5891  14.00    0.0
2019/01/14 16:12:30.000   4280217.4520  -4034412.0321  -2458260.3519   5  12   0.9424   0.9653   0.5185  -0.8534   0.5579  -0.5891  -0.00    0.0
2019/01/14 16:12:31.000   4280217.4520  -4034412.0321  -2458260.3519   5  13   0.9424   0.9653   0.5185  -0.8534   0.5579  -0.5891   1.00    0.0
2019/01/14 16:12:32.000   4280217.4520  -4034412.0321  -2458260.3519   5  12   0.9424   0.9653   0.5185  -0.8534   0.5579  -0.5891   2.00    0.0
2019/01/14 16:12:33.000   4280217.4520  -4034412.0321  -2458260.3519   5  13   0.9424   0.9653   0.5185  -0.8534   0.5579  -0.5891   3.00    0.0
2019/01/14 16:12:34.000   4280217.4520  -4034412.0321  -2458260.3519   5  12   0.9424   0.9653   0.5185  -0.8534   0.5579  -0.5891   4.00    0.0
2019/01/14 16:12:35.000   4280217.4520  -4034412.0321  -2458260.3519   5  12   0.9424   0.9653   0.5185  -0.8534   0.5579  -0.5891   5.00    0.0
2019/01/14 16:12:36.000   4280217.4520  -4034412.0321  -2458260.3519   5  13   0.9424   0.9653   0.5185  -0.8534   0.5579  -0.5891   6.00    0.0
2019/01/14 16:12:37.000   4280217.4520  -4034412.0321  -2458260.3519   5  13   0.9424   0.9653   0.5185  -0.8534   0.5579  -0.5891   7.00    0.0
2019/01/14 16:12:38.000   4280217.4520  -4034412.0321  -2458260.3519   5  13   0.9424   0.9653   0.5185  -0.8534   0.5579  -0.5891   8.00    0.0
2019/01/14 16:12:39.000   4280217.4520  -4034412.0321  -2458260.3519   5  13   0.9424   0.9653   0.5185  -0.8534   0.5579  -0.5891   9.00    0.0
2019/01/14 16:12:40.000   4280217.4520  -4034412.0321  -2458260.3519   5  12   0.9424   0.9653   0.5185  -0.8534   0.5579  -0.5891  10.00    0.0
2019/01/14 16:12:41.000   4280217.4520  -4034412.0321  -2458260.3519   5  13   0.9424   0.9653   0.5185  -0.8534   0.5579  -0.5891  11.00    0.0
2019/01/14 16:12:43.000   4280217.4520  -4034412.0321  -2458260.3519   5  12   0.9424   0.9653   0.5185  -0.8534   0.5579  -0.5891  13.00    0.0
2019/01/14 16:12:44.000   4280217.4520  -4034412.0321  -2458260.3519   5  12   0.9424   0.9653   0.5185  -0.8534   0.5579  -0.5891  14.00    0.0
2019/01/14 16:12:45.000   4280217.4520  -4034412.0321  -2458260.3519   5  12   0.9424   0.9653   0.5185  -0.8534   0.5579  -0.5891  -0.00    0.0
2019/01/14 16:12:46.000   4280217.4520  -4034412.0321  -2458260.3519   5  11   0.9424   0.9653   0.5185  -0.8534   0.5579  -0.5891   1.00    0.0
2019/01/14 16:12:47.000   4280217.4520  -4034412.0321  -2458260.3519   5  12   0.9424   0.9653   0.5185  -0.8534   0.5579  -0.5891   2.00    0.0
2019/01/14 16:12:48.000   4280217.4520  -4034412.0321  -2458260.3519   5  12   0.9424   0.9653   0.5185  -0.8534   0.5579  -0.5891   3.00    0.0
2019/01/14 16:12:49.000   4280217.4520  -4034412.0321  -2458260.3519   5  11   0.9424   0.9653   0.5185  -0.8534   0.5579  -0.5891   4.00    0.0
2019/01/14 16:12:50.000   4280217.4520  -4034412.0321  -2458260.3519   5  11   0.9424   0.9653   0.5185  -0.8534   0.5579  -0.5891   5.00    0.0
2019/01/14 16:12:51.000   4280217.4520  -4034412.0321  -2458260.3519   5  12   0.9424   0.9653   0.5185  -0.8534   0.5579  -0.5891   6.00    0.0
2019/01/14 16:12:52.000   4280217.4520  -4034412.0321  -2458260.3519   5  13   0.9424   0.9653   0.5185  -0.8534   0.5579  -0.5891   7.00    0.0
2019/01/14 16:12:53.000   4280217.4520  -4034412.0321  -2458260.3519   5  12   0.9424   0.9653   0.5185  -0.8534   0.5579  -0.5891   8.00    0.0
2019/01/14 16:12:54.000   4280217.4520  -4034412.0321  -2458260.3519   5  12   0.9424   0.9653   0.5185  -0.8534   0.5579  -0.5891   9.00    0.0
2019/01/14 16:12:55.000   4280217.4520  -4034412.0321  -2458260.3519   5  12   0.9424   0.9653   0.5185  -0.8534   0.5579  -0.5891  10.00    0.0
2019/01/14 16:12:57.000   4280217.4520  -4034412.0321  -2458260.3519   5  12   0.9424   0.9653   0.5185  -0.8534   0.5579  -0.5891  12.00    0.0
2019/01/14 16:12:58.000   4280217.4520  -4034412.0321  -2458260.3519   5  12   0.9424   0.9653   0.5185  -0.8534   0.5579  -0.5891  13.00    0.0
2019/01/14 16:13:01.000   4280217.4520  -4034412.0321  -2458260.3519   5  13   0.9424   0.9653   0.5185  -0.8534   0.5579  -0.5891   1.00    0.0
2019/01/14 16:13:02.000   4280217.4520  -4034412.0321  -2458260.3519   5  12   0.9424   0.9653   0.5185  -0.8534   0.5579  -0.5891   2.00    0.0
2019/01/14 16:13:03.000   4280217.4520  -4034412.0321  -2458260.3519   5  12   0.9424   0.9653   0.5185  -0.8534   0.5579  -0.5891   3.00    0.0
2019/01/14 16:13:04.000   4280217.4520  -4034412.0321  -2458260.3519   5  12   0.9424   0.9653   0.5185  -0.8534   0.5579  -0.5891   4.00    0.0
2019/01/14 16:13:05.000   4280217.4520  -4034412.0321  -2458260.3519   5  13   0.9424   0.9653   0.5185  -0.8534   0.5579  -0.5891   5.00    0.0
2019/01/14 16:13:06.000   4280217.4520  -4034412.0321  -2458260.3519   5  12   0.9424   0.9653   0.5185  -0.8534   0.5579  -0.5891   6.00    0.0
2019/01/14 16:13:12.000   4280217.4520  -4034412.0321  -2458260.3519   5  12   0.9424   0.9653   0.5185  -0.8534   0.5579  -0.5891  12.00    0.0
2019/01/14 16:13:13.000   4280217.4520  -4034412.0321  -2458260.3519   5  12   0.9424   0.9653   0.5185  -0.8534   0.5579  -0.5891  13.00    0.0
2019/01/14 16:13:14.000   4280217.4520  -4034412.0321  -2458260.3519   5  13   0.9424   0.9653   0.5185  -0.8534   0.5579  -0.5891  14.00    0.0
2019/01/14 16:13:15.000   4280217.4520  -4034412.0321  -2458260.3519   5  12   0.9424   0.9653   0.5185  -0.8534   0.5579  -0.5891  -0.00    0.0
2019/01/14 16:13:16.000   4280217.4520  -4034412.0321  -2458260.3519   5  13   0.9424   0.9653   0.5185  -0.8534   0.5579  -0.5891   1.00    0.0
2019/01/14 16:13:17.000   4280217.4520  -4034412.0321  -2458260.3519   5  12   0.9424   0.9653   0.5185  -0.8534   0.5579  -0.5891   2.00    0.0
2019/01/14 16:13:18.000   4280217.4520  -4034412.0321  -2458260.3519   5  12   0.9424   0.9653   0.5185  -0.8534   0.5579  -0.5891   3.00    0.0
2019/01/14 16:13:19.000   4280217.4520  -4034412.0321  -2458260.3519   5  12   0.9424   0.9653   0.5185  -0.8534   0.5579  -0.5891   4.00    0.0
2019/01/14 16:13:20.000   4280217.4520  -4034412.0321  -2458260.3519   5  12   0.9424   0.9653   0.5185  -0.8534   0.5579  -0.5891   5.00    0.0
2019/01/14 16:13:21.000   4280217.4520  -4034412.0321  -2458260.3519   5  12   0.9424   0.9653   0.5185  -0.8534   0.5579  -0.5891   6.00    0.0
2019/01/14 16:13:22.000   4280217.4520  -4034412.0321  -2458260.3519   5  13   0.9424   0.9653   0.5185  -0.8534   0.5579  -0.5891   7.00    0.0
2019/01/14 16:13:23.000   4280217.4520  -4034412.0321  -2458260.3519   5  12   0.9424   0.9653   0.5185  -0.8534   0.5579  -0.5891   8.00    0.0
2019/01/14 16:13:26.000   4280217.4520  -4034412.0321  -2458260.3519   5  12   0.9424   0.9653   0.5185  -0.8534   0.5579  -0.5891  11.00    0.0
2019/01/14 16:13:27.000   4280217.4520  -4034412.0321  -2458260.3519   5  12   0.9424   0.9653   0.5185  -0.8534   0.5579  -0.5891  12.00    0.0
2019/01/14 16:13:28.000   4280217.4520  -4034412.0321  -2458260.3519   5  13   0.9424   0.9653   0.5185  -0.8534   0.5579  -0.5891  13.00    0.0
2019/01/14 16:13:29.000   4280217.4520  -4034412.0321  -2458260.3519   5  12   0.9424   0.9653   0.5185  -0.8534   0.5579  -0.5891  14.00    0.0
2019/01/14 16:13:31.000   4280217.4520  -4034412.0321  -2458260.3519   5  12   0.9424   0.9653   0.5185  -0.8534   0.5579  -0.5891   1.00    0.0
2019/01/14 16:13:34.000   4280217.4520  -4034412.0321  -2458260.3519   5  11   0.9424   0.9653   0.5185  -0.8534   0.5579  -0.5891   4.00    0.0
2019/01/14 16:13:35.000   4280217.4520  -4034412.0321  -2458260.3519   5  12   0.9424   0.9653   0.5185  -0.8534   0.5579  -0.5891   5.00    0.0
2019/01/14 16:13:38.000   4280217.4520  -4034412.0321  -2458260.3519   5  12   0.9424   0.9653   0.5185  -0.8534   0.5579  -0.5891   8.00    0.0
2019/01/14 16:13:42.000   4280217.4520  -4034412.0321  -2458260.3519   5  12   0.9424   0.9653   0.5185  -0.8534   0.5579  -0.5891  12.00    0.0
2019/01/14 16:13:45.000   4280217.4520  -4034412.0321  -2458260.3519   5  13   0.9424   0.9653   0.5185  -0.8534   0.5579  -0.5891  -0.00    0.0
2019/01/14 16:13:47.000   4280217.4520  -4034412.0321  -2458260.3519   5  12   0.9424   0.9653   0.5185  -0.8534   0.5579  -0.5891   2.00    0.0
2019/01/14 16:13:50.000   4280217.4520  -4034412.0321  -2458260.3519   5  12   0.9424   0.9653   0.5185  -0.8534   0.5579  -0.5891   5.00    0.0
2019/01/14 16:13:53.000   4280217.4520  -4034412.0321  -2458260.3519   5  12   0.9424   0.9653   0.5185  -0.8534   0.5579  -0.5891   8.00    0.0
2019/01/14 16:13:54.000   4280217.4520  -4034412.0321  -2458260.3519   5  12   0.9424   0.9653   0.5185  -0.8534   0.5579  -0.5891   9.00    0.0
2019/01/14 16:13:55.000   4280217.4520  -4034412.0321  -2458260.3519   5  13   0.9424   0.9653   0.5185  -0.8534   0.5579  -0.5891  10.00    0.0
2019/01/14 16:13:56.000   4280217.4520  -4034412.0321  -2458260.3519   5  12   0.9424   0.9653   0.5185  -0.8534   0.5579  -0.5891  11.00    0.0
2019/01/14 16:13:58.000   4280217.4520  -4034412.0321  -2458260.3519   5  12   0.9424   0.9653   0.5185  -0.8534   0.5579  -0.5891  13.00    0.0
2019/01/14 16:14:03.000   4280217.4520  -4034412.0321  -2458260.3519   5  12   0.9424   0.9653   0.5185  -0.8534   0.5579  -0.5891   3.00    0.0
2019/01/14 16:14:05.000   4280217.4520  -4034412.0321  -2458260.3519   5  12   0.9424   0.9653   0.5185  -0.8534   0.5579  -0.5891   5.00    0.0
2019/01/14 16:14:06.000   4280217.4520  -4034412.0321  -2458260.3519   5  11   0.9424   0.9653   0.5185  -0.8534   0.5579  -0.5891   6.00    0.0
2019/01/14 16:14:07.000   4280217.4520  -4034412.0321  -2458260.3519   5  12   0.9424   0.9653   0.5185  -0.8534   0.5579  -0.5891   7.00    0.0
2019/01/14 16:14:08.000   4280217.4520  -4034412.0321  -2458260.3519   5  12   0.9424   0.9653   0.5185  -0.8534   0.5579  -0.5891   8.00    0.0
2019/01/14 16:14:09.000   4280217.4520  -4034412.0321  -2458260.3519   5  12   0.9424   0.9653   0.5185  -0.8534   0.5579  -0.5891   9.00    0.0
2019/01/14 16:14:10.000   4280217.4520  -4034412.0321  -2458260.3519   5  12   0.9424   0.9653   0.5185  -0.8534   0.5579  -0.5891  10.00    0.0
2019/01/14 16:14:13.000   4280217.4520  -4034412.0321  -2458260.3519   5  11   0.9424   0.9653   0.5185  -0.8534   0.5579  -0.5891  13.00    0.0
2019/01/14 16:14:14.000   4280217.4520  -4034412.0321  -2458260.3519   5  12   0.9424   0.9653   0.5185  -0.8534   0.5579  -0.5891  14.00    0.0
2019/01/14 16:14:15.000   4280217.4520  -4034412.0321  -2458260.3519   5  12   0.9424   0.9653   0.5185  -0.8534   0.5579  -0.5891  -0.00    0.0
2019/01/14 16:14:16.000   4280217.4520  -4034412.0321  -2458260.3519   5  12   0.9424   0.9653   0.5185  -0.8534   0.5579  -0.5891   1.00    0.0
2019/01/14 16:14:20.000   4280217.4520  -4034412.0321  -2458260.3519   5  12   0.9424   0.9653   0.5185  -0.8534   0.5579  -0.5891   5.00    0.0
2019/01/14 16:14:21.000   4280217.4520  -4034412.0321  -2458260.3519   5  11   0.9424   0.9653   0.5185  -0.8534   0.5579  -0.5891   6.00    0.0
2019/01/14 16:14:22.000   4280217.4520  -4034412.0321  -2458260.3519   5  11   0.9424   0.9653   0.5185  -0.8534   0.5579  -0.5891   7.00    0.0
2019/01/14 16:14:24.000   4280217.4520  -4034412.0321  -2458260.3519   5  11   0.9424   0.9653   0.5185  -0.8534   0.5579  -0.5891   9.00    0.0
2019/01/14 16:14:25.000   4280217.4520  -4034412.0321  -2458260.3519   5  11   0.9424   0.9653   0.5185  -0.8534   0.5579  -0.5891  10.00    0.0
2019/01/14 16:14:26.000   4280217.4520  -4034412.0321  -2458260.3519   5  11   0.9424   0.9653   0.5185  -0.8534   0.5579  -0.5891  11.00    0.0
2019/01/14 16:14:27.000   4280217.4520  -4034412.0321  -2458260.3519   5  12   0.9424   0.9653   0.5185  -0.8534   0.5579  -0.5891  12.00    0.0
2019/01/14 16:14:29.000   4280217.4520  -4034412.0321  -2458260.3519   5  11   0.9424   0.9653   0.5185  -0.8534   0.5579  -0.5891  14.00    0.0
2019/01/14 16:14:30.000   4280217.4520  -4034412.0321  -2458260.3519   5  12   0.9424   0.9653   0.5185  -0.8534   0.5579  -0.5891  -0.00    0.0
2019/01/14 16:14:31.000   4280217.4520  -4034412.0321  -2458260.3519   5  11   0.9424   0.9653   0.5185  -0.8534   0.5579  -0.5891   1.00    0.0
2019/01/14 16:14:32.000   4280217.4520  -4034412.0321  -2458260.3519   5  12   0.9424   0.9653   0.5185  -0.8534   0.5579  -0.5891   2.00    0.0
2019/01/14 16:14:33.000   4280217.4520  -4034412.0321  -2458260.3519   5  12   0.9424   0.9653   0.5185  -0.8534   0.5579  -0.5891   3.00    0.0
2019/01/14 16:14:34.000   4280217.4520  -4034412.0321  -2458260.3519   5  11   0.9424   0.9653   0.5185  -0.8534   0.5579  -0.5891   4.00    0.0
2019/01/14 16:14:35.000   4280217.4520  -4034412.0321  -2458260.3519   5  12   0.9424   0.9653   0.5185  -0.8534   0.5579  -0.5891   5.00    0.0
2019/01/14 16:14:36.000   4280217.4520  -4034412.0321  -2458260.3519   5  12   0.9424   0.9653   0.5185  -0.8534   0.5579  -0.5891   6.00    0.0
2019/01/14 16:14:37.000   4280217.4520  -4034412.0321  -2458260.3519   5  12   0.9424   0.9653   0.5185  -0.8534   0.5579  -0.5891   7.00    0.0
2019/01/14 16:14:38.000   4280217.4520  -4034412.0321  -2458260.3519   5  12   0.9424   0.9653   0.5185  -0.8534   0.5579  -0.5891   8.00    0.0
2019/01/14 16:14:39.000   4280217.4520  -4034412.0321  -2458260.3519   5  11   0.9424   0.9653   0.5185  -0.8534   0.5579  -0.5891   9.00    0.0
2019/01/14 16:14:40.000   4280217.4520  -4034412.0321  -2458260.3519   5  11   0.9424   0.9653   0.5185  -0.8534   0.5579  -0.5891  10.00    0.0
2019/01/14 16:14:41.000   4280217.4520  -4034412.0321  -2458260.3519   5  12   0.9424   0.9653   0.5185  -0.8534   0.5579  -0.5891  11.00    0.0
2019/01/14 16:14:42.000   4280217.4520  -4034412.0321  -2458260.3519   5  11   0.9424   0.9653   0.5185  -0.8534   0.5579  -0.5891  12.00    0.0
2019/01/14 16:14:43.000   4280217.4520  -4034412.0321  -2458260.3519   5  12   0.9424   0.9653   0.5185  -0.8534   0.5579  -0.5891  13.00    0.0
2019/01/14 16:14:44.000   4280217.4520  -4034412.0321  -2458260.3519   5  11   0.9424   0.9653   0.5185  -0.8534   0.5579  -0.5891  14.00    0.0
2019/01/14 16:14:45.000   4280217.4520  -4034412.0321  -2458260.3519   5  11   0.9424   0.9653   0.5185  -0.8534   0.5579  -0.5891  -0.00    0.0
2019/01/14 16:14:46.000   4280217.4520  -4034412.0321  -2458260.3519   5  10   0.9424   0.9653   0.5185  -0.8534   0.5579  -0.5891   1.00    0.0
2019/01/14 16:14:47.000   4280217.4520  -4034412.0321  -2458260.3519   5  11   0.9424   0.9653   0.5185  -0.8534   0.5579  -0.5891   2.00    0.0
2019/01/14 16:14:48.000   4280217.4520  -4034412.0321  -2458260.3519   5  11   0.9424   0.9653   0.5185  -0.8534   0.5579  -0.5891   3.00    0.0
2019/01/14 16:14:50.000   4280217.4520  -4034412.0321  -2458260.3519   5  11   0.9424   0.9653   0.5185  -0.8534   0.5579  -0.5891   5.00    0.0
2019/01/14 16:14:51.000   4280217.4520  -4034412.0321  -2458260.3519   5  12   0.9424   0.9653   0.5185  -0.8534   0.5579  -0.5891   6.00    0.0
2019/01/14 16:14:52.000   4280217.4520  -4034412.0321  -2458260.3519   5  11   0.9424   0.9653   0.5185  -0.8534   0.5579  -0.5891   7.00    0.0
2019/01/14 16:14:53.000   4280217.4520  -4034412.0321  -2458260.3519   5  12   0.9424   0.9653   0.5185  -0.8534   0.5579  -0.5891   8.00    0.0
2019/01/14 16:14:54.000   4280217.4520  -4034412.0321  -2458260.3519   5  12   0.9424   0.9653   0.5185  -0.8534   0.5579  -0.5891   9.00    0.0
2019/01/14 16:14:55.000   4280217.4520  -4034412.0321  -2458260.3519   5  12   0.9424   0.9653   0.5185  -0.8534   0.5579  -0.5891  10.00    0.0
2019/01/14 16:14:57.000   4280217.4520  -4034412.0321  -2458260.3519   5  12   0.9424   0.9653   0.5185  -0.8534   0.5579  -0.5891  12.00    0.0
2019/01/14 16:14:58.000   4280217.4520  -4034412.0321  -2458260.3519   5  11   0.9424   0.9653   0.5185  -0.8534   0.5579  -0.5891  13.00    0.0
2019/01/14 16:14:59.000   4280217.4520  -4034412.0321  -2458260.3519   5  12   0.9424   0.9653   0.5185  -0.8534   0.5579  -0.5891  14.00    0.0
2019/01/14 16:15:00.000   4280217.4520  -4034412.0321  -2458260.3519   5  12   0.9424   0.9653   0.5185  -0.8534   0.5579  -0.5891  -0.00    0.0
2019/01/14 16:15:01.000   4280217.4520  -4034412.0321  -2458260.3519   5  12   0.9424   0.9653   0.5185  -0.8534   0.5579  -0.5891   1.00    0.0
2019/01/14 16:15:02.000   4280217.4520  -4034412.0321  -2458260.3519   5  11   0.9424   0.9653   0.5185  -0.8534   0.5579  -0.5891   2.00    0.0
2019/01/14 16:15:03.000   4280217.4520  -4034412.0321  -2458260.3519   5  12   0.9424   0.9653   0.5185  -0.8534   0.5579  -0.5891   3.00    0.0
2019/01/14 16:15:04.000   4280217.4520  -4034412.0321  -2458260.3519   5  12   0.9424   0.9653   0.5185  -0.8534   0.5579  -0.5891   4.00    0.0
2019/01/14 16:15:07.000   4280217.4520  -4034412.0321  -2458260.3519   5  12   0.9424   0.9653   0.5185  -0.8534   0.5579  -0.5891   7.00    0.0
2019/01/14 16:15:08.000   4280217.4520  -4034412.0321  -2458260.3519   5  12   0.9424   0.9653   0.5185  -0.8534   0.5579  -0.5891   8.00    0.0
2019/01/14 16:15:09.000   4280217.4520  -4034412.0321  -2458260.3519   5  11   0.9424   0.9653   0.5185  -0.8534   0.5579  -0.5891   9.00    0.0
2019/01/14 16:15:10.000   4280217.4520  -4034412.0321  -2458260.3519   5  13   0.9424   0.9653   0.5185  -0.8534   0.5579  -0.5891  10.00    0.0
2019/01/14 16:15:11.000   4280217.4520  -4034412.0321  -2458260.3519   5  13   0.9424   0.9653   0.5185  -0.8534   0.5579  -0.5891  11.00    0.0
2019/01/14 16:15:12.000   4280217.4520  -4034412.0321  -2458260.3519   5  12   0.9424   0.9653   0.5185  -0.8534   0.5579  -0.5891  12.00    0.0
2019/01/14 16:15:13.000   4280217.4520  -4034412.0321  -2458260.3519   5  12   0.9424   0.9653   0.5185  -0.8534   0.5579  -0.5891  13.00    0.0
2019/01/14 16:15:14.000   4280217.4520  -4034412.0321  -2458260.3519   5  12   0.9424   0.9653   0.5185  -0.8534   0.5579  -0.5891  14.00    0.0
2019/01/14 16:15:16.000   4280217.4520  -4034412.0321  -2458260.3519   5  12   0.9424   0.9653   0.5185  -0.8534   0.5579  -0.5891   1.00    0.0
2019/01/14 16:15:17.000   4280217.4520  -4034412.0321  -2458260.3519   5  12   0.9424   0.9653   0.5185  -0.8534   0.5579  -0.5891   2.00    0.0
2019/01/14 16:15:22.000   4280217.4520  -4034412.0321  -2458260.3519   5  12   0.9424   0.9653   0.5185  -0.8534   0.5579  -0.5891   7.00    0.0
2019/01/14 16:15:23.000   4280217.4520  -4034412.0321  -2458260.3519   5  11   0.9424   0.9653   0.5185  -0.8534   0.5579  -0.5891   8.00    0.0
2019/01/14 16:15:24.000   4280217.4520  -4034412.0321  -2458260.3519   5  12   0.9424   0.9653   0.5185  -0.8534   0.5579  -0.5891   9.00    0.0
2019/01/14 16:15:25.000   4280217.4520  -4034412.0321  -2458260.3519   5  12   0.9424   0.9653   0.5185  -0.8534   0.5579  -0.5891  10.00    0.0
2019/01/14 16:15:26.000   4280217.4520  -4034412.0321  -2458260.3519   5  11   0.9424   0.9653   0.5185  -0.8534   0.5579  -0.5891  11.00    0.0
2019/01/14 16:15:27.000   4280217.4520  -4034412.0321  -2458260.3519   5  11   0.9424   0.9653   0.5185  -0.8534   0.5579  -0.5891  12.00    0.0
2019/01/14 16:15:28.000   4280217.4520  -4034412.0321  -2458260.3519   5  11   0.9424   0.9653   0.5185  -0.8534   0.5579  -0.5891  13.00    0.0
2019/01/14 16:15:29.000   4280217.4520  -4034412.0321  -2458260.3519   5  11   0.9424   0.9653   0.5185  -0.8534   0.5579  -0.5891  14.00    0.0
2019/01/14 16:15:30.000   4280217.4520  -4034412.0321  -2458260.3519   5  12   0.9424   0.9653   0.5185  -0.8534   0.5579  -0.5891  -0.00    0.0
2019/01/14 16:15:31.000   4280217.4520  -4034412.0321  -2458260.3519   5  11   0.9424   0.9653   0.5185  -0.8534   0.5579  -0.5891   1.00    0.0
2019/01/14 16:15:32.000   4280217.4520  -4034412.0321  -2458260.3519   5  12   0.9424   0.9653   0.5185  -0.8534   0.5579  -0.5891   2.00    0.0
2019/01/14 16:15:33.000   4280217.4520  -4034412.0321  -2458260.3519   5  11   0.9424   0.9653   0.5185  -0.8534   0.5579  -0.5891   3.00    0.0
2019/01/14 16:15:34.000   4280217.4520  -4034412.0321  -2458260.3519   5  12   0.9424   0.9653   0.5185  -0.8534   0.5579  -0.5891   4.00    0.0
2019/01/14 16:15:35.000   4280217.4520  -4034412.0321  -2458260.3519   5  12   0.9424   0.9653   0.5185  -0.8534   0.5579  -0.5891   5.00    0.0
2019/01/14 16:15:36.000   4280217.4520  -4034412.0321  -2458260.3519   5  11   0.9424   0.9653   0.5185  -0.8534   0.5579  -0.5891   6.00    0.0
2019/01/14 16:15:37.000   4280217.4520  -4034412.0321  -2458260.3519   5  11   0.9424   0.9653   0.5185  -0.8534   0.5579  -0.5891   7.00    0.0
2019/01/14 16:15:38.000   4280217.4520  -4034412.0321  -2458260.3519   5  12   0.9424   0.9653   0.5185  -0.8534   0.5579  -0.5891   8.00    0.0
2019/01/14 16:15:39.000   4280217.4520  -4034412.0321  -2458260.3519   5  12   0.9424   0.9653   0.5185  -0.8534   0.5579  -0.5891   9.00    0.0
2019/01/14 16:15:40.000   4280217.4520  -4034412.0321  -2458260.3519   5  12   0.9424   0.9653   0.5185  -0.8534   0.5579  -0.5891  10.00    0.0
2019/01/14 16:15:41.000   4280217.4520  -4034412.0321  -2458260.3519   5  11   0.9424   0.9653   0.5185  -0.8534   0.5579  -0.5891  11.00    0.0
2019/01/14 16:15:42.000   4280217.4520  -4034412.0321  -2458260.3519   5  11   0.9424   0.9653   0.5185  -0.8534   0.5579  -0.5891  12.00    0.0
2019/01/14 16:15:43.000   4280217.4520  -4034412.0321  -2458260.3519   5  11   0.9424   0.9653   0.5185  -0.8534   0.5579  -0.5891  13.00    0.0
2019/01/14 16:15:44.000   4280217.4520  -4034412.0321  -2458260.3519   5  11   0.9424   0.9653   0.5185  -0.8534   0.5579  -0.5891  14.00    0.0
2019/01/14 16:15:45.000   4280217.4520  -4034412.0321  -2458260.3519   5  11   0.9424   0.9653   0.5185  -0.8534   0.5579  -0.5891  -0.00    0.0
2019/01/14 16:15:46.000   4280217.4520  -4034412.0321  -2458260.3519   5  11   0.9424   0.9653   0.5185  -0.8534   0.5579  -0.5891   1.00    0.0
2019/01/14 16:15:47.000   4280217.4520  -4034412.0321  -2458260.3519   5  10   0.9424   0.9653   0.5185  -0.8534   0.5579  -0.5891   2.00    0.0
2019/01/14 16:15:48.000   4280217.4520  -4034412.0321  -2458260.3519   5  11   0.9424   0.9653   0.5185  -0.8534   0.5579  -0.5891   3.00    0.0
2019/01/14 16:15:49.000   4280217.4520  -4034412.0321  -2458260.3519   5  12   0.9424   0.9653   0.5185  -0.8534   0.5579  -0.5891   4.00    0.0
2019/01/14 16:15:50.000   4280217.4520  -4034412.0321  -2458260.3519   5  11   0.9424   0.9653   0.5185  -0.8534   0.5579  -0.5891   5.00    0.0
2019/01/14 16:15:51.000   4280217.4520  -4034412.0321  -2458260.3519   5  11   0.9424   0.9653   0.5185  -0.8534   0.5579  -0.5891   6.00    0.0
2019/01/14 16:15:53.000   4280217.4520  -4034412.0321  -2458260.3519   5  11   0.9424   0.9653   0.5185  -0.8534   0.5579  -0.5891   8.00    0.0
2019/01/14 16:15:54.000   4280217.4520  -4034412.0321  -2458260.3519   5  11   0.9424   0.9653   0.5185  -0.8534   0.5579  -0.5891   9.00    0.0
2019/01/14 16:15:55.000   4280217.4520  -4034412.0321  -2458260.3519   5  12   0.9424   0.9653   0.5185  -0.8534   0.5579  -0.5891  10.00    0.0
2019/01/14 16:15:56.000   4280217.4520  -4034412.0321  -2458260.3519   5  12   0.9424   0.9653   0.5185  -0.8534   0.5579  -0.5891  11.00    0.0
2019/01/14 16:15:57.000   4280217.4520  -4034412.0321  -2458260.3519   5  11   0.9424   0.9653   0.5185  -0.8534   0.5579  -0.5891  12.00    0.0
2019/01/14 16:15:58.000   4280217.4520  -4034412.0321  -2458260.3519   5  12   0.9424   0.9653   0.5185  -0.8534   0.5579  -0.5891  13.00    0.0
2019/01/14 16:15:59.000   4280217.4520  -4034412.0321  -2458260.3519   5  12   0.9424   0.9653   0.5185  -0.8534   0.5579  -0.5891  14.00    0.0
2019/01/14 16:16:00.000   4280217.4520  -4034412.0321  -2458260.3519   5  11   0.9424   0.9653   0.5185  -0.8534   0.5579  -0.5891  -0.00    0.0
2019/01/14 16:16:01.000   4280217.4520  -4034412.0321  -2458260.3519   5  11   0.9424   0.9653   0.5185  -0.8534   0.5579  -0.5891   1.00    0.0
2019/01/14 16:16:02.000   4280217.4520  -4034412.0321  -2458260.3519   5  12   0.9424   0.9653   0.5185  -0.8534   0.5579  -0.5891   2.00    0.0
2019/01/14 16:16:03.000   4280217.4520  -4034412.0321  -2458260.3519   5  12   0.9424   0.9653   0.5185  -0.8534   0.5579  -0.5891   3.00    0.0
2019/01/14 16:16:04.000   4280217.4520  -4034412.0321  -2458260.3519   5  12   0.9424   0.9653   0.5185  -0.8534   0.5579  -0.5891   4.00    0.0
2019/01/14 16:16:05.000   4280217.4520  -4034412.0321  -2458260.3519   5  11   0.9424   0.9653   0.5185  -0.8534   0.5579  -0.5891   5.00    0.0
2019/01/14 16:16:07.000   4280217.4520  -4034412.0321  -2458260.3519   5  12   0.9424   0.9653   0.5185  -0.8534   0.5579  -0.5891   7.00    0.0
2019/01/14 16:16:08.000   4280217.4520  -4034412.0321  -2458260.3519   5  11   0.9424   0.9653   0.5185  -0.8534   0.5579  -0.5891   8.00    0.0
2019/01/14 16:16:09.000   4280217.4520  -4034412.0321  -2458260.3519   5  12   0.9424   0.9653   0.5185  -0.8534   0.5579  -0.5891   9.00    0.0
2019/01/14 16:16:10.000   4280217.4520  -4034412.0321  -2458260.3519   5  11   0.9424   0.9653   0.5185  -0.8534   0.5579  -0.5891  10.00    0.0
2019/01/14 16:16:11.000   4280217.4520  -4034412.0321  -2458260.3519   5  12   0.9424   0.9653   0.5185  -0.8534   0.5579  -0.5891  11.00    0.0
2019/01/14 16:16:12.000   4280217.4520  -4034412.0321  -2458260.3519   5  12   0.9424   0.9653   0.5185  -0.8534   0.5579  -0.5891  12.00    0.0
2019/01/14 16:16:13.000   4280217.4520  -4034412.0321  -2458260.3519   5  11   0.9424   0.9653   0.5185  -0.8534   0.5579  -0.5891  13.00    0.0
2019/01/14 16:16:14.000   4280217.4520  -4034412.0321  -2458260.3519   5  12   0.9424   0.9653   0.5185  -0.8534   0.5579  -0.5891  14.00    0.0
2019/01/14 16:16:15.000   4280217.4520  -4034412.0321  -2458260.3519   5  12   0.9424   0.9653   0.5185  -0.8534   0.5579  -0.5891  -0.00    0.0
2019/01/14 16:16:16.000   4280217.4520  -4034412.0321  -2458260.3519   5  12   0.9424   0.9653   0.5185  -0.8534   0.5579  -0.5891   1.00    0.0
2019/01/14 16:16:17.000   4280217.4520  -4034412.0321  -2458260.3519   5  12   0.9424   0.9653   0.5185  -0.8534   0.5579  -0.5891   2.00    0.0
2019/01/14 16:16:18.000   4280217.4520  -4034412.0321  -2458260.3519   5  11   0.9424   0.9653   0.5185  -0.8534   0.5579  -0.5891   3.00    0.0
2019/01/14 16:16:19.000   4280217.4520  -4034412.0321  -2458260.3519   5  11   0.9424   0.9653   0.5185  -0.8534   0.5579  -0.5891   4.00    0.0
2019/01/14 16:16:20.000   4280217.4520  -4034412.0321  -2458260.3519   5  12   0.9424   0.9653   0.5185  -0.8534   0.5579  -0.5891   5.00    0.0
2019/01/14 16:16:21.000   4280217.4520  -4034412.0321  -2458260.3519   5  11   0.9424   0.9653   0.5185  -0.8534   0.5579  -0.5891   6.00    0.0
2019/01/14 16:16:22.000   4280217.4520  -4034412.0321  -2458260.3519   5  12   0.9424   0.9653   0.5185  -0.8534   0.5579  -0.5891   7.00    0.0
2019/01/14 16:16:23.000   4280217.4520  -4034412.0321  -2458260.3519   5  12   0.9424   0.9653   0.5185  -0.8534   0.5579  -0.5891   8.00    0.0
2019/01/14 16:16:24.000   4280217.4520  -4034412.0321  -2458260.3519   5  12   0.9424   0.9653   0.5185  -0.8534   0.5579  -0.5891   9.00    0.0
2019/01/14 16:16:25.000   4280217.4520  -4034412.0321  -2458260.3519   5  11   0.9424   0.9653   0.5185  -0.8534   0.5579  -0.5891  10.00    0.0
2019/01/14 16:16:26.000   4280217.4520  -4034412.0321  -2458260.3519   5  11   0.9424   0.9653   0.5185  -0.8534   0.5579  -0.5891  11.00    0.0
2019/01/14 16:16:28.000   4280217.4520  -4034412.0321  -2458260.3519   5  12   0.9424   0.9653   0.5185  -0.8534   0.5579  -0.5891  13.00    0.0
2019/01/14 16:16:29.000   4280217.4520  -4034412.0321  -2458260.3519   5  11   0.9424   0.9653   0.5185  -0.8534   0.5579  -0.5891  14.00    0.0
2019/01/14 16:16:30.000   4280217.4520  -4034412.0321  -2458260.3519   5  11   0.9424   0.9653   0.5185  -0.8534   0.5579  -0.5891  -0.00    0.0
2019/01/14 16:16:31.000   4280217.4520  -4034412.0321  -2458260.3519   5  12   0.9424   0.9653   0.5185  -0.8534   0.5579  -0.5891   1.00    0.0
2019/01/14 16:16:33.000   4280217.4520  -4034412.0321  -2458260.3519   5  12   0.9424   0.9653   0.5185  -0.8534   0.5579  -0.5891   3.00    0.0
2019/01/14 16:16:34.000   4280217.4520  -4034412.0321  -2458260.3519   5  12   0.9424   0.9653   0.5185  -0.8534   0.5579  -0.5891   4.00    0.0
2019/01/14 16:16:35.000   4280217.4520  -4034412.0321  -2458260.3519   5  12   0.9424   0.9653   0.5185  -0.8534   0.5579  -0.5891   5.00    0.0
2019/01/14 16:16:36.000   4280217.4520  -4034412.0321  -2458260.3519   5  12   0.9424   0.9653   0.5185  -0.8534   0.5579  -0.5891   6.00    0.0
2019/01/14 16:16:37.000   4280217.4520  -4034412.0321  -2458260.3519   5  12   0.9424   0.9653   0.5185  -0.8534   0.5579  -0.5891   7.00    0.0
2019/01/14 16:16:38.000   4280217.4520  -4034412.0321  -2458260.3519   5  12   0.9424   0.9653   0.5185  -0.8534   0.5579  -0.5891   8.00    0.0
2019/01/14 16:16:39.000   4280217.4520  -4034412.0321  -2458260.3519   5  12   0.9424   0.9653   0.5185  -0.8534   0.5579  -0.5891   9.00    0.0
2019/01/14 16:16:40.000   4280217.4520  -4034412.0321  -2458260.3519   5  11   0.9424   0.9653   0.5185  -0.8534   0.5579  -0.5891  10.00    0.0
2019/01/14 16:16:41.000   4280217.4520  -4034412.0321  -2458260.3519   5  11   0.9424   0.9653   0.5185  -0.8534   0.5579  -0.5891  11.00    0.0
2019/01/14 16:16:42.000   4280217.4520  -4034412.0321  -2458260.3519   5  11   0.9424   0.9653   0.5185  -0.8534   0.5579  -0.5891  12.00    0.0
2019/01/14 16:16:43.000   4280217.4520  -4034412.0321  -2458260.3519   5  11   0.9424   0.9653   0.5185  -0.8534   0.5579  -0.5891  13.00    0.0
2019/01/14 16:16:44.000   4280217.4520  -4034412.0321  -2458260.3519   5  12   0.9424   0.9653   0.5185  -0.8534   0.5579  -0.5891  14.00    0.0
2019/01/14 16:16:45.000   4280217.4520  -4034412.0321  -2458260.3519   5  11   0.9424   0.9653   0.5185  -0.8534   0.5579  -0.5891  -0.00    0.0
2019/01/14 16:16:46.000   4280217.4520  -4034412.0321  -2458260.3519   5  12   0.9424   0.9653   0.5185  -0.8534   0.5579  -0.5891   1.00    0.0
2019/01/14 16:16:48.000   4280217.4520  -4034412.0321  -2458260.3519   5  12   0.9424   0.9653   0.5185  -0.8534   0.5579  -0.5891   3.00    0.0
2019/01/14 16:16:49.000   4280217.4520  -4034412.0321  -2458260.3519   5  11   0.9424   0.9653   0.5185  -0.8534   0.5579  -0.5891   4.00    0.0
2019/01/14 16:16:50.000   4280217.4520  -4034412.0321  -2458260.3519   5  12   0.9424   0.9653   0.5185  -0.8534   0.5579  -0.5891   5.00    0.0
2019/01/14 16:16:51.000   4280217.4520  -4034412.0321  -2458260.3519   5  11   0.9424   0.9653   0.5185  -0.8534   0.5579  -0.5891   6.00    0.0
2019/01/14 16:16:52.000   4280217.4520  -4034412.0321  -2458260.3519   5  10   0.9424   0.9653   0.5185  -0.8534   0.5579  -0.5891   7.00    0.0
2019/01/14 16:16:53.000   4280217.4520  -4034412.0321  -2458260.3519   5  11   0.9424   0.9653   0.5185  -0.8534   0.5579  -0.5891   8.00    0.0
2019/01/14 16:16:56.000   4280217.4520  -4034412.0321  -2458260.3519   5  11   0.9424   0.9653   0.5185  -0.8534   0.5579  -0.5891  11.00    0.0
2019/01/14 16:16:57.000   4280217.4520  -4034412.0321  -2458260.3519   5  12   0.9424   0.9653   0.5185  -0.8534   0.5579  -0.5891  12.00    0.0
2019/01/14 16:16:58.000   4280217.4520  -4034412.0321  -2458260.3519   5  12   0.9424   0.9653   0.5185  -0.8534   0.5579  -0.5891  13.00    0.0
2019/01/14 16:16:59.000   4280217.4520  -4034412.0321  -2458260.3519   5  11   0.9424   0.9653   0.5185  -0.8534   0.5579  -0.5891  14.00    0.0
2019/01/14 16:17:00.000   4280217.4520  -4034412.0321  -2458260.3519   5  11   0.9424   0.9653   0.5185  -0.8534   0.5579  -0.5891  -0.00    0.0
2019/01/14 16:17:01.000   4280217.4520  -4034412.0321  -2458260.3519   5  12   0.9424   0.9653   0.5185  -0.8534   0.5579  -0.5891   1.00    0.0
2019/01/14 16:17:02.000   4280217.4520  -4034412.0321  -2458260.3519   5  11   0.9424   0.9653   0.5185  -0.8534   0.5579  -0.5891   2.00    0.0
2019/01/14 16:17:05.000   4280217.4520  -4034412.0321  -2458260.3519   5  11   0.9424   0.9653   0.5185  -0.8534   0.5579  -0.5891   5.00    0.0
2019/01/14 16:17:06.000   4280217.4520  -4034412.0321  -2458260.3519   5  12   0.9424   0.9653   0.5185  -0.8534   0.5579  -0.5891   6.00    0.0
2019/01/14 16:17:07.000   4280217.4520  -4034412.0321  -2458260.3519   5  12   0.9424   0.9653   0.5185  -0.8534   0.5579  -0.5891   7.00    0.0
2019/01/14 16:17:08.000   4280217.4520  -4034412.0321  -2458260.3519   5  12   0.9424   0.9653   0.5185  -0.8534   0.5579  -0.5891   8.00    0.0
2019/01/14 16:17:09.000   4280217.4520  -4034412.0321  -2458260.3519   5  11   0.9424   0.9653   0.5185  -0.8534   0.5579  -0.5891   9.00    0.0
2019/01/14 16:17:15.000   4280217.4520  -4034412.0321  -2458260.3519   5  11   0.9424   0.9653   0.5185  -0.8534   0.5579  -0.5891  -0.00    0.0
2019/01/14 16:17:16.000   4280217.4520  -4034412.0321  -2458260.3519   5  11   0.9424   0.9653   0.5185  -0.8534   0.5579  -0.5891   1.00    0.0
2019/01/14 16:17:19.000   4280217.4520  -4034412.0321  -2458260.3519   5  11   0.9424   0.9653   0.5185  -0.8534   0.5579  -0.5891   4.00    0.0
2019/01/14 16:17:20.000   4280217.4520  -4034412.0321  -2458260.3519   5  11   0.9424   0.9653   0.5185  -0.8534   0.5579  -0.5891   5.00    0.0
2019/01/14 16:17:21.000   4280217.4520  -4034412.0321  -2458260.3519   5  10   0.9424   0.9653   0.5185  -0.8534   0.5579  -0.5891   6.00    0.0
2019/01/14 16:17:22.000   4280217.4520  -4034412.0321  -2458260.3519   5  10   0.9424   0.9653   0.5185  -0.8534   0.5579  -0.5891   7.00    0.0
2019/01/14 16:17:23.000   4280217.4520  -4034412.0321  -2458260.3519   5  10   0.9424   0.9653   0.5185  -0.8534   0.5579  -0.5891   8.00    0.0
2019/01/14 16:17:24.000   4280217.4520  -4034412.0321  -2458260.3519   5  11   0.9424   0.9653   0.5185  -0.8534   0.5579  -0.5891   9.00    0.0
2019/01/14 16:17:25.000   4280217.4520  -4034412.0321  -2458260.3519   5  12   0.9424   0.9653   0.5185  -0.8534   0.5579  -0.5891  10.00    0.0
2019/01/14 16:17:26.000   4280217.4520  -4034412.0321  -2458260.3519   5  11   0.9424   0.9653   0.5185  -0.8534   0.5579  -0.5891  11.00    0.0
2019/01/14 16:17:29.000   4280217.4520  -4034412.0321  -2458260.3519   5  11   0.9424   0.9653   0.5185  -0.8534   0.5579  -0.5891  14.00    0.0
2019/01/14 16:17:30.000   4280217.4520  -4034412.0321  -2458260.3519   5  11   0.9424   0.9653   0.5185  -0.8534   0.5579  -0.5891  -0.00    0.0
2019/01/14 16:17:31.000   4280217.4520  -4034412.0321  -2458260.3519   5  11   0.9424   0.9653   0.5185  -0.8534   0.5579  -0.5891   1.00    0.0
2019/01/14 16:17:33.000   4280217.4520  -4034412.0321  -2458260.3519   5  11   0.9424   0.9653   0.5185  -0.8534   0.5579  -0.5891   3.00    0.0
2019/01/14 16:17:35.000   4280217.4520  -4034412.0321  -2458260.3519   5  11   0.9424   0.9653   0.5185  -0.8534   0.5579  -0.5891   5.00    0.0
2019/01/14 16:17:36.000   4280217.4520  -4034412.0321  -2458260.3519   5  11   0.9424   0.9653   0.5185  -0.8534   0.5579  -0.5891   6.00    0.0
2019/01/14 16:17:37.000   4280217.4520  -4034412.0321  -2458260.3519   5  11   0.9424   0.9653   0.5185  -0.8534   0.5579  -0.5891   7.00    0.0
2019/01/14 16:17:38.000   4280217.4520  -4034412.0321  -2458260.3519   5  11   0.9424   0.9653   0.5185  -0.8534   0.5579  -0.5891   8.00    0.0
2019/01/14 16:17:39.000   4280217.4520  -4034412.0321  -2458260.3519   5  11   0.9424   0.9653   0.5185  -0.8534   0.5579  -0.5891   9.00    0.0
2019/01/14 16:17:40.000   4280217.4520  -4034412.0321  -2458260.3519   5  11   0.9424   0.9653   0.5185  -0.8534   0.5579  -0.5891  10.00    0.0
2019/01/14 16:17:41.000   4280217.4520  -4034412.0321  -2458260.3519   5  11   0.9424   0.9653   0.5185  -0.8534   0.5579  -0.5891  11.00    0.0
2019/01/14 16:17:42.000   4280217.4520  -4034412.0321  -2458260.3519   5  12   0.9424   0.9653   0.5185  -0.8534   0.5579  -0.5891  12.00    0.0
2019/01/14 16:17:44.000   4280217.4520  -4034412.0321  -2458260.3519   5  11   0.9424   0.9653   0.5185  -0.8534   0.5579  -0.5891  14.00    0.0
2019/01/14 16:17:45.000   4280217.4520  -4034412.0321  -2458260.3519   5  11   0.9424   0.9653   0.5185  -0.8534   0.5579  -0.5891  -0.00    0.0
2019/01/14 16:17:46.000   4280217.4520  -4034412.0321  -2458260.3519   5  11   0.9424   0.9653   0.5185  -0.8534   0.5579  -0.5891   1.00    0.0
2019/01/14 16:17:49.000   4280217.4520  -4034412.0321  -2458260.3519   5  11   0.9424   0.9653   0.5185  -0.8534   0.5579  -0.5891   4.00    0.0
2019/01/14 16:17:50.000   4280217.4520  -4034412.0321  -2458260.3519   5  11   0.9424   0.9653   0.5185  -0.8534   0.5579  -0.5891   5.00    0.0
2019/01/14 16:17:51.000   4280217.4520  -4034412.0321  -2458260.3519   5  11   0.9424   0.9653   0.5185  -0.8534   0.5579  -0.5891   6.00    0.0
2019/01/14 16:17:54.000   4280217.4520  -4034412.0321  -2458260.3519   5  11   0.9424   0.9653   0.5185  -0.8534   0.5579  -0.5891   9.00    0.0
2019/01/14 16:17:55.000   4280217.4520  -4034412.0321  -2458260.3519   5  11   0.9424   0.9653   0.5185  -0.8534   0.5579  -0.5891  10.00    0.0
2019/01/14 16:17:56.000   4280217.4520  -4034412.0321  -2458260.3519   5  12   0.9424   0.9653   0.5185  -0.8534   0.5579  -0.5891  11.00    0.0
2019/01/14 16:17:58.000   4280217.4520  -4034412.0321  -2458260.3519   5  11   0.9424   0.9653   0.5185  -0.8534   0.5579  -0.5891  13.00    0.0
2019/01/14 16:17:59.000   4280217.4520  -4034412.0321  -2458260.3519   5  11   0.9424   0.9653   0.5185  -0.8534   0.5579  -0.5891  14.00    0.0
2019/01/14 16:18:00.000   4280217.4520  -4034412.0321  -2458260.3519   5  12   0.9424   0.9653   0.5185  -0.8534   0.5579  -0.5891  -0.00    0.0
2019/01/14 16:18:01.000   4280217.4520  -4034412.0321  -2458260.3519   5  12   0.9424   0.9653   0.5185  -0.8534   0.5579  -0.5891   1.00    0.0
2019/01/14 16:18:02.000   4280217.4520  -4034412.0321  -2458260.3519   5  11   0.9424   0.9653   0.5185  -0.8534   0.5579  -0.5891   2.00    0.0
2019/01/14 16:18:03.000   4280217.4520  -4034412.0321  -2458260.3519   5   9   0.9424   0.9653   0.5185  -0.8534   0.5579  -0.5891   3.00    0.0
2019/01/14 16:18:04.000   4280217.4520  -4034412.0321  -2458260.3519   5   9   0.9424   0.9653   0.5185  -0.8534   0.5579  -0.5891   4.00    0.0
2019/01/14 16:18:05.000   4280217.4520  -4034412.0321  -2458260.3519   5   9   0.9424   0.9653   0.5185  -0.8534   0.5579  -0.5891   5.00    0.0
2019/01/14 16:18:06.000   4280217.4520  -4034412.0321  -2458260.3519   5   9   0.9424   0.9653   0.5185  -0.8534   0.5579  -0.5891   6.00    0.0
2019/01/14 16:18:07.000   4280217.4520  -4034412.0321  -2458260.3519   5  10   0.9424   0.9653   0.5185  -0.8534   0.5579  -0.5891   7.00    0.0
