% program   : RTKPOST ver.2.4.2
% inp file  : D:\Google Drive\UERJ\_Projeto Final\20190114_Marco 91500 IBGE\IBGE014P.19o
% inp file  : D:\Google Drive\UERJ\_Projeto Final\20190114_Marco 91500 IBGE\riod0141\riod0141.19d
% inp file  : D:\Google Drive\UERJ\_Projeto Final\20190114_Marco 91500 IBGE\brdm0140.19p
% obs start : 2019/01/14 15:00:01.0 GPST (week2036 140401.0s)
% obs end   : 2019/01/14 15:55:42.0 GPST (week2036 143742.0s)
% pos mode  : static
% freqs     : L1
% solution  : forward
% elev mask : 15.0 deg
% dynamics  : off
% tidecorr  : off
% ionos opt : broadcast
% tropo opt : saastamoinen
% ephemeris : broadcast
% navi sys  : gps glonass
% amb res   : fix and hold
% amb glo   : on
% val thres : 3.0
% antenna1  :                       ( 0.0000  0.0000  0.0000)
% antenna2  :                       ( 0.0000  0.0000  0.0080)
% ref pos   :  4280294.8840  -4034431.2298  -2458141.3831
%
% (x/y/z-ecef=WGS84,Q=1:fix,2:float,3:sbas,4:dgps,5:single,6:ppp,ns=# of satellites)
%  GPST                      x-ecef(m)      y-ecef(m)      z-ecef(m)   Q  ns   sdx(m)   sdy(m)   sdz(m)  sdxy(m)  sdyz(m)  sdzx(m) age(s)  ratio
2019/01/14 15:00:01.000   4280224.4721  -4034429.0391  -2458284.1219   5   9  30.0000  30.0000  30.0000   0.0000   0.0000   0.0000   1.00    0.0
2019/01/14 15:00:02.000   4280224.4721  -4034429.0391  -2458284.1219   5   8  30.0000  30.0000  30.0000   0.0000   0.0000   0.0000   2.00    0.0
2019/01/14 15:00:03.000   4280224.4721  -4034429.0391  -2458284.1219   5   9  30.0000  30.0000  30.0000   0.0000   0.0000   0.0000   3.00    0.0
2019/01/14 15:00:04.000   4280224.4721  -4034429.0391  -2458284.1219   5   8  30.0000  30.0000  30.0000   0.0000   0.0000   0.0000   4.00    0.0
2019/01/14 15:00:05.000   4280224.4721  -4034429.0391  -2458284.1219   5   8  30.0000  30.0000  30.0000   0.0000   0.0000   0.0000   5.00    0.0
2019/01/14 15:00:06.000   4280224.4721  -4034429.0391  -2458284.1219   5   9  30.0000  30.0000  30.0000   0.0000   0.0000   0.0000   6.00    0.0
2019/01/14 15:00:07.000   4280224.4721  -4034429.0391  -2458284.1219   5   9  30.0000  30.0000  30.0000   0.0000   0.0000   0.0000   7.00    0.0
2019/01/14 15:00:08.000   4280224.4721  -4034429.0391  -2458284.1219   5   9  30.0000  30.0000  30.0000   0.0000   0.0000   0.0000   8.00    0.0
2019/01/14 15:00:09.000   4280224.4721  -4034429.0391  -2458284.1219   5   8  30.0000  30.0000  30.0000   0.0000   0.0000   0.0000   9.00    0.0
2019/01/14 15:00:10.000   4280224.4721  -4034429.0391  -2458284.1219   5   8  30.0000  30.0000  30.0000   0.0000   0.0000   0.0000  10.00    0.0
2019/01/14 15:00:11.000   4280224.4721  -4034429.0391  -2458284.1219   5   9  30.0000  30.0000  30.0000   0.0000   0.0000   0.0000  11.00    0.0
2019/01/14 15:00:12.000   4280224.4721  -4034429.0391  -2458284.1219   5   9  30.0000  30.0000  30.0000   0.0000   0.0000   0.0000  12.00    0.0
2019/01/14 15:00:13.000   4280224.4721  -4034429.0391  -2458284.1219   5   9  30.0000  30.0000  30.0000   0.0000   0.0000   0.0000  13.00    0.0
2019/01/14 15:00:14.000   4280224.4721  -4034429.0391  -2458284.1219   5   9  30.0000  30.0000  30.0000   0.0000   0.0000   0.0000  14.00    0.0
2019/01/14 15:00:15.000   4280224.4721  -4034429.0391  -2458284.1219   5   9  30.0000  30.0000  30.0000   0.0000   0.0000   0.0000  -0.00    0.0
2019/01/14 15:00:16.000   4280224.4721  -4034429.0391  -2458284.1219   5   9  30.0000  30.0000  30.0000   0.0000   0.0000   0.0000   1.00    0.0
2019/01/14 15:00:17.000   4280224.4721  -4034429.0391  -2458284.1219   5   9  30.0000  30.0000  30.0000   0.0000   0.0000   0.0000   2.00    0.0
2019/01/14 15:00:18.000   4280224.4721  -4034429.0391  -2458284.1219   5   9  30.0000  30.0000  30.0000   0.0000   0.0000   0.0000   3.00    0.0
2019/01/14 15:00:19.000   4280224.4721  -4034429.0391  -2458284.1219   5   9  30.0000  30.0000  30.0000   0.0000   0.0000   0.0000   4.00    0.0
2019/01/14 15:00:20.000   4280224.4721  -4034429.0391  -2458284.1219   5   8  30.0000  30.0000  30.0000   0.0000   0.0000   0.0000   5.00    0.0
2019/01/14 15:00:21.000   4280224.4721  -4034429.0391  -2458284.1219   5   9  30.0000  30.0000  30.0000   0.0000   0.0000   0.0000   6.00    0.0
2019/01/14 15:00:22.000   4280224.4721  -4034429.0391  -2458284.1219   5   9  30.0000  30.0000  30.0000   0.0000   0.0000   0.0000   7.00    0.0
2019/01/14 15:00:23.000   4280224.4721  -4034429.0391  -2458284.1219   5   9  30.0000  30.0000  30.0000   0.0000   0.0000   0.0000   8.00    0.0
2019/01/14 15:00:24.000   4280224.4721  -4034429.0391  -2458284.1219   5   9  30.0000  30.0000  30.0000   0.0000   0.0000   0.0000   9.00    0.0
2019/01/14 15:00:25.000   4280224.4721  -4034429.0391  -2458284.1219   5   9  30.0000  30.0000  30.0000   0.0000   0.0000   0.0000  10.00    0.0
2019/01/14 15:00:26.000   4280224.4721  -4034429.0391  -2458284.1219   5   9  30.0000  30.0000  30.0000   0.0000   0.0000   0.0000  11.00    0.0
2019/01/14 15:00:27.000   4280224.4721  -4034429.0391  -2458284.1219   5   9  30.0000  30.0000  30.0000   0.0000   0.0000   0.0000  12.00    0.0
2019/01/14 15:00:28.000   4280224.4721  -4034429.0391  -2458284.1219   5   9  30.0000  30.0000  30.0000   0.0000   0.0000   0.0000  13.00    0.0
2019/01/14 15:00:29.000   4280224.4721  -4034429.0391  -2458284.1219   5   9  30.0000  30.0000  30.0000   0.0000   0.0000   0.0000  14.00    0.0
2019/01/14 15:00:30.000   4280224.4721  -4034429.0391  -2458284.1219   5   9  30.0000  30.0000  30.0000   0.0000   0.0000   0.0000  -0.00    0.0
2019/01/14 15:00:31.000   4280224.4721  -4034429.0391  -2458284.1219   5   9  30.0000  30.0000  30.0000   0.0000   0.0000   0.0000   1.00    0.0
2019/01/14 15:00:32.000   4280224.4721  -4034429.0391  -2458284.1219   5   9  30.0000  30.0000  30.0000   0.0000   0.0000   0.0000   2.00    0.0
2019/01/14 15:00:33.000   4280224.4721  -4034429.0391  -2458284.1219   5   9  30.0000  30.0000  30.0000   0.0000   0.0000   0.0000   3.00    0.0
2019/01/14 15:00:34.000   4280224.4721  -4034429.0391  -2458284.1219   5   9  30.0000  30.0000  30.0000   0.0000   0.0000   0.0000   4.00    0.0
2019/01/14 15:00:35.000   4280224.4721  -4034429.0391  -2458284.1219   5   9  30.0000  30.0000  30.0000   0.0000   0.0000   0.0000   5.00    0.0
2019/01/14 15:00:36.000   4280224.4721  -4034429.0391  -2458284.1219   5   9  30.0000  30.0000  30.0000   0.0000   0.0000   0.0000   6.00    0.0
2019/01/14 15:00:37.000   4280224.4721  -4034429.0391  -2458284.1219   5   9  30.0000  30.0000  30.0000   0.0000   0.0000   0.0000   7.00    0.0
2019/01/14 15:00:38.000   4280224.4721  -4034429.0391  -2458284.1219   5   9  30.0000  30.0000  30.0000   0.0000   0.0000   0.0000   8.00    0.0
2019/01/14 15:00:39.000   4280224.4721  -4034429.0391  -2458284.1219   5   8  30.0000  30.0000  30.0000   0.0000   0.0000   0.0000   9.00    0.0
2019/01/14 15:00:40.000   4280224.4721  -4034429.0391  -2458284.1219   5   9  30.0000  30.0000  30.0000   0.0000   0.0000   0.0000  10.00    0.0
2019/01/14 15:00:41.000   4280224.4721  -4034429.0391  -2458284.1219   5   9  30.0000  30.0000  30.0000   0.0000   0.0000   0.0000  11.00    0.0
2019/01/14 15:00:42.000   4280224.4721  -4034429.0391  -2458284.1219   5   9  30.0000  30.0000  30.0000   0.0000   0.0000   0.0000  12.00    0.0
2019/01/14 15:00:43.000   4280224.4721  -4034429.0391  -2458284.1219   5   8  30.0000  30.0000  30.0000   0.0000   0.0000   0.0000  13.00    0.0
2019/01/14 15:00:44.000   4280224.4721  -4034429.0391  -2458284.1219   5   8  30.0000  30.0000  30.0000   0.0000   0.0000   0.0000  14.00    0.0
2019/01/14 15:00:45.000   4280224.4721  -4034429.0391  -2458284.1219   5   9  30.0000  30.0000  30.0000   0.0000   0.0000   0.0000  -0.00    0.0
2019/01/14 15:00:46.000   4280224.4721  -4034429.0391  -2458284.1219   5   8  30.0000  30.0000  30.0000   0.0000   0.0000   0.0000   1.00    0.0
2019/01/14 15:00:47.000   4280224.4721  -4034429.0391  -2458284.1219   5   9  30.0000  30.0000  30.0000   0.0000   0.0000   0.0000   2.00    0.0
2019/01/14 15:00:48.000   4280224.4721  -4034429.0391  -2458284.1219   5   9  30.0000  30.0000  30.0000   0.0000   0.0000   0.0000   3.00    0.0
2019/01/14 15:00:49.000   4280224.4721  -4034429.0391  -2458284.1219   5   9  30.0000  30.0000  30.0000   0.0000   0.0000   0.0000   4.00    0.0
2019/01/14 15:00:50.000   4280224.4721  -4034429.0391  -2458284.1219   5   9  30.0000  30.0000  30.0000   0.0000   0.0000   0.0000   5.00    0.0
2019/01/14 15:00:51.000   4280224.4721  -4034429.0391  -2458284.1219   5   9  30.0000  30.0000  30.0000   0.0000   0.0000   0.0000   6.00    0.0
2019/01/14 15:00:52.000   4280224.4721  -4034429.0391  -2458284.1219   5   9  30.0000  30.0000  30.0000   0.0000   0.0000   0.0000   7.00    0.0
2019/01/14 15:00:53.000   4280224.4721  -4034429.0391  -2458284.1219   5   9  30.0000  30.0000  30.0000   0.0000   0.0000   0.0000   8.00    0.0
2019/01/14 15:00:54.000   4280224.4721  -4034429.0391  -2458284.1219   5   9  30.0000  30.0000  30.0000   0.0000   0.0000   0.0000   9.00    0.0
2019/01/14 15:00:55.000   4280224.4721  -4034429.0391  -2458284.1219   5   9  30.0000  30.0000  30.0000   0.0000   0.0000   0.0000  10.00    0.0
2019/01/14 15:00:56.000   4280224.4721  -4034429.0391  -2458284.1219   5   9  30.0000  30.0000  30.0000   0.0000   0.0000   0.0000  11.00    0.0
2019/01/14 15:00:57.000   4280224.4721  -4034429.0391  -2458284.1219   5   9  30.0000  30.0000  30.0000   0.0000   0.0000   0.0000  12.00    0.0
2019/01/14 15:00:58.000   4280224.4721  -4034429.0391  -2458284.1219   5   9  30.0000  30.0000  30.0000   0.0000   0.0000   0.0000  13.00    0.0
2019/01/14 15:00:59.000   4280224.4721  -4034429.0391  -2458284.1219   5   9  30.0000  30.0000  30.0000   0.0000   0.0000   0.0000  14.00    0.0
2019/01/14 15:01:00.000   4280224.4721  -4034429.0391  -2458284.1219   5   9  30.0000  30.0000  30.0000   0.0000   0.0000   0.0000  -0.00    0.0
2019/01/14 15:01:01.000   4280224.4721  -4034429.0391  -2458284.1219   5   9  30.0000  30.0000  30.0000   0.0000   0.0000   0.0000   1.00    0.0
2019/01/14 15:01:02.000   4280224.4721  -4034429.0391  -2458284.1219   5   8  30.0000  30.0000  30.0000   0.0000   0.0000   0.0000   2.00    0.0
2019/01/14 15:01:03.000   4280224.4721  -4034429.0391  -2458284.1219   5   9  30.0000  30.0000  30.0000   0.0000   0.0000   0.0000   3.00    0.0
2019/01/14 15:01:04.000   4280224.4721  -4034429.0391  -2458284.1219   5   9  30.0000  30.0000  30.0000   0.0000   0.0000   0.0000   4.00    0.0
2019/01/14 15:01:05.000   4280224.4721  -4034429.0391  -2458284.1219   5   9  30.0000  30.0000  30.0000   0.0000   0.0000   0.0000   5.00    0.0
2019/01/14 15:01:06.000   4280224.4721  -4034429.0391  -2458284.1219   5   8  30.0000  30.0000  30.0000   0.0000   0.0000   0.0000   6.00    0.0
2019/01/14 15:01:07.000   4280224.4721  -4034429.0391  -2458284.1219   5   9  30.0000  30.0000  30.0000   0.0000   0.0000   0.0000   7.00    0.0
2019/01/14 15:01:08.000   4280224.4721  -4034429.0391  -2458284.1219   5   9  30.0000  30.0000  30.0000   0.0000   0.0000   0.0000   8.00    0.0
2019/01/14 15:01:09.000   4280224.4721  -4034429.0391  -2458284.1219   5   9  30.0000  30.0000  30.0000   0.0000   0.0000   0.0000   9.00    0.0
2019/01/14 15:01:10.000   4280224.4721  -4034429.0391  -2458284.1219   5   9  30.0000  30.0000  30.0000   0.0000   0.0000   0.0000  10.00    0.0
2019/01/14 15:01:11.000   4280224.4721  -4034429.0391  -2458284.1219   5   8  30.0000  30.0000  30.0000   0.0000   0.0000   0.0000  11.00    0.0
2019/01/14 15:01:12.000   4280224.4721  -4034429.0391  -2458284.1219   5   8  30.0000  30.0000  30.0000   0.0000   0.0000   0.0000  12.00    0.0
2019/01/14 15:01:13.000   4280224.4721  -4034429.0391  -2458284.1219   5   8  30.0000  30.0000  30.0000   0.0000   0.0000   0.0000  13.00    0.0
2019/01/14 15:01:14.000   4280224.4721  -4034429.0391  -2458284.1219   5   9  30.0000  30.0000  30.0000   0.0000   0.0000   0.0000  14.00    0.0
2019/01/14 15:01:15.000   4280224.4721  -4034429.0391  -2458284.1219   5   9  30.0000  30.0000  30.0000   0.0000   0.0000   0.0000  -0.00    0.0
2019/01/14 15:01:16.000   4280224.4721  -4034429.0391  -2458284.1219   5   9  30.0000  30.0000  30.0000   0.0000   0.0000   0.0000   1.00    0.0
2019/01/14 15:01:17.000   4280224.4721  -4034429.0391  -2458284.1219   5   9  30.0000  30.0000  30.0000   0.0000   0.0000   0.0000   2.00    0.0
2019/01/14 15:01:18.000   4280224.4721  -4034429.0391  -2458284.1219   5   9  30.0000  30.0000  30.0000   0.0000   0.0000   0.0000   3.00    0.0
2019/01/14 15:01:19.000   4280224.4721  -4034429.0391  -2458284.1219   5   9  30.0000  30.0000  30.0000   0.0000   0.0000   0.0000   4.00    0.0
2019/01/14 15:01:20.000   4280224.4721  -4034429.0391  -2458284.1219   5   9  30.0000  30.0000  30.0000   0.0000   0.0000   0.0000   5.00    0.0
2019/01/14 15:01:21.000   4280224.4721  -4034429.0391  -2458284.1219   5   8  30.0000  30.0000  30.0000   0.0000   0.0000   0.0000   6.00    0.0
2019/01/14 15:01:22.000   4280224.4721  -4034429.0391  -2458284.1219   5   8  30.0000  30.0000  30.0000   0.0000   0.0000   0.0000   7.00    0.0
2019/01/14 15:01:23.000   4280224.4721  -4034429.0391  -2458284.1219   5   9  30.0000  30.0000  30.0000   0.0000   0.0000   0.0000   8.00    0.0
2019/01/14 15:01:24.000   4280224.4721  -4034429.0391  -2458284.1219   5   8  30.0000  30.0000  30.0000   0.0000   0.0000   0.0000   9.00    0.0
2019/01/14 15:01:25.000   4280224.4721  -4034429.0391  -2458284.1219   5   8  30.0000  30.0000  30.0000   0.0000   0.0000   0.0000  10.00    0.0
2019/01/14 15:01:26.000   4280224.4721  -4034429.0391  -2458284.1219   5   9  30.0000  30.0000  30.0000   0.0000   0.0000   0.0000  11.00    0.0
2019/01/14 15:01:27.000   4280224.4721  -4034429.0391  -2458284.1219   5   9  30.0000  30.0000  30.0000   0.0000   0.0000   0.0000  12.00    0.0
2019/01/14 15:01:28.000   4280224.4721  -4034429.0391  -2458284.1219   5   9  30.0000  30.0000  30.0000   0.0000   0.0000   0.0000  13.00    0.0
2019/01/14 15:01:29.000   4280224.4721  -4034429.0391  -2458284.1219   5   9  30.0000  30.0000  30.0000   0.0000   0.0000   0.0000  14.00    0.0
2019/01/14 15:01:30.000   4280224.4721  -4034429.0391  -2458284.1219   5   8  30.0000  30.0000  30.0000   0.0000   0.0000   0.0000  -0.00    0.0
2019/01/14 15:01:31.000   4280224.4721  -4034429.0391  -2458284.1219   5   9  30.0000  30.0000  30.0000   0.0000   0.0000   0.0000   1.00    0.0
2019/01/14 15:01:32.000   4280224.4721  -4034429.0391  -2458284.1219   5   8  30.0000  30.0000  30.0000   0.0000   0.0000   0.0000   2.00    0.0
2019/01/14 15:01:33.000   4280224.4721  -4034429.0391  -2458284.1219   5   8  30.0000  30.0000  30.0000   0.0000   0.0000   0.0000   3.00    0.0
2019/01/14 15:01:34.000   4280224.4721  -4034429.0391  -2458284.1219   5   9  30.0000  30.0000  30.0000   0.0000   0.0000   0.0000   4.00    0.0
2019/01/14 15:01:35.000   4280224.4721  -4034429.0391  -2458284.1219   5   9  30.0000  30.0000  30.0000   0.0000   0.0000   0.0000   5.00    0.0
2019/01/14 15:01:36.000   4280224.4721  -4034429.0391  -2458284.1219   5   9  30.0000  30.0000  30.0000   0.0000   0.0000   0.0000   6.00    0.0
2019/01/14 15:01:37.000   4280224.4721  -4034429.0391  -2458284.1219   5   9  30.0000  30.0000  30.0000   0.0000   0.0000   0.0000   7.00    0.0
2019/01/14 15:01:38.000   4280224.4721  -4034429.0391  -2458284.1219   5   8  30.0000  30.0000  30.0000   0.0000   0.0000   0.0000   8.00    0.0
2019/01/14 15:01:39.000   4280224.4721  -4034429.0391  -2458284.1219   5   9  30.0000  30.0000  30.0000   0.0000   0.0000   0.0000   9.00    0.0
2019/01/14 15:01:40.000   4280224.4721  -4034429.0391  -2458284.1219   5   9  30.0000  30.0000  30.0000   0.0000   0.0000   0.0000  10.00    0.0
2019/01/14 15:01:41.000   4280224.4721  -4034429.0391  -2458284.1219   5   8  30.0000  30.0000  30.0000   0.0000   0.0000   0.0000  11.00    0.0
2019/01/14 15:01:42.000   4280224.4721  -4034429.0391  -2458284.1219   5   8  30.0000  30.0000  30.0000   0.0000   0.0000   0.0000  12.00    0.0
2019/01/14 15:01:43.000   4280224.4721  -4034429.0391  -2458284.1219   5   9  30.0000  30.0000  30.0000   0.0000   0.0000   0.0000  13.00    0.0
2019/01/14 15:01:44.000   4280224.4721  -4034429.0391  -2458284.1219   5   8  30.0000  30.0000  30.0000   0.0000   0.0000   0.0000  14.00    0.0
2019/01/14 15:01:45.000   4280224.4721  -4034429.0391  -2458284.1219   5   9  30.0000  30.0000  30.0000   0.0000   0.0000   0.0000  -0.00    0.0
2019/01/14 15:01:46.000   4280224.4721  -4034429.0391  -2458284.1219   5  10  30.0000  30.0000  30.0000   0.0000   0.0000   0.0000   1.00    0.0
2019/01/14 15:01:47.000   4280224.4721  -4034429.0391  -2458284.1219   5   9  30.0000  30.0000  30.0000   0.0000   0.0000   0.0000   2.00    0.0
2019/01/14 15:01:48.000   4280224.4721  -4034429.0391  -2458284.1219   5   9  30.0000  30.0000  30.0000   0.0000   0.0000   0.0000   3.00    0.0
2019/01/14 15:01:49.000   4280224.4721  -4034429.0391  -2458284.1219   5   9  30.0000  30.0000  30.0000   0.0000   0.0000   0.0000   4.00    0.0
2019/01/14 15:01:50.000   4280224.4721  -4034429.0391  -2458284.1219   5   9  30.0000  30.0000  30.0000   0.0000   0.0000   0.0000   5.00    0.0
2019/01/14 15:01:51.000   4280224.4721  -4034429.0391  -2458284.1219   5   9  30.0000  30.0000  30.0000   0.0000   0.0000   0.0000   6.00    0.0
2019/01/14 15:01:52.000   4280224.4721  -4034429.0391  -2458284.1219   5   9  30.0000  30.0000  30.0000   0.0000   0.0000   0.0000   7.00    0.0
2019/01/14 15:01:53.000   4280224.4721  -4034429.0391  -2458284.1219   5  10  30.0000  30.0000  30.0000   0.0000   0.0000   0.0000   8.00    0.0
2019/01/14 15:01:54.000   4280224.4721  -4034429.0391  -2458284.1219   5  10  30.0000  30.0000  30.0000   0.0000   0.0000   0.0000   9.00    0.0
2019/01/14 15:01:55.000   4280224.4721  -4034429.0391  -2458284.1219   5   9  30.0000  30.0000  30.0000   0.0000   0.0000   0.0000  10.00    0.0
2019/01/14 15:01:56.000   4280224.4721  -4034429.0391  -2458284.1219   5   8  30.0000  30.0000  30.0000   0.0000   0.0000   0.0000  11.00    0.0
2019/01/14 15:01:57.000   4280224.4721  -4034429.0391  -2458284.1219   5   9  30.0000  30.0000  30.0000   0.0000   0.0000   0.0000  12.00    0.0
2019/01/14 15:01:58.000   4280224.4721  -4034429.0391  -2458284.1219   5   9  30.0000  30.0000  30.0000   0.0000   0.0000   0.0000  13.00    0.0
2019/01/14 15:01:59.000   4280224.4721  -4034429.0391  -2458284.1219   5   9  30.0000  30.0000  30.0000   0.0000   0.0000   0.0000  14.00    0.0
2019/01/14 15:02:00.000   4280224.4721  -4034429.0391  -2458284.1219   5   9  30.0000  30.0000  30.0000   0.0000   0.0000   0.0000  -0.00    0.0
2019/01/14 15:02:01.000   4280224.4721  -4034429.0391  -2458284.1219   5   9  30.0000  30.0000  30.0000   0.0000   0.0000   0.0000   1.00    0.0
2019/01/14 15:02:02.000   4280224.4721  -4034429.0391  -2458284.1219   5   9  30.0000  30.0000  30.0000   0.0000   0.0000   0.0000   2.00    0.0
2019/01/14 15:02:03.000   4280224.4721  -4034429.0391  -2458284.1219   5   9  30.0000  30.0000  30.0000   0.0000   0.0000   0.0000   3.00    0.0
2019/01/14 15:02:04.000   4280224.4721  -4034429.0391  -2458284.1219   5   9  30.0000  30.0000  30.0000   0.0000   0.0000   0.0000   4.00    0.0
2019/01/14 15:02:05.000   4280224.4721  -4034429.0391  -2458284.1219   5   9  30.0000  30.0000  30.0000   0.0000   0.0000   0.0000   5.00    0.0
2019/01/14 15:02:06.000   4280224.4721  -4034429.0391  -2458284.1219   5   9  30.0000  30.0000  30.0000   0.0000   0.0000   0.0000   6.00    0.0
2019/01/14 15:02:07.000   4280224.4721  -4034429.0391  -2458284.1219   5   9  30.0000  30.0000  30.0000   0.0000   0.0000   0.0000   7.00    0.0
2019/01/14 15:02:08.000   4280224.4721  -4034429.0391  -2458284.1219   5   9  30.0000  30.0000  30.0000   0.0000   0.0000   0.0000   8.00    0.0
2019/01/14 15:02:09.000   4280224.4721  -4034429.0391  -2458284.1219   5   9  30.0000  30.0000  30.0000   0.0000   0.0000   0.0000   9.00    0.0
2019/01/14 15:02:10.000   4280224.4721  -4034429.0391  -2458284.1219   5   8  30.0000  30.0000  30.0000   0.0000   0.0000   0.0000  10.00    0.0
2019/01/14 15:02:11.000   4280224.4721  -4034429.0391  -2458284.1219   5   8  30.0000  30.0000  30.0000   0.0000   0.0000   0.0000  11.00    0.0
2019/01/14 15:02:12.000   4280224.4721  -4034429.0391  -2458284.1219   5   8  30.0000  30.0000  30.0000   0.0000   0.0000   0.0000  12.00    0.0
2019/01/14 15:02:13.000   4280224.4721  -4034429.0391  -2458284.1219   5   9  30.0000  30.0000  30.0000   0.0000   0.0000   0.0000  13.00    0.0
2019/01/14 15:02:14.000   4280224.4721  -4034429.0391  -2458284.1219   5   9  30.0000  30.0000  30.0000   0.0000   0.0000   0.0000  14.00    0.0
2019/01/14 15:02:15.000   4280224.4721  -4034429.0391  -2458284.1219   5   8  30.0000  30.0000  30.0000   0.0000   0.0000   0.0000  -0.00    0.0
2019/01/14 15:02:16.000   4280224.4721  -4034429.0391  -2458284.1219   5   9  30.0000  30.0000  30.0000   0.0000   0.0000   0.0000   1.00    0.0
2019/01/14 15:02:17.000   4280224.4721  -4034429.0391  -2458284.1219   5   9  30.0000  30.0000  30.0000   0.0000   0.0000   0.0000   2.00    0.0
2019/01/14 15:02:18.000   4280224.4721  -4034429.0391  -2458284.1219   5   9  30.0000  30.0000  30.0000   0.0000   0.0000   0.0000   3.00    0.0
2019/01/14 15:02:19.000   4280224.4721  -4034429.0391  -2458284.1219   5   9  30.0000  30.0000  30.0000   0.0000   0.0000   0.0000   4.00    0.0
2019/01/14 15:02:20.000   4280224.4721  -4034429.0391  -2458284.1219   5   9  30.0000  30.0000  30.0000   0.0000   0.0000   0.0000   5.00    0.0
2019/01/14 15:02:21.000   4280224.4721  -4034429.0391  -2458284.1219   5   9  30.0000  30.0000  30.0000   0.0000   0.0000   0.0000   6.00    0.0
2019/01/14 15:02:22.000   4280224.4721  -4034429.0391  -2458284.1219   5   9  30.0000  30.0000  30.0000   0.0000   0.0000   0.0000   7.00    0.0
2019/01/14 15:02:23.000   4280224.4721  -4034429.0391  -2458284.1219   5   9  30.0000  30.0000  30.0000   0.0000   0.0000   0.0000   8.00    0.0
2019/01/14 15:02:24.000   4280224.4721  -4034429.0391  -2458284.1219   5   9  30.0000  30.0000  30.0000   0.0000   0.0000   0.0000   9.00    0.0
2019/01/14 15:02:25.000   4280224.4721  -4034429.0391  -2458284.1219   5   9  30.0000  30.0000  30.0000   0.0000   0.0000   0.0000  10.00    0.0
2019/01/14 15:02:26.000   4280224.4721  -4034429.0391  -2458284.1219   5   9  30.0000  30.0000  30.0000   0.0000   0.0000   0.0000  11.00    0.0
2019/01/14 15:02:27.000   4280224.4721  -4034429.0391  -2458284.1219   5   9  30.0000  30.0000  30.0000   0.0000   0.0000   0.0000  12.00    0.0
2019/01/14 15:02:28.000   4280224.4721  -4034429.0391  -2458284.1219   5   9  30.0000  30.0000  30.0000   0.0000   0.0000   0.0000  13.00    0.0
2019/01/14 15:02:29.000   4280224.4721  -4034429.0391  -2458284.1219   5   9  30.0000  30.0000  30.0000   0.0000   0.0000   0.0000  14.00    0.0
2019/01/14 15:02:30.000   4280224.4721  -4034429.0391  -2458284.1219   5   9  30.0000  30.0000  30.0000   0.0000   0.0000   0.0000  -0.00    0.0
2019/01/14 15:02:31.000   4280224.4721  -4034429.0391  -2458284.1219   5   9  30.0000  30.0000  30.0000   0.0000   0.0000   0.0000   1.00    0.0
2019/01/14 15:02:32.000   4280224.4721  -4034429.0391  -2458284.1219   5   9  30.0000  30.0000  30.0000   0.0000   0.0000   0.0000   2.00    0.0
2019/01/14 15:02:33.000   4280224.4721  -4034429.0391  -2458284.1219   5   9  30.0000  30.0000  30.0000   0.0000   0.0000   0.0000   3.00    0.0
2019/01/14 15:02:34.000   4280224.4721  -4034429.0391  -2458284.1219   5   9  30.0000  30.0000  30.0000   0.0000   0.0000   0.0000   4.00    0.0
2019/01/14 15:02:35.000   4280224.4721  -4034429.0391  -2458284.1219   5   9  30.0000  30.0000  30.0000   0.0000   0.0000   0.0000   5.00    0.0
2019/01/14 15:02:36.000   4280224.4721  -4034429.0391  -2458284.1219   5   9  30.0000  30.0000  30.0000   0.0000   0.0000   0.0000   6.00    0.0
2019/01/14 15:02:37.000   4280224.4721  -4034429.0391  -2458284.1219   5   9  30.0000  30.0000  30.0000   0.0000   0.0000   0.0000   7.00    0.0
2019/01/14 15:02:38.000   4280224.4721  -4034429.0391  -2458284.1219   5   9  30.0000  30.0000  30.0000   0.0000   0.0000   0.0000   8.00    0.0
2019/01/14 15:02:39.000   4280224.4721  -4034429.0391  -2458284.1219   5   8  30.0000  30.0000  30.0000   0.0000   0.0000   0.0000   9.00    0.0
2019/01/14 15:02:41.000   4280224.4721  -4034429.0391  -2458284.1219   5   8  30.0000  30.0000  30.0000   0.0000   0.0000   0.0000  11.00    0.0
2019/01/14 15:02:42.000   4280224.4721  -4034429.0391  -2458284.1219   5   9  30.0000  30.0000  30.0000   0.0000   0.0000   0.0000  12.00    0.0
2019/01/14 15:02:43.000   4280224.4721  -4034429.0391  -2458284.1219   5   8  30.0000  30.0000  30.0000   0.0000   0.0000   0.0000  13.00    0.0
2019/01/14 15:02:44.000   4280224.4721  -4034429.0391  -2458284.1219   5   9  30.0000  30.0000  30.0000   0.0000   0.0000   0.0000  14.00    0.0
2019/01/14 15:02:45.000   4280224.4721  -4034429.0391  -2458284.1219   5   9  30.0000  30.0000  30.0000   0.0000   0.0000   0.0000  -0.00    0.0
2019/01/14 15:02:46.000   4280224.4721  -4034429.0391  -2458284.1219   5   9  30.0000  30.0000  30.0000   0.0000   0.0000   0.0000   1.00    0.0
2019/01/14 15:02:47.000   4280224.4721  -4034429.0391  -2458284.1219   5   9  30.0000  30.0000  30.0000   0.0000   0.0000   0.0000   2.00    0.0
2019/01/14 15:02:48.000   4280224.4721  -4034429.0391  -2458284.1219   5   9  30.0000  30.0000  30.0000   0.0000   0.0000   0.0000   3.00    0.0
2019/01/14 15:02:49.000   4280224.4721  -4034429.0391  -2458284.1219   5   9  30.0000  30.0000  30.0000   0.0000   0.0000   0.0000   4.00    0.0
2019/01/14 15:02:50.000   4280224.4721  -4034429.0391  -2458284.1219   5   8  30.0000  30.0000  30.0000   0.0000   0.0000   0.0000   5.00    0.0
2019/01/14 15:02:51.000   4280224.4721  -4034429.0391  -2458284.1219   5   9  30.0000  30.0000  30.0000   0.0000   0.0000   0.0000   6.00    0.0
2019/01/14 15:02:52.000   4280224.4721  -4034429.0391  -2458284.1219   5   9  30.0000  30.0000  30.0000   0.0000   0.0000   0.0000   7.00    0.0
2019/01/14 15:02:53.000   4280224.4721  -4034429.0391  -2458284.1219   5   8  30.0000  30.0000  30.0000   0.0000   0.0000   0.0000   8.00    0.0
2019/01/14 15:02:55.000   4280224.4721  -4034429.0391  -2458284.1219   5   8  30.0000  30.0000  30.0000   0.0000   0.0000   0.0000  10.00    0.0
2019/01/14 15:02:56.000   4280224.4721  -4034429.0391  -2458284.1219   5   9  30.0000  30.0000  30.0000   0.0000   0.0000   0.0000  11.00    0.0
2019/01/14 15:02:57.000   4280224.4721  -4034429.0391  -2458284.1219   5   9  30.0000  30.0000  30.0000   0.0000   0.0000   0.0000  12.00    0.0
2019/01/14 15:02:58.000   4280224.4721  -4034429.0391  -2458284.1219   5   9  30.0000  30.0000  30.0000   0.0000   0.0000   0.0000  13.00    0.0
2019/01/14 15:02:59.000   4280224.4721  -4034429.0391  -2458284.1219   5   9  30.0000  30.0000  30.0000   0.0000   0.0000   0.0000  14.00    0.0
2019/01/14 15:03:00.000   4280224.4721  -4034429.0391  -2458284.1219   5   8  30.0000  30.0000  30.0000   0.0000   0.0000   0.0000  -0.00    0.0
2019/01/14 15:03:01.000   4280224.4721  -4034429.0391  -2458284.1219   5   8  30.0000  30.0000  30.0000   0.0000   0.0000   0.0000   1.00    0.0
2019/01/14 15:03:02.000   4280224.4721  -4034429.0391  -2458284.1219   5   8  30.0000  30.0000  30.0000   0.0000   0.0000   0.0000   2.00    0.0
2019/01/14 15:03:05.000   4280224.4721  -4034429.0391  -2458284.1219   5   9  30.0000  30.0000  30.0000   0.0000   0.0000   0.0000   5.00    0.0
2019/01/14 15:44:58.000   4280224.4721  -4034429.0391  -2458284.1219   5  11  30.0000  30.0000  30.0000   0.0000   0.0000   0.0000  13.00    0.0
2019/01/14 15:44:59.000   4280224.4721  -4034429.0391  -2458284.1219   5  12  30.0000  30.0000  30.0000   0.0000   0.0000   0.0000  14.00    0.0
2019/01/14 15:45:01.000   4280224.4721  -4034429.0391  -2458284.1219   5  10  30.0000  30.0000  30.0000   0.0000   0.0000   0.0000   1.00    0.0
2019/01/14 15:45:02.000   4280224.4721  -4034429.0391  -2458284.1219   5   9  30.0000  30.0000  30.0000   0.0000   0.0000   0.0000   2.00    0.0
2019/01/14 15:45:03.000   4280224.4721  -4034429.0391  -2458284.1219   5   9  30.0000  30.0000  30.0000   0.0000   0.0000   0.0000   3.00    0.0
2019/01/14 15:45:04.000   4280224.4721  -4034429.0391  -2458284.1219   5   9  30.0000  30.0000  30.0000   0.0000   0.0000   0.0000   4.00    0.0
2019/01/14 15:45:05.000   4280224.4721  -4034429.0391  -2458284.1219   5   9  30.0000  30.0000  30.0000   0.0000   0.0000   0.0000   5.00    0.0
2019/01/14 15:45:06.000   4280224.4721  -4034429.0391  -2458284.1219   5   9  30.0000  30.0000  30.0000   0.0000   0.0000   0.0000   6.00    0.0
2019/01/14 15:45:07.000   4280224.4721  -4034429.0391  -2458284.1219   5   8  30.0000  30.0000  30.0000   0.0000   0.0000   0.0000   7.00    0.0
2019/01/14 15:45:08.000   4280224.4721  -4034429.0391  -2458284.1219   5   9  30.0000  30.0000  30.0000   0.0000   0.0000   0.0000   8.00    0.0
2019/01/14 15:45:11.000   4280224.4721  -4034429.0391  -2458284.1219   5  11  30.0000  30.0000  30.0000   0.0000   0.0000   0.0000  11.00    0.0
2019/01/14 15:45:12.000   4280224.4721  -4034429.0391  -2458284.1219   5  11  30.0000  30.0000  30.0000   0.0000   0.0000   0.0000  12.00    0.0
2019/01/14 15:45:13.000   4280224.4721  -4034429.0391  -2458284.1219   5  10  30.0000  30.0000  30.0000   0.0000   0.0000   0.0000  13.00    0.0
2019/01/14 15:45:15.000   4280224.4721  -4034429.0391  -2458284.1219   5   9  30.0000  30.0000  30.0000   0.0000   0.0000   0.0000  -0.00    0.0
2019/01/14 15:45:16.000   4280224.4721  -4034429.0391  -2458284.1219   5   9  30.0000  30.0000  30.0000   0.0000   0.0000   0.0000   1.00    0.0
2019/01/14 15:45:17.000   4280224.4721  -4034429.0391  -2458284.1219   5   9  30.0000  30.0000  30.0000   0.0000   0.0000   0.0000   2.00    0.0
2019/01/14 15:45:18.000   4280224.4721  -4034429.0391  -2458284.1219   5   9  30.0000  30.0000  30.0000   0.0000   0.0000   0.0000   3.00    0.0
2019/01/14 15:45:20.000   4280224.4721  -4034429.0391  -2458284.1219   5  10  30.0000  30.0000  30.0000   0.0000   0.0000   0.0000   5.00    0.0
2019/01/14 15:45:21.000   4280224.4721  -4034429.0391  -2458284.1219   5  10  30.0000  30.0000  30.0000   0.0000   0.0000   0.0000   6.00    0.0
2019/01/14 15:45:22.000   4280224.4721  -4034429.0391  -2458284.1219   5  10  30.0000  30.0000  30.0000   0.0000   0.0000   0.0000   7.00    0.0
2019/01/14 15:45:23.000   4280224.4721  -4034429.0391  -2458284.1219   5   9  30.0000  30.0000  30.0000   0.0000   0.0000   0.0000   8.00    0.0
2019/01/14 15:45:24.000   4280224.4721  -4034429.0391  -2458284.1219   5   9  30.0000  30.0000  30.0000   0.0000   0.0000   0.0000   9.00    0.0
2019/01/14 15:45:25.000   4280224.4721  -4034429.0391  -2458284.1219   5  10  30.0000  30.0000  30.0000   0.0000   0.0000   0.0000  10.00    0.0
2019/01/14 15:45:26.000   4280224.4721  -4034429.0391  -2458284.1219   5  10  30.0000  30.0000  30.0000   0.0000   0.0000   0.0000  11.00    0.0
2019/01/14 15:45:27.000   4280224.4721  -4034429.0391  -2458284.1219   5  10  30.0000  30.0000  30.0000   0.0000   0.0000   0.0000  12.00    0.0
2019/01/14 15:45:28.000   4280224.4721  -4034429.0391  -2458284.1219   5   9  30.0000  30.0000  30.0000   0.0000   0.0000   0.0000  13.00    0.0
2019/01/14 15:45:33.000   4280224.4721  -4034429.0391  -2458284.1219   5   9  30.0000  30.0000  30.0000   0.0000   0.0000   0.0000   3.00    0.0
2019/01/14 15:45:36.000   4280224.4721  -4034429.0391  -2458284.1219   5   9  30.0000  30.0000  30.0000   0.0000   0.0000   0.0000   6.00    0.0
2019/01/14 15:45:37.000   4280224.4721  -4034429.0391  -2458284.1219   5  10  30.0000  30.0000  30.0000   0.0000   0.0000   0.0000   7.00    0.0
2019/01/14 15:45:38.000   4280224.4721  -4034429.0391  -2458284.1219   5   9  30.0000  30.0000  30.0000   0.0000   0.0000   0.0000   8.00    0.0
2019/01/14 15:45:39.000   4280224.4721  -4034429.0391  -2458284.1219   5   9  30.0000  30.0000  30.0000   0.0000   0.0000   0.0000   9.00    0.0
2019/01/14 15:45:40.000   4280224.4721  -4034429.0391  -2458284.1219   5   9  30.0000  30.0000  30.0000   0.0000   0.0000   0.0000  10.00    0.0
2019/01/14 15:45:41.000   4280224.4721  -4034429.0391  -2458284.1219   5   9  30.0000  30.0000  30.0000   0.0000   0.0000   0.0000  11.00    0.0
2019/01/14 15:45:42.000   4280224.4721  -4034429.0391  -2458284.1219   5  10  30.0000  30.0000  30.0000   0.0000   0.0000   0.0000  12.00    0.0
2019/01/14 15:45:43.000   4280224.4721  -4034429.0391  -2458284.1219   5   9  30.0000  30.0000  30.0000   0.0000   0.0000   0.0000  13.00    0.0
2019/01/14 15:45:44.000   4280224.4721  -4034429.0391  -2458284.1219   5  10  30.0000  30.0000  30.0000   0.0000   0.0000   0.0000  14.00    0.0
2019/01/14 15:45:45.000   4280224.4721  -4034429.0391  -2458284.1219   5   9  30.0000  30.0000  30.0000   0.0000   0.0000   0.0000  -0.00    0.0
2019/01/14 15:45:47.000   4280224.4721  -4034429.0391  -2458284.1219   5   9  30.0000  30.0000  30.0000   0.0000   0.0000   0.0000   2.00    0.0
2019/01/14 15:45:48.000   4280224.4721  -4034429.0391  -2458284.1219   5   9  30.0000  30.0000  30.0000   0.0000   0.0000   0.0000   3.00    0.0
2019/01/14 15:45:49.000   4280224.4721  -4034429.0391  -2458284.1219   5   9  30.0000  30.0000  30.0000   0.0000   0.0000   0.0000   4.00    0.0
2019/01/14 15:45:50.000   4280224.4721  -4034429.0391  -2458284.1219   5  10  30.0000  30.0000  30.0000   0.0000   0.0000   0.0000   5.00    0.0
2019/01/14 15:45:51.000   4280224.4721  -4034429.0391  -2458284.1219   5   9  30.0000  30.0000  30.0000   0.0000   0.0000   0.0000   6.00    0.0
2019/01/14 15:45:52.000   4280224.4721  -4034429.0391  -2458284.1219   5   9  30.0000  30.0000  30.0000   0.0000   0.0000   0.0000   7.00    0.0
2019/01/14 15:45:53.000   4280224.4721  -4034429.0391  -2458284.1219   5  10  30.0000  30.0000  30.0000   0.0000   0.0000   0.0000   8.00    0.0
2019/01/14 15:45:54.000   4280224.4721  -4034429.0391  -2458284.1219   5   9  30.0000  30.0000  30.0000   0.0000   0.0000   0.0000   9.00    0.0
2019/01/14 15:45:55.000   4280224.4721  -4034429.0391  -2458284.1219   5  10  30.0000  30.0000  30.0000   0.0000   0.0000   0.0000  10.00    0.0
2019/01/14 15:45:57.000   4280224.4721  -4034429.0391  -2458284.1219   5   9  30.0000  30.0000  30.0000   0.0000   0.0000   0.0000  12.00    0.0
2019/01/14 15:45:58.000   4280224.4721  -4034429.0391  -2458284.1219   5   9  30.0000  30.0000  30.0000   0.0000   0.0000   0.0000  13.00    0.0
2019/01/14 15:45:59.000   4280224.4721  -4034429.0391  -2458284.1219   5   9  30.0000  30.0000  30.0000   0.0000   0.0000   0.0000  14.00    0.0
2019/01/14 15:46:00.000   4280224.4721  -4034429.0391  -2458284.1219   5   9  30.0000  30.0000  30.0000   0.0000   0.0000   0.0000  -0.00    0.0
2019/01/14 15:46:01.000   4280224.4721  -4034429.0391  -2458284.1219   5   9  30.0000  30.0000  30.0000   0.0000   0.0000   0.0000   1.00    0.0
2019/01/14 15:46:02.000   4280224.4721  -4034429.0391  -2458284.1219   5  10  30.0000  30.0000  30.0000   0.0000   0.0000   0.0000   2.00    0.0
2019/01/14 15:46:03.000   4280224.4721  -4034429.0391  -2458284.1219   5  10  30.0000  30.0000  30.0000   0.0000   0.0000   0.0000   3.00    0.0
2019/01/14 15:46:06.000   4280224.4721  -4034429.0391  -2458284.1219   5   9  30.0000  30.0000  30.0000   0.0000   0.0000   0.0000   6.00    0.0
2019/01/14 15:46:07.000   4280224.4721  -4034429.0391  -2458284.1219   5   9  30.0000  30.0000  30.0000   0.0000   0.0000   0.0000   7.00    0.0
2019/01/14 15:46:10.000   4280224.4721  -4034429.0391  -2458284.1219   5   9  30.0000  30.0000  30.0000   0.0000   0.0000   0.0000  10.00    0.0
2019/01/14 15:46:11.000   4280224.4721  -4034429.0391  -2458284.1219   5  10  30.0000  30.0000  30.0000   0.0000   0.0000   0.0000  11.00    0.0
2019/01/14 15:46:12.000   4280224.4721  -4034429.0391  -2458284.1219   5  10  30.0000  30.0000  30.0000   0.0000   0.0000   0.0000  12.00    0.0
2019/01/14 15:46:13.000   4280224.4721  -4034429.0391  -2458284.1219   5  10  30.0000  30.0000  30.0000   0.0000   0.0000   0.0000  13.00    0.0
2019/01/14 15:46:14.000   4280224.4721  -4034429.0391  -2458284.1219   5  10  30.0000  30.0000  30.0000   0.0000   0.0000   0.0000  14.00    0.0
2019/01/14 15:46:15.000   4280224.4721  -4034429.0391  -2458284.1219   5  10  30.0000  30.0000  30.0000   0.0000   0.0000   0.0000  -0.00    0.0
2019/01/14 15:46:16.000   4280224.4721  -4034429.0391  -2458284.1219   5  10  30.0000  30.0000  30.0000   0.0000   0.0000   0.0000   1.00    0.0
2019/01/14 15:46:17.000   4280224.4721  -4034429.0391  -2458284.1219   5   9  30.0000  30.0000  30.0000   0.0000   0.0000   0.0000   2.00    0.0
2019/01/14 15:46:18.000   4280224.4721  -4034429.0391  -2458284.1219   5   9  30.0000  30.0000  30.0000   0.0000   0.0000   0.0000   3.00    0.0
2019/01/14 15:46:20.000   4280224.4721  -4034429.0391  -2458284.1219   5  10  30.0000  30.0000  30.0000   0.0000   0.0000   0.0000   5.00    0.0
2019/01/14 15:46:21.000   4280224.4721  -4034429.0391  -2458284.1219   5  10  30.0000  30.0000  30.0000   0.0000   0.0000   0.0000   6.00    0.0
2019/01/14 15:46:22.000   4280224.4721  -4034429.0391  -2458284.1219   5  10  30.0000  30.0000  30.0000   0.0000   0.0000   0.0000   7.00    0.0
2019/01/14 15:46:23.000   4280224.4721  -4034429.0391  -2458284.1219   5   9  30.0000  30.0000  30.0000   0.0000   0.0000   0.0000   8.00    0.0
2019/01/14 15:46:24.000   4280224.4721  -4034429.0391  -2458284.1219   5   9  30.0000  30.0000  30.0000   0.0000   0.0000   0.0000   9.00    0.0
2019/01/14 15:46:25.000   4280224.4721  -4034429.0391  -2458284.1219   5   9  30.0000  30.0000  30.0000   0.0000   0.0000   0.0000  10.00    0.0
2019/01/14 15:46:26.000   4280224.4721  -4034429.0391  -2458284.1219   5   9  30.0000  30.0000  30.0000   0.0000   0.0000   0.0000  11.00    0.0
2019/01/14 15:46:27.000   4280224.4721  -4034429.0391  -2458284.1219   5   9  30.0000  30.0000  30.0000   0.0000   0.0000   0.0000  12.00    0.0
2019/01/14 15:46:28.000   4280224.4721  -4034429.0391  -2458284.1219   5   9  30.0000  30.0000  30.0000   0.0000   0.0000   0.0000  13.00    0.0
2019/01/14 15:46:29.000   4280224.4721  -4034429.0391  -2458284.1219   5  10  30.0000  30.0000  30.0000   0.0000   0.0000   0.0000  14.00    0.0
2019/01/14 15:46:30.000   4280224.4721  -4034429.0391  -2458284.1219   5  10  30.0000  30.0000  30.0000   0.0000   0.0000   0.0000  -0.00    0.0
2019/01/14 15:46:31.000   4280224.4721  -4034429.0391  -2458284.1219   5  10  30.0000  30.0000  30.0000   0.0000   0.0000   0.0000   1.00    0.0
2019/01/14 15:46:32.000   4280224.4721  -4034429.0391  -2458284.1219   5  10  30.0000  30.0000  30.0000   0.0000   0.0000   0.0000   2.00    0.0
2019/01/14 15:46:33.000   4280224.4721  -4034429.0391  -2458284.1219   5   9  30.0000  30.0000  30.0000   0.0000   0.0000   0.0000   3.00    0.0
2019/01/14 15:46:34.000   4280224.4721  -4034429.0391  -2458284.1219   5   9  30.0000  30.0000  30.0000   0.0000   0.0000   0.0000   4.00    0.0
2019/01/14 15:46:35.000   4280224.4721  -4034429.0391  -2458284.1219   5   9  30.0000  30.0000  30.0000   0.0000   0.0000   0.0000   5.00    0.0
2019/01/14 15:46:36.000   4280224.4721  -4034429.0391  -2458284.1219   5  10  30.0000  30.0000  30.0000   0.0000   0.0000   0.0000   6.00    0.0
2019/01/14 15:46:37.000   4280224.4721  -4034429.0391  -2458284.1219   5  11  30.0000  30.0000  30.0000   0.0000   0.0000   0.0000   7.00    0.0
2019/01/14 15:46:38.000   4280224.4721  -4034429.0391  -2458284.1219   5   9  30.0000  30.0000  30.0000   0.0000   0.0000   0.0000   8.00    0.0
2019/01/14 15:46:39.000   4280224.4721  -4034429.0391  -2458284.1219   5   9  30.0000  30.0000  30.0000   0.0000   0.0000   0.0000   9.00    0.0
2019/01/14 15:46:40.000   4280224.4721  -4034429.0391  -2458284.1219   5   9  30.0000  30.0000  30.0000   0.0000   0.0000   0.0000  10.00    0.0
2019/01/14 15:46:41.000   4280224.4721  -4034429.0391  -2458284.1219   5   9  30.0000  30.0000  30.0000   0.0000   0.0000   0.0000  11.00    0.0
2019/01/14 15:46:42.000   4280224.4721  -4034429.0391  -2458284.1219   5  10  30.0000  30.0000  30.0000   0.0000   0.0000   0.0000  12.00    0.0
2019/01/14 15:46:43.000   4280224.4721  -4034429.0391  -2458284.1219   5   9  30.0000  30.0000  30.0000   0.0000   0.0000   0.0000  13.00    0.0
2019/01/14 15:46:44.000   4280224.4721  -4034429.0391  -2458284.1219   5  10  30.0000  30.0000  30.0000   0.0000   0.0000   0.0000  14.00    0.0
2019/01/14 15:46:45.000   4280224.4721  -4034429.0391  -2458284.1219   5  10  30.0000  30.0000  30.0000   0.0000   0.0000   0.0000  -0.00    0.0
2019/01/14 15:46:46.000   4280224.4721  -4034429.0391  -2458284.1219   5   9  30.0000  30.0000  30.0000   0.0000   0.0000   0.0000   1.00    0.0
2019/01/14 15:46:47.000   4280224.4721  -4034429.0391  -2458284.1219   5   8  30.0000  30.0000  30.0000   0.0000   0.0000   0.0000   2.00    0.0
2019/01/14 15:46:48.000   4280224.4721  -4034429.0391  -2458284.1219   5  10  30.0000  30.0000  30.0000   0.0000   0.0000   0.0000   3.00    0.0
2019/01/14 15:46:49.000   4280224.4721  -4034429.0391  -2458284.1219   5  10  30.0000  30.0000  30.0000   0.0000   0.0000   0.0000   4.00    0.0
2019/01/14 15:46:50.000   4280224.4721  -4034429.0391  -2458284.1219   5  10  30.0000  30.0000  30.0000   0.0000   0.0000   0.0000   5.00    0.0
2019/01/14 15:46:51.000   4280224.4721  -4034429.0391  -2458284.1219   5   9  30.0000  30.0000  30.0000   0.0000   0.0000   0.0000   6.00    0.0
2019/01/14 15:46:52.000   4280224.4721  -4034429.0391  -2458284.1219   5   9  30.0000  30.0000  30.0000   0.0000   0.0000   0.0000   7.00    0.0
2019/01/14 15:46:53.000   4280224.4721  -4034429.0391  -2458284.1219   5   9  30.0000  30.0000  30.0000   0.0000   0.0000   0.0000   8.00    0.0
2019/01/14 15:46:54.000   4280224.4721  -4034429.0391  -2458284.1219   5   9  30.0000  30.0000  30.0000   0.0000   0.0000   0.0000   9.00    0.0
2019/01/14 15:46:55.000   4280224.4721  -4034429.0391  -2458284.1219   5   9  30.0000  30.0000  30.0000   0.0000   0.0000   0.0000  10.00    0.0
2019/01/14 15:46:56.000   4280224.4721  -4034429.0391  -2458284.1219   5   9  30.0000  30.0000  30.0000   0.0000   0.0000   0.0000  11.00    0.0
2019/01/14 15:46:57.000   4280224.4721  -4034429.0391  -2458284.1219   5   9  30.0000  30.0000  30.0000   0.0000   0.0000   0.0000  12.00    0.0
2019/01/14 15:46:58.000   4280224.4721  -4034429.0391  -2458284.1219   5   9  30.0000  30.0000  30.0000   0.0000   0.0000   0.0000  13.00    0.0
2019/01/14 15:46:59.000   4280224.4721  -4034429.0391  -2458284.1219   5   9  30.0000  30.0000  30.0000   0.0000   0.0000   0.0000  14.00    0.0
2019/01/14 15:47:00.000   4280224.4721  -4034429.0391  -2458284.1219   5   9  30.0000  30.0000  30.0000   0.0000   0.0000   0.0000  -0.00    0.0
2019/01/14 15:47:01.000   4280224.4721  -4034429.0391  -2458284.1219   5   9  30.0000  30.0000  30.0000   0.0000   0.0000   0.0000   1.00    0.0
2019/01/14 15:47:02.000   4280224.4721  -4034429.0391  -2458284.1219   5   8  30.0000  30.0000  30.0000   0.0000   0.0000   0.0000   2.00    0.0
2019/01/14 15:47:03.000   4280224.4721  -4034429.0391  -2458284.1219   5   9  30.0000  30.0000  30.0000   0.0000   0.0000   0.0000   3.00    0.0
2019/01/14 15:47:04.000   4280224.4721  -4034429.0391  -2458284.1219   5   9  30.0000  30.0000  30.0000   0.0000   0.0000   0.0000   4.00    0.0
2019/01/14 15:47:05.000   4280224.4721  -4034429.0391  -2458284.1219   5   8  30.0000  30.0000  30.0000   0.0000   0.0000   0.0000   5.00    0.0
2019/01/14 15:47:06.000   4280224.4721  -4034429.0391  -2458284.1219   5   9  30.0000  30.0000  30.0000   0.0000   0.0000   0.0000   6.00    0.0
2019/01/14 15:47:07.000   4280224.4721  -4034429.0391  -2458284.1219   5   9  30.0000  30.0000  30.0000   0.0000   0.0000   0.0000   7.00    0.0
2019/01/14 15:47:08.000   4280224.4721  -4034429.0391  -2458284.1219   5   8  30.0000  30.0000  30.0000   0.0000   0.0000   0.0000   8.00    0.0
2019/01/14 15:47:09.000   4280224.4721  -4034429.0391  -2458284.1219   5   9  30.0000  30.0000  30.0000   0.0000   0.0000   0.0000   9.00    0.0
2019/01/14 15:47:10.000   4280224.4721  -4034429.0391  -2458284.1219   5   8  30.0000  30.0000  30.0000   0.0000   0.0000   0.0000  10.00    0.0
2019/01/14 15:47:11.000   4280224.4721  -4034429.0391  -2458284.1219   5   9  30.0000  30.0000  30.0000   0.0000   0.0000   0.0000  11.00    0.0
2019/01/14 15:47:12.000   4280224.4721  -4034429.0391  -2458284.1219   5   9  30.0000  30.0000  30.0000   0.0000   0.0000   0.0000  12.00    0.0
2019/01/14 15:47:13.000   4280224.4721  -4034429.0391  -2458284.1219   5   9  30.0000  30.0000  30.0000   0.0000   0.0000   0.0000  13.00    0.0
2019/01/14 15:47:14.000   4280224.4721  -4034429.0391  -2458284.1219   5   9  30.0000  30.0000  30.0000   0.0000   0.0000   0.0000  14.00    0.0
2019/01/14 15:47:15.000   4280224.4721  -4034429.0391  -2458284.1219   5   9  30.0000  30.0000  30.0000   0.0000   0.0000   0.0000  -0.00    0.0
2019/01/14 15:47:16.000   4280224.4721  -4034429.0391  -2458284.1219   5   9  30.0000  30.0000  30.0000   0.0000   0.0000   0.0000   1.00    0.0
2019/01/14 15:47:17.000   4280224.4721  -4034429.0391  -2458284.1219   5   9  30.0000  30.0000  30.0000   0.0000   0.0000   0.0000   2.00    0.0
2019/01/14 15:47:18.000   4280224.4721  -4034429.0391  -2458284.1219   5   9  30.0000  30.0000  30.0000   0.0000   0.0000   0.0000   3.00    0.0
2019/01/14 15:47:19.000   4280224.4721  -4034429.0391  -2458284.1219   5   9  30.0000  30.0000  30.0000   0.0000   0.0000   0.0000   4.00    0.0
2019/01/14 15:47:20.000   4280224.4721  -4034429.0391  -2458284.1219   5   9  30.0000  30.0000  30.0000   0.0000   0.0000   0.0000   5.00    0.0
2019/01/14 15:47:21.000   4280224.4721  -4034429.0391  -2458284.1219   5   9  30.0000  30.0000  30.0000   0.0000   0.0000   0.0000   6.00    0.0
2019/01/14 15:47:22.000   4280224.4721  -4034429.0391  -2458284.1219   5   9  30.0000  30.0000  30.0000   0.0000   0.0000   0.0000   7.00    0.0
2019/01/14 15:47:23.000   4280224.4721  -4034429.0391  -2458284.1219   5   9  30.0000  30.0000  30.0000   0.0000   0.0000   0.0000   8.00    0.0
2019/01/14 15:47:24.000   4280224.4721  -4034429.0391  -2458284.1219   5   9  30.0000  30.0000  30.0000   0.0000   0.0000   0.0000   9.00    0.0
2019/01/14 15:47:25.000   4280224.4721  -4034429.0391  -2458284.1219   5   9  30.0000  30.0000  30.0000   0.0000   0.0000   0.0000  10.00    0.0
2019/01/14 15:47:26.000   4280224.4721  -4034429.0391  -2458284.1219   5   8  30.0000  30.0000  30.0000   0.0000   0.0000   0.0000  11.00    0.0
2019/01/14 15:47:27.000   4280224.4721  -4034429.0391  -2458284.1219   5   8  30.0000  30.0000  30.0000   0.0000   0.0000   0.0000  12.00    0.0
2019/01/14 15:47:28.000   4280224.4721  -4034429.0391  -2458284.1219   5   9  30.0000  30.0000  30.0000   0.0000   0.0000   0.0000  13.00    0.0
2019/01/14 15:47:29.000   4280224.4721  -4034429.0391  -2458284.1219   5   9  30.0000  30.0000  30.0000   0.0000   0.0000   0.0000  14.00    0.0
2019/01/14 15:47:30.000   4280224.4721  -4034429.0391  -2458284.1219   5   9  30.0000  30.0000  30.0000   0.0000   0.0000   0.0000  -0.00    0.0
2019/01/14 15:47:31.000   4280224.4721  -4034429.0391  -2458284.1219   5   9  30.0000  30.0000  30.0000   0.0000   0.0000   0.0000   1.00    0.0
2019/01/14 15:47:32.000   4280224.4721  -4034429.0391  -2458284.1219   5   9  30.0000  30.0000  30.0000   0.0000   0.0000   0.0000   2.00    0.0
2019/01/14 15:47:33.000   4280224.4721  -4034429.0391  -2458284.1219   5   9  30.0000  30.0000  30.0000   0.0000   0.0000   0.0000   3.00    0.0
2019/01/14 15:47:34.000   4280224.4721  -4034429.0391  -2458284.1219   5   9  30.0000  30.0000  30.0000   0.0000   0.0000   0.0000   4.00    0.0
2019/01/14 15:47:35.000   4280224.4721  -4034429.0391  -2458284.1219   5   9  30.0000  30.0000  30.0000   0.0000   0.0000   0.0000   5.00    0.0
2019/01/14 15:47:36.000   4280224.4721  -4034429.0391  -2458284.1219   5   8  30.0000  30.0000  30.0000   0.0000   0.0000   0.0000   6.00    0.0
2019/01/14 15:47:37.000   4280224.4721  -4034429.0391  -2458284.1219   5   8  30.0000  30.0000  30.0000   0.0000   0.0000   0.0000   7.00    0.0
2019/01/14 15:47:38.000   4280224.4721  -4034429.0391  -2458284.1219   5   9  30.0000  30.0000  30.0000   0.0000   0.0000   0.0000   8.00    0.0
2019/01/14 15:47:39.000   4280224.4721  -4034429.0391  -2458284.1219   5   9  30.0000  30.0000  30.0000   0.0000   0.0000   0.0000   9.00    0.0
2019/01/14 15:47:40.000   4280224.4721  -4034429.0391  -2458284.1219   5   9  30.0000  30.0000  30.0000   0.0000   0.0000   0.0000  10.00    0.0
2019/01/14 15:47:41.000   4280224.4721  -4034429.0391  -2458284.1219   5   9  30.0000  30.0000  30.0000   0.0000   0.0000   0.0000  11.00    0.0
2019/01/14 15:47:42.000   4280224.4721  -4034429.0391  -2458284.1219   5   9  30.0000  30.0000  30.0000   0.0000   0.0000   0.0000  12.00    0.0
2019/01/14 15:47:43.000   4280224.4721  -4034429.0391  -2458284.1219   5  10  30.0000  30.0000  30.0000   0.0000   0.0000   0.0000  13.00    0.0
2019/01/14 15:47:44.000   4280224.4721  -4034429.0391  -2458284.1219   5   9  30.0000  30.0000  30.0000   0.0000   0.0000   0.0000  14.00    0.0
2019/01/14 15:47:45.000   4280224.4721  -4034429.0391  -2458284.1219   5   9  30.0000  30.0000  30.0000   0.0000   0.0000   0.0000  -0.00    0.0
2019/01/14 15:47:46.000   4280224.4721  -4034429.0391  -2458284.1219   5   9  30.0000  30.0000  30.0000   0.0000   0.0000   0.0000   1.00    0.0
2019/01/14 15:47:47.000   4280224.4721  -4034429.0391  -2458284.1219   5  10  30.0000  30.0000  30.0000   0.0000   0.0000   0.0000   2.00    0.0
2019/01/14 15:47:48.000   4280224.4721  -4034429.0391  -2458284.1219   5   9  30.0000  30.0000  30.0000   0.0000   0.0000   0.0000   3.00    0.0
2019/01/14 15:47:49.000   4280224.4721  -4034429.0391  -2458284.1219   5   9  30.0000  30.0000  30.0000   0.0000   0.0000   0.0000   4.00    0.0
2019/01/14 15:47:50.000   4280224.4721  -4034429.0391  -2458284.1219   5   9  30.0000  30.0000  30.0000   0.0000   0.0000   0.0000   5.00    0.0
2019/01/14 15:47:51.000   4280224.4721  -4034429.0391  -2458284.1219   5   9  30.0000  30.0000  30.0000   0.0000   0.0000   0.0000   6.00    0.0
2019/01/14 15:47:52.000   4280224.4721  -4034429.0391  -2458284.1219   5   9  30.0000  30.0000  30.0000   0.0000   0.0000   0.0000   7.00    0.0
2019/01/14 15:47:53.000   4280224.4721  -4034429.0391  -2458284.1219   5  10  30.0000  30.0000  30.0000   0.0000   0.0000   0.0000   8.00    0.0
2019/01/14 15:47:54.000   4280224.4721  -4034429.0391  -2458284.1219   5  10  30.0000  30.0000  30.0000   0.0000   0.0000   0.0000   9.00    0.0
2019/01/14 15:47:55.000   4280224.4721  -4034429.0391  -2458284.1219   5  10  30.0000  30.0000  30.0000   0.0000   0.0000   0.0000  10.00    0.0
2019/01/14 15:47:57.000   4280224.4721  -4034429.0391  -2458284.1219   5   9  30.0000  30.0000  30.0000   0.0000   0.0000   0.0000  12.00    0.0
2019/01/14 15:47:58.000   4280224.4721  -4034429.0391  -2458284.1219   5   9  30.0000  30.0000  30.0000   0.0000   0.0000   0.0000  13.00    0.0
2019/01/14 15:47:59.000   4280224.4721  -4034429.0391  -2458284.1219   5   9  30.0000  30.0000  30.0000   0.0000   0.0000   0.0000  14.00    0.0
2019/01/14 15:48:00.000   4280224.4721  -4034429.0391  -2458284.1219   5  10  30.0000  30.0000  30.0000   0.0000   0.0000   0.0000  -0.00    0.0
2019/01/14 15:48:02.000   4280224.4721  -4034429.0391  -2458284.1219   5   9  30.0000  30.0000  30.0000   0.0000   0.0000   0.0000   2.00    0.0
2019/01/14 15:48:04.000   4280224.4721  -4034429.0391  -2458284.1219   5   9  30.0000  30.0000  30.0000   0.0000   0.0000   0.0000   4.00    0.0
2019/01/14 15:48:05.000   4280224.4721  -4034429.0391  -2458284.1219   5  10  30.0000  30.0000  30.0000   0.0000   0.0000   0.0000   5.00    0.0
2019/01/14 15:48:06.000   4280224.4721  -4034429.0391  -2458284.1219   5   9  30.0000  30.0000  30.0000   0.0000   0.0000   0.0000   6.00    0.0
2019/01/14 15:48:07.000   4280224.4721  -4034429.0391  -2458284.1219   5   9  30.0000  30.0000  30.0000   0.0000   0.0000   0.0000   7.00    0.0
2019/01/14 15:48:08.000   4280224.4721  -4034429.0391  -2458284.1219   5  10  30.0000  30.0000  30.0000   0.0000   0.0000   0.0000   8.00    0.0
2019/01/14 15:48:09.000   4280224.4721  -4034429.0391  -2458284.1219   5  10  30.0000  30.0000  30.0000   0.0000   0.0000   0.0000   9.00    0.0
2019/01/14 15:48:10.000   4280224.4721  -4034429.0391  -2458284.1219   5  10  30.0000  30.0000  30.0000   0.0000   0.0000   0.0000  10.00    0.0
2019/01/14 15:48:11.000   4280224.4721  -4034429.0391  -2458284.1219   5  10  30.0000  30.0000  30.0000   0.0000   0.0000   0.0000  11.00    0.0
2019/01/14 15:48:12.000   4280224.4721  -4034429.0391  -2458284.1219   5   9  30.0000  30.0000  30.0000   0.0000   0.0000   0.0000  12.00    0.0
2019/01/14 15:48:13.000   4280224.4721  -4034429.0391  -2458284.1219   5  10  30.0000  30.0000  30.0000   0.0000   0.0000   0.0000  13.00    0.0
2019/01/14 15:48:14.000   4280224.4721  -4034429.0391  -2458284.1219   5  10  30.0000  30.0000  30.0000   0.0000   0.0000   0.0000  14.00    0.0
2019/01/14 15:48:15.000   4280224.4721  -4034429.0391  -2458284.1219   5  11  30.0000  30.0000  30.0000   0.0000   0.0000   0.0000  -0.00    0.0
2019/01/14 15:48:16.000   4280224.4721  -4034429.0391  -2458284.1219   5  10  30.0000  30.0000  30.0000   0.0000   0.0000   0.0000   1.00    0.0
2019/01/14 15:48:17.000   4280224.4721  -4034429.0391  -2458284.1219   5  10  30.0000  30.0000  30.0000   0.0000   0.0000   0.0000   2.00    0.0
2019/01/14 15:48:18.000   4280224.4721  -4034429.0391  -2458284.1219   5   9  30.0000  30.0000  30.0000   0.0000   0.0000   0.0000   3.00    0.0
2019/01/14 15:48:19.000   4280224.4721  -4034429.0391  -2458284.1219   5  10  30.0000  30.0000  30.0000   0.0000   0.0000   0.0000   4.00    0.0
2019/01/14 15:48:20.000   4280224.4721  -4034429.0391  -2458284.1219   5  10  30.0000  30.0000  30.0000   0.0000   0.0000   0.0000   5.00    0.0
2019/01/14 15:48:21.000   4280224.4721  -4034429.0391  -2458284.1219   5  10  30.0000  30.0000  30.0000   0.0000   0.0000   0.0000   6.00    0.0
2019/01/14 15:48:22.000   4280224.4721  -4034429.0391  -2458284.1219   5   9  30.0000  30.0000  30.0000   0.0000   0.0000   0.0000   7.00    0.0
2019/01/14 15:48:23.000   4280224.4721  -4034429.0391  -2458284.1219   5   9  30.0000  30.0000  30.0000   0.0000   0.0000   0.0000   8.00    0.0
2019/01/14 15:48:24.000   4280224.4721  -4034429.0391  -2458284.1219   5   9  30.0000  30.0000  30.0000   0.0000   0.0000   0.0000   9.00    0.0
2019/01/14 15:48:25.000   4280224.4721  -4034429.0391  -2458284.1219   5  11  30.0000  30.0000  30.0000   0.0000   0.0000   0.0000  10.00    0.0
2019/01/14 15:48:26.000   4280224.4721  -4034429.0391  -2458284.1219   5  11  30.0000  30.0000  30.0000   0.0000   0.0000   0.0000  11.00    0.0
2019/01/14 15:48:27.000   4280224.4721  -4034429.0391  -2458284.1219   5  10  30.0000  30.0000  30.0000   0.0000   0.0000   0.0000  12.00    0.0
2019/01/14 15:48:28.000   4280224.4721  -4034429.0391  -2458284.1219   5  10  30.0000  30.0000  30.0000   0.0000   0.0000   0.0000  13.00    0.0
2019/01/14 15:48:29.000   4280224.4721  -4034429.0391  -2458284.1219   5   9  30.0000  30.0000  30.0000   0.0000   0.0000   0.0000  14.00    0.0
2019/01/14 15:48:30.000   4280224.4721  -4034429.0391  -2458284.1219   5  10  30.0000  30.0000  30.0000   0.0000   0.0000   0.0000  -0.00    0.0
2019/01/14 15:48:31.000   4280224.4721  -4034429.0391  -2458284.1219   5  10  30.0000  30.0000  30.0000   0.0000   0.0000   0.0000   1.00    0.0
2019/01/14 15:48:34.000   4280224.4721  -4034429.0391  -2458284.1219   5  11  30.0000  30.0000  30.0000   0.0000   0.0000   0.0000   4.00    0.0
2019/01/14 15:48:35.000   4280224.4721  -4034429.0391  -2458284.1219   5  10  30.0000  30.0000  30.0000   0.0000   0.0000   0.0000   5.00    0.0
2019/01/14 15:48:36.000   4280224.4721  -4034429.0391  -2458284.1219   5   9  30.0000  30.0000  30.0000   0.0000   0.0000   0.0000   6.00    0.0
2019/01/14 15:48:37.000   4280224.4721  -4034429.0391  -2458284.1219   5   9  30.0000  30.0000  30.0000   0.0000   0.0000   0.0000   7.00    0.0
2019/01/14 15:48:38.000   4280224.4721  -4034429.0391  -2458284.1219   5  10  30.0000  30.0000  30.0000   0.0000   0.0000   0.0000   8.00    0.0
2019/01/14 15:48:39.000   4280224.4721  -4034429.0391  -2458284.1219   5   9  30.0000  30.0000  30.0000   0.0000   0.0000   0.0000   9.00    0.0
2019/01/14 15:48:40.000   4280224.4721  -4034429.0391  -2458284.1219   5  10  30.0000  30.0000  30.0000   0.0000   0.0000   0.0000  10.00    0.0
2019/01/14 15:48:41.000   4280224.4721  -4034429.0391  -2458284.1219   5   8  30.0000  30.0000  30.0000   0.0000   0.0000   0.0000  11.00    0.0
2019/01/14 15:48:42.000   4280224.4721  -4034429.0391  -2458284.1219   5   9  30.0000  30.0000  30.0000   0.0000   0.0000   0.0000  12.00    0.0
2019/01/14 15:48:43.000   4280224.4721  -4034429.0391  -2458284.1219   5   8  30.0000  30.0000  30.0000   0.0000   0.0000   0.0000  13.00    0.0
2019/01/14 15:48:44.000   4280224.4721  -4034429.0391  -2458284.1219   5   9  30.0000  30.0000  30.0000   0.0000   0.0000   0.0000  14.00    0.0
2019/01/14 15:48:45.000   4280224.4721  -4034429.0391  -2458284.1219   5   9  30.0000  30.0000  30.0000   0.0000   0.0000   0.0000  -0.00    0.0
2019/01/14 15:48:46.000   4280224.4721  -4034429.0391  -2458284.1219   5   9  30.0000  30.0000  30.0000   0.0000   0.0000   0.0000   1.00    0.0
2019/01/14 15:48:47.000   4280224.4721  -4034429.0391  -2458284.1219   5   9  30.0000  30.0000  30.0000   0.0000   0.0000   0.0000   2.00    0.0
2019/01/14 15:48:48.000   4280224.4721  -4034429.0391  -2458284.1219   5   9  30.0000  30.0000  30.0000   0.0000   0.0000   0.0000   3.00    0.0
2019/01/14 15:48:49.000   4280224.4721  -4034429.0391  -2458284.1219   5   9  30.0000  30.0000  30.0000   0.0000   0.0000   0.0000   4.00    0.0
2019/01/14 15:48:50.000   4280224.4721  -4034429.0391  -2458284.1219   5   9  30.0000  30.0000  30.0000   0.0000   0.0000   0.0000   5.00    0.0
2019/01/14 15:48:51.000   4280224.4721  -4034429.0391  -2458284.1219   5   9  30.0000  30.0000  30.0000   0.0000   0.0000   0.0000   6.00    0.0
2019/01/14 15:48:52.000   4280224.4721  -4034429.0391  -2458284.1219   5  11  30.0000  30.0000  30.0000   0.0000   0.0000   0.0000   7.00    0.0
2019/01/14 15:48:53.000   4280224.4721  -4034429.0391  -2458284.1219   5  10  30.0000  30.0000  30.0000   0.0000   0.0000   0.0000   8.00    0.0
2019/01/14 15:48:54.000   4280224.4721  -4034429.0391  -2458284.1219   5   9  30.0000  30.0000  30.0000   0.0000   0.0000   0.0000   9.00    0.0
2019/01/14 15:48:55.000   4280224.4721  -4034429.0391  -2458284.1219   5  11  30.0000  30.0000  30.0000   0.0000   0.0000   0.0000  10.00    0.0
2019/01/14 15:48:56.000   4280224.4721  -4034429.0391  -2458284.1219   5  11  30.0000  30.0000  30.0000   0.0000   0.0000   0.0000  11.00    0.0
2019/01/14 15:48:57.000   4280224.4721  -4034429.0391  -2458284.1219   5  10  30.0000  30.0000  30.0000   0.0000   0.0000   0.0000  12.00    0.0
2019/01/14 15:48:58.000   4280224.4721  -4034429.0391  -2458284.1219   5  10  30.0000  30.0000  30.0000   0.0000   0.0000   0.0000  13.00    0.0
2019/01/14 15:49:00.000   4280224.4721  -4034429.0391  -2458284.1219   5   9  30.0000  30.0000  30.0000   0.0000   0.0000   0.0000  -0.00    0.0
2019/01/14 15:49:01.000   4280224.4721  -4034429.0391  -2458284.1219   5  10  30.0000  30.0000  30.0000   0.0000   0.0000   0.0000   1.00    0.0
2019/01/14 15:49:02.000   4280224.4721  -4034429.0391  -2458284.1219   5  10  30.0000  30.0000  30.0000   0.0000   0.0000   0.0000   2.00    0.0
2019/01/14 15:49:03.000   4280224.4721  -4034429.0391  -2458284.1219   5  10  30.0000  30.0000  30.0000   0.0000   0.0000   0.0000   3.00    0.0
2019/01/14 15:49:04.000   4280224.4721  -4034429.0391  -2458284.1219   5  10  30.0000  30.0000  30.0000   0.0000   0.0000   0.0000   4.00    0.0
2019/01/14 15:49:05.000   4280224.4721  -4034429.0391  -2458284.1219   5  10  30.0000  30.0000  30.0000   0.0000   0.0000   0.0000   5.00    0.0
2019/01/14 15:49:06.000   4280224.4721  -4034429.0391  -2458284.1219   5   9  30.0000  30.0000  30.0000   0.0000   0.0000   0.0000   6.00    0.0
