% program   : RTKPOST ver.2.4.2
% inp file  : D:\Google Drive\UERJ\_Projeto Final\Python\tcc-guilherme\riod0171_filtered.19o
% inp file  : D:\Google Drive\UERJ\_Projeto Final\20190117_Marco 91500 IBGE\brdm0170.19p
% obs start : 2019/01/17 08:45:30.0 GPST (week2036 377130.0s)
% obs end   : 2019/01/17 10:15:30.0 GPST (week2036 382530.0s)
% pos mode  : single
% elev mask : 15.0 deg
% ionos opt : broadcast
% tropo opt : saastamoinen
% ephemeris : broadcast
% navi sys  : gps glonass
%
% (x/y/z-ecef=WGS84,Q=1:fix,2:float,3:sbas,4:dgps,5:single,6:ppp,ns=# of satellites)
%  GPST                      x-ecef(m)      y-ecef(m)      z-ecef(m)   Q  ns   sdx(m)   sdy(m)   sdz(m)  sdxy(m)  sdyz(m)  sdzx(m) age(s)  ratio
2019/01/17 08:45:30.000   4280293.4983  -4034428.9209  -2458141.3918   5  10   4.5838   4.9573   4.5966  -4.1771   3.7813  -3.8090   0.00    0.0
2019/01/17 08:45:45.000   4280292.6868  -4034428.2035  -2458140.2460   5  10   4.5884   4.9538   4.6062  -4.1787   3.7838  -3.8143   0.00    0.0
2019/01/17 08:46:00.000   4280294.2533  -4034429.2756  -2458141.4174   5  10   4.5929   4.9503   4.6158  -4.1802   3.7863  -3.8195   0.00    0.0
2019/01/17 08:46:15.000   4280292.6761  -4034428.3110  -2458140.0366   5  10   4.5974   4.9468   4.6254  -4.1818   3.7887  -3.8246   0.00    0.0
2019/01/17 08:46:30.000   4280294.3707  -4034429.6322  -2458141.1296   5  10   4.6019   4.9433   4.6349  -4.1833   3.7911  -3.8298   0.00    0.0
2019/01/17 08:46:45.000   4280294.2856  -4034429.3609  -2458141.7195   5  10   4.6064   4.9398   4.6444  -4.1848   3.7935  -3.8348   0.00    0.0
2019/01/17 08:47:00.000   4280293.9392  -4034429.2598  -2458141.3127   5  10   4.6108   4.9364   4.6539  -4.1862   3.7959  -3.8398   0.00    0.0
2019/01/17 08:47:15.000   4280293.6755  -4034428.8947  -2458140.7030   5  10   4.6152   4.9329   4.6633  -4.1877   3.7982  -3.8448   0.00    0.0
2019/01/17 08:47:30.000   4280293.0949  -4034428.8669  -2458140.8779   5  10   4.6196   4.9295   4.6727  -4.1891   3.8005  -3.8497   0.00    0.0
2019/01/17 08:47:45.000   4280292.5105  -4034427.8306  -2458140.6157   5  10   4.6240   4.9260   4.6820  -4.1905   3.8028  -3.8546   0.00    0.0
2019/01/17 08:48:00.000   4280292.8635  -4034427.8977  -2458140.7645   5  10   4.6283   4.9226   4.6913  -4.1919   3.8050  -3.8594   0.00    0.0
2019/01/17 08:48:15.000   4280293.2820  -4034428.5943  -2458140.8938   5  10   4.6326   4.9192   4.7005  -4.1933   3.8072  -3.8642   0.00    0.0
2019/01/17 08:48:30.000   4280293.2526  -4034428.9620  -2458140.8730   5  10   4.6368   4.9158   4.7097  -4.1946   3.8094  -3.8689   0.00    0.0
2019/01/17 08:48:45.000   4280293.2482  -4034429.1658  -2458141.3610   5  10   4.6411   4.9124   4.7188  -4.1960   3.8115  -3.8736   0.00    0.0
2019/01/17 08:49:00.000   4280293.0096  -4034428.5750  -2458140.8608   5  10   4.6453   4.9090   4.7279  -4.1973   3.8136  -3.8782   0.00    0.0
2019/01/17 08:49:15.000   4280292.8096  -4034428.1965  -2458140.8429   5  10   4.6495   4.9056   4.7369  -4.1986   3.8157  -3.8827   0.00    0.0
2019/01/17 08:49:30.000   4280292.9029  -4034427.9858  -2458140.3691   5  10   4.6536   4.9022   4.7459  -4.1998   3.8177  -3.8872   0.00    0.0
2019/01/17 08:49:45.000   4280293.8844  -4034429.9358  -2458141.2781   5  10   4.6577   4.8989   4.7548  -4.2010   3.8197  -3.8916   0.00    0.0
2019/01/17 08:50:00.000   4280294.0738  -4034430.2990  -2458141.6287   5  10   4.6618   4.8955   4.7637  -4.2022   3.8216  -3.8960   0.00    0.0
2019/01/17 08:50:15.000   4280292.7956  -4034428.1021  -2458139.6410   5  10   4.6658   4.8921   4.7725  -4.2034   3.8235  -3.9003   0.00    0.0
2019/01/17 08:50:30.000   4280293.6158  -4034428.8148  -2458140.4638   5  10   4.6698   4.8888   4.7812  -4.2046   3.8254  -3.9045   0.00    0.0
2019/01/17 08:50:45.000   4280292.5134  -4034428.4762  -2458140.9233   5  10   4.6738   4.8854   4.7899  -4.2057   3.8272  -3.9087   0.00    0.0
2019/01/17 08:51:00.000   4280292.9072  -4034428.0521  -2458140.2921   5  10   4.6777   4.8821   4.7985  -4.2068   3.8290  -3.9128   0.00    0.0
2019/01/17 08:51:15.000   4280294.2501  -4034429.5734  -2458141.2764   5  10   4.6816   4.8787   4.8070  -4.2079   3.8307  -3.9168   0.00    0.0
2019/01/17 08:51:30.000   4280294.8117  -4034429.6193  -2458141.4227   5  10   4.6855   4.8754   4.8155  -4.2089   3.8324  -3.9208   0.00    0.0
2019/01/17 08:51:45.000   4280293.7821  -4034429.1796  -2458140.8148   5  10   4.6893   4.8720   4.8239  -4.2099   3.8340  -3.9247   0.00    0.0
2019/01/17 08:52:00.000   4280293.8203  -4034428.5543  -2458140.9620   5  10   4.6931   4.8687   4.8322  -4.2109   3.8356  -3.9285   0.00    0.0
2019/01/17 08:52:15.000   4280293.5966  -4034428.2196  -2458140.9466   5  10   4.6969   4.8653   4.8405  -4.2119   3.8372  -3.9323   0.00    0.0
2019/01/17 08:52:30.000   4280294.3808  -4034429.0469  -2458141.4154   5  10   4.7006   4.8620   4.8487  -4.2128   3.8387  -3.9359   0.00    0.0
2019/01/17 08:52:45.000   4280293.9085  -4034429.8527  -2458142.1714   5   9   5.4684   5.3751   7.8117  -4.9157   5.3677  -5.7077   0.00    0.0
2019/01/17 08:53:00.000   4280293.8863  -4034430.0573  -2458143.0717   5   9   5.4617   5.3638   7.8105  -4.9065   5.3559  -5.6979   0.00    0.0
2019/01/17 08:53:15.000   4280294.4147  -4034429.9458  -2458142.5144   5  10   4.7115   4.8520   4.8727  -4.2154   3.8429  -3.9465   0.00    0.0
2019/01/17 08:53:30.000   4280294.5346  -4034430.7572  -2458142.3437   5  10   4.7150   4.8486   4.8806  -4.2162   3.8442  -3.9499   0.00    0.0
2019/01/17 08:53:45.000   4280294.3096  -4034431.1907  -2458141.9318   5  10   4.7186   4.8453   4.8883  -4.2169   3.8454  -3.9532   0.00    0.0
2019/01/17 08:54:00.000   4280294.7161  -4034430.7053  -2458142.3657   5  10   4.7220   4.8419   4.8960  -4.2177   3.8466  -3.9564   0.00    0.0
2019/01/17 08:54:15.000   4280294.5094  -4034430.5189  -2458144.1527   5   9   5.4265   5.3068   7.7972  -4.8589   5.2931  -5.6436   0.00    0.0
2019/01/17 08:54:30.000   4280293.3884  -4034429.5550  -2458143.2740   5   9   5.4191   5.2953   7.7931  -4.8491   5.2798  -5.6317   0.00    0.0
2019/01/17 08:54:45.000   4280293.5865  -4034429.4424  -2458141.9252   5  10   4.7322   4.8319   4.9185  -4.2197   3.8498  -3.9655   0.00    0.0
2019/01/17 08:55:00.000   4280294.9663  -4034430.6793  -2458142.9151   5  10   4.7355   4.8285   4.9258  -4.2203   3.8507  -3.9683   0.00    0.0
2019/01/17 08:55:15.000   4280292.9990  -4034428.1815  -2458139.9282   5  11   3.8680   3.8245   2.7424  -3.1244   1.6648  -2.1318   0.00    0.0
2019/01/17 08:55:30.000   4280292.1695  -4034428.1063  -2458139.7851   5  11   3.8735   3.8235   2.7470  -3.1279   1.6671  -2.1354   0.00    0.0
2019/01/17 08:55:45.000   4280292.6692  -4034429.1659  -2458141.0310   5  11   3.8790   3.8225   2.7516  -3.1315   1.6693  -2.1389   0.00    0.0
2019/01/17 08:56:00.000   4280293.9178  -4034429.1111  -2458140.6083   5  11   3.8844   3.8216   2.7561  -3.1351   1.6716  -2.1425   0.00    0.0
2019/01/17 08:56:15.000   4280295.0196  -4034429.8552  -2458140.9758   5  11   3.8899   3.8206   2.7607  -3.1387   1.6739  -2.1461   0.00    0.0
2019/01/17 08:56:30.000   4280294.5339  -4034429.4712  -2458140.6653   5  11   3.8955   3.8197   2.7653  -3.1423   1.6763  -2.1497   0.00    0.0
2019/01/17 08:56:45.000   4280294.2279  -4034429.3033  -2458140.5959   5  11   3.9010   3.8188   2.7698  -3.1459   1.6787  -2.1534   0.00    0.0
2019/01/17 08:57:00.000   4280292.7381  -4034428.3279  -2458139.8658   5  11   3.9065   3.8180   2.7744  -3.1496   1.6811  -2.1570   0.00    0.0
2019/01/17 08:57:15.000   4280293.2256  -4034428.5833  -2458140.0528   5  11   3.9120   3.8171   2.7789  -3.1532   1.6835  -2.1606   0.00    0.0
2019/01/17 08:57:30.000   4280293.6928  -4034428.4429  -2458140.0804   5  11   3.9176   3.8163   2.7835  -3.1569   1.6859  -2.1643   0.00    0.0
2019/01/17 08:57:45.000   4280293.0745  -4034428.2301  -2458140.2986   5  11   3.9231   3.8155   2.7880  -3.1605   1.6884  -2.1679   0.00    0.0
2019/01/17 08:58:00.000   4280294.6177  -4034428.9686  -2458140.7263   5  11   3.9287   3.8147   2.7926  -3.1642   1.6909  -2.1716   0.00    0.0
2019/01/17 08:58:15.000   4280293.8285  -4034429.4537  -2458140.3274   5  11   3.9343   3.8140   2.7971  -3.1679   1.6934  -2.1752   0.00    0.0
2019/01/17 08:58:30.000   4280293.6567  -4034429.6187  -2458141.0332   5  11   3.9398   3.8133   2.8017  -3.1716   1.6960  -2.1789   0.00    0.0
2019/01/17 08:58:45.000   4280292.3764  -4034428.6421  -2458140.0534   5  11   3.9454   3.8126   2.8062  -3.1753   1.6986  -2.1826   0.00    0.0
2019/01/17 08:59:00.000   4280292.8825  -4034428.9449  -2458140.9517   5  11   3.9510   3.8119   2.8107  -3.1790   1.7012  -2.1863   0.00    0.0
2019/01/17 08:59:15.000   4280293.7988  -4034429.3558  -2458141.2525   5  11   3.9566   3.8112   2.8152  -3.1827   1.7038  -2.1900   0.00    0.0
2019/01/17 08:59:30.000   4280294.6162  -4034429.4822  -2458141.1133   5  11   3.9622   3.8106   2.8197  -3.1864   1.7065  -2.1937   0.00    0.0
2019/01/17 08:59:45.000   4280293.3268  -4034428.7499  -2458140.2166   5  11   3.9678   3.8100   2.8242  -3.1901   1.7092  -2.1974   0.00    0.0
2019/01/17 09:00:00.000   4280292.4326  -4034427.9976  -2458140.4349   5  11   3.7347   3.4317   2.6903  -2.8771   1.8408  -2.1419   0.00    0.0
2019/01/17 09:00:15.000   4280293.6072  -4034429.3633  -2458140.6348   5  11   3.7400   3.4308   2.6943  -2.8805   1.8430  -2.1453   0.00    0.0
2019/01/17 09:00:30.000   4280293.3106  -4034428.6004  -2458140.3360   5  11   3.7454   3.4298   2.6984  -2.8838   1.8452  -2.1486   0.00    0.0
2019/01/17 09:00:45.000   4280294.0193  -4034428.9731  -2458140.6767   5  11   3.7507   3.4290   2.7024  -2.8872   1.8474  -2.1520   0.00    0.0
2019/01/17 09:01:00.000   4280293.3445  -4034428.1588  -2458141.0702   5  11   3.7560   3.4281   2.7064  -2.8906   1.8496  -2.1554   0.00    0.0
2019/01/17 09:01:15.000   4280293.6737  -4034428.0019  -2458140.6520   5  10   3.7628   3.4419   2.9632  -2.8997   1.7463  -2.1300   0.00    0.0
2019/01/17 09:01:30.000   4280293.3791  -4034428.6759  -2458141.1558   5  11   3.7667   3.4265   2.7145  -2.8975   1.8541  -2.1621   0.00    0.0
2019/01/17 09:01:45.000   4280292.1583  -4034428.1525  -2458140.4013   5  11   3.7721   3.4257   2.7185  -2.9009   1.8564  -2.1655   0.00    0.0
2019/01/17 09:02:00.000   4280292.1669  -4034428.5618  -2458140.3719   5  11   3.7775   3.4250   2.7225  -2.9044   1.8587  -2.1689   0.00    0.0
2019/01/17 09:02:15.000   4280292.3424  -4034428.0219  -2458140.4025   5  11   3.7829   3.4242   2.7264  -2.9078   1.8610  -2.1723   0.00    0.0
2019/01/17 09:02:30.000   4280292.9178  -4034427.7817  -2458140.9232   5  11   3.7883   3.4236   2.7304  -2.9113   1.8633  -2.1757   0.00    0.0
2019/01/17 09:02:45.000   4280292.9739  -4034428.0367  -2458140.6661   5  11   3.7937   3.4229   2.7344  -2.9148   1.8656  -2.1791   0.00    0.0
2019/01/17 09:03:00.000   4280292.7941  -4034428.2413  -2458140.8308   5  11   3.7991   3.4223   2.7384  -2.9183   1.8680  -2.1825   0.00    0.0
2019/01/17 09:03:15.000   4280292.7847  -4034428.6071  -2458140.4339   5  11   3.8045   3.4217   2.7423  -2.9218   1.8703  -2.1859   0.00    0.0
2019/01/17 09:03:30.000   4280292.8618  -4034429.3709  -2458140.7732   5  11   3.8099   3.4211   2.7463  -2.9253   1.8727  -2.1893   0.00    0.0
2019/01/17 09:03:45.000   4280293.7672  -4034429.0270  -2458141.0069   5  11   3.8153   3.4206   2.7502  -2.9288   1.8751  -2.1927   0.00    0.0
2019/01/17 09:04:00.000   4280293.1779  -4034428.1599  -2458140.3620   5  11   3.8208   3.4200   2.7541  -2.9324   1.8775  -2.1961   0.00    0.0
2019/01/17 09:04:15.000   4280293.4074  -4034428.4593  -2458140.6211   5  11   3.8262   3.4195   2.7580  -2.9359   1.8799  -2.1995   0.00    0.0
2019/01/17 09:04:30.000   4280292.7446  -4034428.6360  -2458140.3902   5  11   3.8317   3.4191   2.7619  -2.9395   1.8824  -2.2029   0.00    0.0
2019/01/17 09:04:45.000   4280293.3757  -4034428.4847  -2458140.9814   5  11   3.8371   3.4186   2.7658  -2.9430   1.8848  -2.2063   0.00    0.0
2019/01/17 09:05:00.000   4280293.7859  -4034428.4013  -2458140.5335   5  11   3.8426   3.4182   2.7697  -2.9466   1.8873  -2.2097   0.00    0.0
2019/01/17 09:05:15.000   4280293.3879  -4034428.2259  -2458140.4791   5  11   3.8481   3.4179   2.7736  -2.9502   1.8898  -2.2132   0.00    0.0
2019/01/17 09:05:30.000   4280293.1862  -4034428.5992  -2458141.1322   5  11   3.8535   3.4175   2.7775  -2.9538   1.8922  -2.2166   0.00    0.0
2019/01/17 09:05:45.000   4280293.5133  -4034429.0899  -2458140.4515   5  11   3.8590   3.4172   2.7813  -2.9574   1.8948  -2.2200   0.00    0.0
2019/01/17 09:06:00.000   4280293.8779  -4034429.1911  -2458140.6779   5  11   3.8645   3.4169   2.7852  -2.9610   1.8973  -2.2234   0.00    0.0
2019/01/17 09:06:15.000   4280293.0042  -4034428.2192  -2458139.7871   5  11   3.8700   3.4166   2.7890  -2.9647   1.8998  -2.2269   0.00    0.0
2019/01/17 09:06:30.000   4280292.8927  -4034428.0325  -2458139.4695   5  11   3.8755   3.4163   2.7928  -2.9683   1.9024  -2.2303   0.00    0.0
2019/01/17 09:06:45.000   4280293.0767  -4034427.7874  -2458140.0308   5  11   3.8810   3.4161   2.7966  -2.9719   1.9049  -2.2337   0.00    0.0
2019/01/17 09:07:00.000   4280293.3203  -4034428.3201  -2458140.1565   5  11   3.8865   3.4159   2.8004  -2.9756   1.9075  -2.2372   0.00    0.0
2019/01/17 09:07:15.000   4280293.3662  -4034428.3664  -2458140.7394   5  11   3.8920   3.4157   2.8042  -2.9792   1.9101  -2.2406   0.00    0.0
2019/01/17 09:07:30.000   4280293.1246  -4034427.8543  -2458140.3578   5  11   3.8975   3.4156   2.8080  -2.9829   1.9127  -2.2440   0.00    0.0
2019/01/17 09:07:45.000   4280292.8121  -4034428.5212  -2458140.8970   5  11   3.9030   3.4154   2.8118  -2.9866   1.9153  -2.2475   0.00    0.0
2019/01/17 09:08:00.000   4280292.9946  -4034428.4250  -2458140.8761   5  11   3.9086   3.4153   2.8155  -2.9902   1.9180  -2.2509   0.00    0.0
2019/01/17 09:08:15.000   4280292.7486  -4034427.7988  -2458139.8777   5  11   3.9141   3.4153   2.8192  -2.9939   1.9206  -2.2543   0.00    0.0
2019/01/17 09:08:30.000   4280292.8678  -4034427.7800  -2458140.1033   5  11   3.9196   3.4152   2.8230  -2.9976   1.9233  -2.2578   0.00    0.0
2019/01/17 09:08:45.000   4280293.8866  -4034429.0333  -2458141.2638   5  11   3.9251   3.4152   2.8267  -3.0013   1.9259  -2.2612   0.00    0.0
2019/01/17 09:09:00.000   4280293.5417  -4034429.1652  -2458140.8841   5  11   3.9307   3.4152   2.8304  -3.0050   1.9286  -2.2646   0.00    0.0
2019/01/17 09:09:15.000   4280293.9806  -4034429.1672  -2458140.8740   5  11   3.9362   3.4152   2.8341  -3.0087   1.9313  -2.2681   0.00    0.0
2019/01/17 09:09:30.000   4280294.1522  -4034429.3346  -2458140.6736   5  11   3.9417   3.4152   2.8377  -3.0125   1.9340  -2.2715   0.00    0.0
2019/01/17 09:09:45.000   4280294.1502  -4034429.1462  -2458140.6716   5  11   3.9473   3.4153   2.8414  -3.0162   1.9367  -2.2750   0.00    0.0
2019/01/17 09:10:00.000   4280293.7589  -4034429.1132  -2458140.9587   5  11   3.9528   3.4154   2.8450  -3.0199   1.9395  -2.2784   0.00    0.0
2019/01/17 09:10:15.000   4280293.1467  -4034428.9404  -2458140.6640   5  11   3.9584   3.4155   2.8487  -3.0236   1.9422  -2.2818   0.00    0.0
2019/01/17 09:10:30.000   4280292.9205  -4034428.5814  -2458140.5570   5  11   3.9639   3.4156   2.8523  -3.0274   1.9450  -2.2853   0.00    0.0
2019/01/17 09:10:45.000   4280292.9032  -4034429.3368  -2458140.8154   5  11   3.9694   3.4157   2.8559  -3.0311   1.9477  -2.2887   0.00    0.0
2019/01/17 09:11:00.000   4280293.3853  -4034429.2217  -2458140.8814   5  11   3.9750   3.4159   2.8595  -3.0349   1.9505  -2.2921   0.00    0.0
2019/01/17 09:11:15.000   4280292.5129  -4034428.1686  -2458139.9083   5  11   3.9805   3.4161   2.8631  -3.0386   1.9533  -2.2955   0.00    0.0
2019/01/17 09:11:30.000   4280293.5822  -4034428.5374  -2458140.3878   5  11   3.9860   3.4163   2.8666  -3.0424   1.9561  -2.2990   0.00    0.0
2019/01/17 09:11:45.000   4280293.7908  -4034428.6867  -2458140.7100   5  11   3.9916   3.4166   2.8702  -3.0461   1.9589  -2.3024   0.00    0.0
2019/01/17 09:12:00.000   4280293.3384  -4034429.1318  -2458141.3052   5  11   3.9971   3.4168   2.8737  -3.0499   1.9617  -2.3058   0.00    0.0
2019/01/17 09:12:15.000   4280292.4604  -4034428.3054  -2458140.6120   5  11   4.0026   3.4171   2.8772  -3.0536   1.9646  -2.3092   0.00    0.0
2019/01/17 09:12:30.000   4280292.4566  -4034428.0740  -2458140.6639   5  11   4.0082   3.4174   2.8807  -3.0574   1.9674  -2.3126   0.00    0.0
2019/01/17 09:12:45.000   4280292.1837  -4034427.9551  -2458140.6870   5  11   4.0137   3.4177   2.8842  -3.0612   1.9702  -2.3160   0.00    0.0
2019/01/17 09:13:00.000   4280293.5353  -4034428.0257  -2458140.8223   5  11   4.0192   3.4180   2.8876  -3.0649   1.9731  -2.3194   0.00    0.0
2019/01/17 09:13:15.000   4280293.5427  -4034428.9565  -2458140.8109   5  11   4.0247   3.4184   2.8911  -3.0687   1.9760  -2.3229   0.00    0.0
2019/01/17 09:13:30.000   4280293.2190  -4034428.5282  -2458140.7648   5  11   4.0303   3.4188   2.8945  -3.0725   1.9789  -2.3262   0.00    0.0
2019/01/17 09:13:45.000   4280293.2942  -4034428.9227  -2458140.4892   5  11   4.0358   3.4192   2.8979  -3.0762   1.9817  -2.3296   0.00    0.0
2019/01/17 09:14:00.000   4280293.1737  -4034429.1051  -2458140.4065   5  11   4.0413   3.4196   2.9013  -3.0800   1.9846  -2.3330   0.00    0.0
2019/01/17 09:14:15.000   4280293.0698  -4034428.8103  -2458140.1977   5  11   4.0468   3.4200   2.9047  -3.0838   1.9876  -2.3364   0.00    0.0
2019/01/17 09:14:30.000   4280293.5370  -4034428.4569  -2458140.1427   5  11   4.0523   3.4205   2.9081  -3.0876   1.9905  -2.3398   0.00    0.0
2019/01/17 09:14:45.000   4280293.0473  -4034428.6148  -2458140.2710   5  11   4.0578   3.4210   2.9114  -3.0913   1.9934  -2.3432   0.00    0.0
2019/01/17 09:15:00.000   4280293.5795  -4034429.0083  -2458141.4939   5  11   4.0633   3.4215   2.9148  -3.0951   1.9963  -2.3465   0.00    0.0
2019/01/17 09:15:15.000   4280293.4653  -4034429.4100  -2458141.1143   5  11   4.0688   3.4220   2.9181  -3.0989   1.9993  -2.3499   0.00    0.0
2019/01/17 09:15:30.000   4280294.2175  -4034429.5302  -2458141.2754   5  11   4.0742   3.4225   2.9214  -3.1026   2.0022  -2.3533   0.00    0.0
2019/01/17 09:15:45.000   4280293.6800  -4034429.3697  -2458141.1620   5  11   4.0797   3.4230   2.9247  -3.1064   2.0052  -2.3566   0.00    0.0
2019/01/17 09:16:00.000   4280293.9802  -4034429.5196  -2458141.1424   5  11   4.0852   3.4236   2.9279  -3.1102   2.0081  -2.3600   0.00    0.0
2019/01/17 09:16:15.000   4280294.3092  -4034429.3481  -2458141.2421   5  11   4.0906   3.4242   2.9312  -3.1139   2.0111  -2.3633   0.00    0.0
2019/01/17 09:16:30.000   4280293.5304  -4034429.0710  -2458140.6253   5  11   4.0961   3.4248   2.9344  -3.1177   2.0141  -2.3666   0.00    0.0
2019/01/17 09:16:45.000   4280293.6561  -4034429.1876  -2458140.4015   5  11   4.1015   3.4254   2.9376  -3.1215   2.0171  -2.3700   0.00    0.0
2019/01/17 09:17:00.000   4280293.6690  -4034429.1365  -2458140.2784   5  11   4.1069   3.4260   2.9408  -3.1252   2.0200  -2.3733   0.00    0.0
2019/01/17 09:17:15.000   4280293.6772  -4034428.9564  -2458140.1804   5  11   4.1124   3.4266   2.9440  -3.1290   2.0230  -2.3766   0.00    0.0
2019/01/17 09:17:30.000   4280293.3467  -4034428.5325  -2458140.3610   5  11   4.1178   3.4273   2.9471  -3.1327   2.0260  -2.3799   0.00    0.0
2019/01/17 09:17:45.000   4280292.2718  -4034427.4265  -2458140.2554   5  11   4.1232   3.4280   2.9503  -3.1364   2.0290  -2.3832   0.00    0.0
2019/01/17 09:18:00.000   4280292.5379  -4034428.1616  -2458140.8289   5  11   4.1286   3.4287   2.9534  -3.1402   2.0320  -2.3865   0.00    0.0
2019/01/17 09:18:15.000   4280293.4976  -4034429.2073  -2458141.1689   5  11   4.1339   3.4294   2.9565  -3.1439   2.0351  -2.3898   0.00    0.0
2019/01/17 09:18:30.000   4280293.5407  -4034428.9865  -2458140.7578   5  11   4.1393   3.4301   2.9595  -3.1476   2.0381  -2.3930   0.00    0.0
2019/01/17 09:18:45.000   4280293.6674  -4034428.7617  -2458140.7584   5  11   4.1447   3.4308   2.9626  -3.1514   2.0411  -2.3963   0.00    0.0
2019/01/17 09:19:00.000   4280292.5721  -4034427.9836  -2458140.5959   5  11   4.1500   3.4316   2.9656  -3.1551   2.0441  -2.3995   0.00    0.0
2019/01/17 09:19:15.000   4280292.3131  -4034427.4365  -2458140.6535   5  11   4.1553   3.4323   2.9687  -3.1588   2.0472  -2.4028   0.00    0.0
2019/01/17 09:19:30.000   4280292.8588  -4034428.2417  -2458141.1040   5  11   4.1607   3.4331   2.9717  -3.1625   2.0502  -2.4060   0.00    0.0
2019/01/17 09:19:45.000   4280292.7352  -4034427.9609  -2458141.2928   5  11   4.1660   3.4339   2.9746  -3.1662   2.0532  -2.4092   0.00    0.0
2019/01/17 09:20:00.000   4280292.7821  -4034428.1858  -2458140.6669   5  11   4.1712   3.4347   2.9776  -3.1699   2.0563  -2.4124   0.00    0.0
2019/01/17 09:20:15.000   4280292.9232  -4034428.7694  -2458140.5757   5  11   4.1765   3.4355   2.9805  -3.1736   2.0593  -2.4156   0.00    0.0
2019/01/17 09:20:30.000   4280293.5453  -4034428.4197  -2458139.5781   5  11   4.1818   3.4363   2.9834  -3.1772   2.0624  -2.4188   0.00    0.0
2019/01/17 09:20:45.000   4280293.0988  -4034428.5461  -2458139.7957   5  11   4.1870   3.4372   2.9863  -3.1809   2.0654  -2.4219   0.00    0.0
2019/01/17 09:21:00.000   4280293.1905  -4034428.8143  -2458140.8095   5  11   4.1923   3.4380   2.9892  -3.1846   2.0685  -2.4251   0.00    0.0
2019/01/17 09:21:15.000   4280293.9085  -4034428.8222  -2458140.6813   5  11   4.1975   3.4389   2.9921  -3.1882   2.0715  -2.4282   0.00    0.0
2019/01/17 09:21:30.000   4280293.4205  -4034428.2683  -2458140.6696   5  11   4.2027   3.4397   2.9949  -3.1918   2.0746  -2.4314   0.00    0.0
2019/01/17 09:21:45.000   4280294.1156  -4034429.1668  -2458141.1146   5  11   4.2078   3.4406   2.9977  -3.1955   2.0776  -2.4345   0.00    0.0
2019/01/17 09:22:00.000   4280293.1722  -4034428.6368  -2458141.2876   5  11   4.2130   3.4415   3.0005  -3.1991   2.0807  -2.4376   0.00    0.0
2019/01/17 09:22:15.000   4280293.2048  -4034428.8602  -2458141.3598   5  11   4.2182   3.4424   3.0033  -3.2027   2.0837  -2.4407   0.00    0.0
2019/01/17 09:22:30.000   4280293.5196  -4034428.7602  -2458141.5012   5  11   4.2233   3.4433   3.0060  -3.2063   2.0868  -2.4437   0.00    0.0
2019/01/17 09:22:45.000   4280294.4017  -4034429.6583  -2458141.3345   5  11   4.2284   3.4443   3.0087  -3.2099   2.0898  -2.4468   0.00    0.0
2019/01/17 09:23:00.000   4280294.4474  -4034429.6260  -2458141.4621   5  11   4.2335   3.4452   3.0114  -3.2134   2.0929  -2.4498   0.00    0.0
2019/01/17 09:23:15.000   4280293.6165  -4034429.8073  -2458140.7831   5  11   4.2385   3.4461   3.0141  -3.2170   2.0959  -2.4529   0.00    0.0
2019/01/17 09:23:30.000   4280293.3883  -4034429.0608  -2458141.0603   5  11   4.2436   3.4471   3.0168  -3.2205   2.0990  -2.4559   0.00    0.0
2019/01/17 09:23:45.000   4280293.6324  -4034428.8791  -2458140.8530   5  11   4.2486   3.4480   3.0194  -3.2240   2.1020  -2.4589   0.00    0.0
2019/01/17 09:24:00.000   4280294.0721  -4034428.7330  -2458140.7640   5  11   4.2536   3.4490   3.0220  -3.2276   2.1051  -2.4618   0.00    0.0
2019/01/17 09:24:15.000   4280293.1172  -4034428.6136  -2458140.4086   5  11   4.2586   3.4500   3.0246  -3.2311   2.1081  -2.4648   0.00    0.0
2019/01/17 09:24:30.000   4280291.9794  -4034427.6650  -2458139.6111   5  11   4.2636   3.4510   3.0272  -3.2346   2.1112  -2.4677   0.00    0.0
2019/01/17 09:24:45.000   4280292.8480  -4034428.3544  -2458139.5870   5  11   4.2685   3.4519   3.0298  -3.2380   2.1142  -2.4706   0.00    0.0
2019/01/17 09:25:00.000   4280292.3535  -4034427.8922  -2458139.6695   5  11   4.2734   3.4529   3.0323  -3.2415   2.1172  -2.4736   0.00    0.0
2019/01/17 09:25:15.000   4280292.6820  -4034428.7338  -2458140.0747   5  11   4.2783   3.4539   3.0348  -3.2449   2.1203  -2.4764   0.00    0.0
2019/01/17 09:25:30.000   4280293.7888  -4034429.4137  -2458141.0734   5  11   4.2832   3.4550   3.0373  -3.2484   2.1233  -2.4793   0.00    0.0
2019/01/17 09:25:45.000   4280294.9187  -4034429.7329  -2458141.8647   5  11   4.2880   3.4560   3.0397  -3.2518   2.1263  -2.4821   0.00    0.0
2019/01/17 09:26:00.000   4280294.0620  -4034429.2511  -2458140.8154   5  11   4.2928   3.4570   3.0422  -3.2552   2.1293  -2.4850   0.00    0.0
2019/01/17 09:26:15.000   4280293.8132  -4034428.7959  -2458139.8542   5  11   4.2976   3.4580   3.0446  -3.2585   2.1323  -2.4878   0.00    0.0
2019/01/17 09:26:30.000   4280293.1016  -4034428.4068  -2458140.2066   5  11   4.3024   3.4591   3.0470  -3.2619   2.1353  -2.4906   0.00    0.0
2019/01/17 09:26:45.000   4280292.7735  -4034428.4290  -2458139.8488   5  11   4.3071   3.4601   3.0493  -3.2652   2.1383  -2.4933   0.00    0.0
2019/01/17 09:27:00.000   4280293.5572  -4034428.9684  -2458141.2886   5  11   4.3119   3.4611   3.0517  -3.2685   2.1413  -2.4961   0.00    0.0
2019/01/17 09:27:15.000   4280293.0810  -4034429.2132  -2458140.9698   5  12   3.3343   3.1544   3.0403  -2.6063   2.0458  -2.3347   0.00    0.0
2019/01/17 09:27:30.000   4280292.9570  -4034428.7317  -2458140.5822   5  12   3.3394   3.1559   3.0428  -2.6106   2.0498  -2.3389   0.00    0.0
2019/01/17 09:27:45.000   4280292.7300  -4034428.3471  -2458139.9265   5  12   3.3445   3.1575   3.0453  -2.6148   2.0538  -2.3431   0.00    0.0
2019/01/17 09:28:00.000   4280292.9379  -4034428.5345  -2458139.6015   5  12   3.3496   3.1590   3.0478  -2.6190   2.0578  -2.3473   0.00    0.0
2019/01/17 09:28:15.000   4280292.8292  -4034428.3932  -2458140.1825   5  12   3.3548   3.1606   3.0502  -2.6233   2.0618  -2.3514   0.00    0.0
2019/01/17 09:28:30.000   4280292.2780  -4034427.6913  -2458139.8872   5  12   3.3599   3.1622   3.0527  -2.6275   2.0658  -2.3556   0.00    0.0
2019/01/17 09:28:45.000   4280292.2735  -4034428.1549  -2458140.2611   5  12   3.3651   3.1638   3.0551  -2.6318   2.0697  -2.3597   0.00    0.0
2019/01/17 09:29:00.000   4280292.7167  -4034428.3617  -2458140.0573   5  12   3.3702   3.1654   3.0574  -2.6360   2.0737  -2.3638   0.00    0.0
2019/01/17 09:29:15.000   4280291.5008  -4034427.5727  -2458139.6288   5  12   3.3754   3.1670   3.0598  -2.6403   2.0777  -2.3680   0.00    0.0
2019/01/17 09:29:30.000   4280292.5550  -4034428.1230  -2458140.9541   5  12   3.3805   3.1687   3.0621  -2.6446   2.0817  -2.3721   0.00    0.0
2019/01/17 09:29:45.000   4280292.4683  -4034428.2042  -2458141.3295   5  12   3.3857   3.1704   3.0644  -2.6489   2.0857  -2.3761   0.00    0.0
2019/01/17 09:30:00.000   4280292.3991  -4034428.6469  -2458141.3976   5  12   3.3909   3.1721   3.0667  -2.6532   2.0896  -2.3802   0.00    0.0
2019/01/17 09:30:15.000   4280292.9144  -4034428.2860  -2458141.2157   5  11   4.3705   3.4750   3.0799  -3.3098   2.1795  -2.5295   0.00    0.0
2019/01/17 09:30:30.000   4280293.3430  -4034427.9171  -2458141.3811   5  12   3.4012   3.1756   3.0712  -2.6618   2.0976  -2.3883   0.00    0.0
2019/01/17 09:30:45.000   4280292.3097  -4034427.6521  -2458139.8218   5  12   3.4064   3.1773   3.0734  -2.6661   2.1015  -2.3924   0.00    0.0
2019/01/17 09:31:00.000   4280292.6439  -4034428.1639  -2458140.0602   5  12   3.4116   3.1791   3.0756  -2.6704   2.1055  -2.3964   0.00    0.0
2019/01/17 09:31:15.000   4280292.9009  -4034428.7528  -2458140.2376   5  12   3.4167   3.1809   3.0778  -2.6747   2.1094  -2.4004   0.00    0.0
2019/01/17 09:31:30.000   4280292.4874  -4034428.3605  -2458139.8351   5  12   3.4219   3.1828   3.0799  -2.6790   2.1134  -2.4044   0.00    0.0
2019/01/17 09:31:45.000   4280294.2038  -4034429.2177  -2458140.3829   5  11   4.3957   3.4815   3.0916  -3.3276   2.1966  -2.5435   0.00    0.0
2019/01/17 09:32:00.000   4280293.9572  -4034428.7767  -2458140.7083   5  11   4.3997   3.4825   3.0934  -3.3304   2.1994  -2.5457   0.00    0.0
2019/01/17 09:32:15.000   4280292.2222  -4034428.7541  -2458140.3164   5  12   3.4374   3.1883   3.0861  -2.6920   2.1252  -2.4163   0.00    0.0
2019/01/17 09:32:30.000   4280294.0727  -4034429.6448  -2458140.0497   5  11   4.4078   3.4847   3.0970  -3.3361   2.2049  -2.5500   0.00    0.0
2019/01/17 09:32:45.000   4280293.4859  -4034428.9009  -2458140.3387   5  11   4.4117   3.4857   3.0988  -3.3388   2.2077  -2.5521   0.00    0.0
2019/01/17 09:33:00.000   4280294.2586  -4034429.2487  -2458140.8986   5  11   4.4157   3.4868   3.1006  -3.3416   2.2104  -2.5542   0.00    0.0
2019/01/17 09:33:15.000   4280293.2341  -4034428.7075  -2458140.6619   5  11   4.4195   3.4879   3.1023  -3.3443   2.2131  -2.5563   0.00    0.0
2019/01/17 09:33:30.000   4280293.2356  -4034428.7375  -2458140.9379   5  11   4.4234   3.4889   3.1040  -3.3470   2.2158  -2.5583   0.00    0.0
2019/01/17 09:33:45.000   4280293.3397  -4034428.5019  -2458141.2938   5  11   4.4272   3.4900   3.1056  -3.3497   2.2185  -2.5603   0.00    0.0
2019/01/17 09:34:00.000   4280293.2592  -4034428.5749  -2458141.0071   5  11   4.4310   3.4910   3.1073  -3.3523   2.2212  -2.5623   0.00    0.0
2019/01/17 09:34:15.000   4280293.1613  -4034428.7998  -2458141.2709   5  11   4.4347   3.4921   3.1089  -3.3549   2.2238  -2.5642   0.00    0.0
2019/01/17 09:34:30.000   4280293.3828  -4034428.6682  -2458140.7966   5  11   4.4384   3.4931   3.1105  -3.3575   2.2265  -2.5661   0.00    0.0
2019/01/17 09:34:45.000   4280293.5408  -4034428.9368  -2458140.7355   5  11   4.4420   3.4941   3.1121  -3.3600   2.2291  -2.5679   0.00    0.0
2019/01/17 09:35:00.000   4280293.6848  -4034429.0226  -2458140.8497   5  11   4.4456   3.4952   3.1136  -3.3625   2.2317  -2.5697   0.00    0.0
2019/01/17 09:35:15.000   4280294.0961  -4034428.5951  -2458140.6363   5  11   4.4492   3.4962   3.1151  -3.3650   2.2343  -2.5715   0.00    0.0
2019/01/17 09:35:30.000   4280293.4986  -4034428.7363  -2458140.1882   5  11   4.4527   3.4972   3.1166  -3.3674   2.2368  -2.5732   0.00    0.0
2019/01/17 09:35:45.000   4280293.8798  -4034428.7921  -2458140.4514   5  11   4.4561   3.4982   3.1180  -3.3698   2.2394  -2.5750   0.00    0.0
2019/01/17 09:36:00.000   4280293.1756  -4034428.3953  -2458140.3961   5  11   4.4596   3.4992   3.1195  -3.3722   2.2419  -2.5766   0.00    0.0
2019/01/17 09:36:15.000   4280293.3759  -4034428.1584  -2458140.9734   5  11   4.4630   3.5002   3.1209  -3.3745   2.2444  -2.5783   0.00    0.0
2019/01/17 09:36:30.000   4280293.6811  -4034428.1145  -2458140.9647   5  11   4.4663   3.5012   3.1223  -3.3768   2.2469  -2.5798   0.00    0.0
2019/01/17 09:36:45.000   4280293.0300  -4034427.3355  -2458140.2724   5  11   4.4696   3.5022   3.1236  -3.3791   2.2494  -2.5814   0.00    0.0
2019/01/17 09:37:00.000   4280292.7038  -4034427.7224  -2458140.9464   5  11   4.4728   3.5032   3.1249  -3.3813   2.2518  -2.5829   0.00    0.0
2019/01/17 09:37:15.000   4280292.2507  -4034427.1914  -2458140.3018   5  11   4.4761   3.5042   3.1262  -3.3835   2.2542  -2.5844   0.00    0.0
2019/01/17 09:37:30.000   4280291.3363  -4034427.3077  -2458140.0890   5  11   4.4792   3.5051   3.1275  -3.3857   2.2566  -2.5858   0.00    0.0
2019/01/17 09:37:45.000   4280292.8419  -4034427.6477  -2458141.0337   5  11   4.4823   3.5061   3.1287  -3.3878   2.2590  -2.5872   0.00    0.0
2019/01/17 09:38:00.000   4280293.3227  -4034427.6923  -2458140.7798   5  11   4.4854   3.5070   3.1300  -3.3899   2.2614  -2.5886   0.00    0.0
2019/01/17 09:38:15.000   4280293.5803  -4034428.4561  -2458140.3109   5  11   4.4884   3.5080   3.1311  -3.3920   2.2637  -2.5899   0.00    0.0
2019/01/17 09:38:30.000   4280292.8039  -4034428.5445  -2458140.7670   5  11   4.4914   3.5089   3.1323  -3.3940   2.2660  -2.5912   0.00    0.0
2019/01/17 09:38:45.000   4280293.8876  -4034429.3403  -2458140.9530   5  11   4.4943   3.5098   3.1334  -3.3960   2.2683  -2.5924   0.00    0.0
2019/01/17 09:39:00.000   4280292.4922  -4034428.4797  -2458140.2758   5  12   3.5759   3.2444   3.1311  -2.8086   2.2266  -2.5148   0.00    0.0
2019/01/17 09:39:15.000   4280292.7475  -4034428.5223  -2458140.4998   5  12   3.5809   3.2466   3.1323  -2.8129   2.2301  -2.5181   0.00    0.0
2019/01/17 09:39:30.000   4280292.0432  -4034427.7101  -2458139.9469   5  12   3.5859   3.2489   3.1335  -2.8171   2.2336  -2.5214   0.00    0.0
2019/01/17 09:39:45.000   4280293.2638  -4034428.8530  -2458140.7715   5  12   3.5910   3.2512   3.1347  -2.8213   2.2371  -2.5246   0.00    0.0
2019/01/17 09:40:00.000   4280293.0216  -4034429.0461  -2458141.0009   5  12   3.5960   3.2534   3.1359  -2.8256   2.2406  -2.5278   0.00    0.0
2019/01/17 09:40:15.000   4280293.2752  -4034429.1815  -2458140.4723   5  12   3.6009   3.2557   3.1370  -2.8298   2.2441  -2.5310   0.00    0.0
2019/01/17 09:40:30.000   4280292.9461  -4034428.1596  -2458140.0101   5  12   3.6059   3.2580   3.1382  -2.8340   2.2475  -2.5341   0.00    0.0
2019/01/17 09:40:45.000   4280291.5758  -4034426.8839  -2458139.5971   5  12   3.6109   3.2603   3.1392  -2.8382   2.2509  -2.5373   0.00    0.0
2019/01/17 09:41:00.000   4280292.4733  -4034427.4051  -2458140.0399   5  12   3.6158   3.2626   3.1403  -2.8424   2.2543  -2.5404   0.00    0.0
2019/01/17 09:41:15.000   4280291.5778  -4034427.3651  -2458138.9360   5  12   3.6208   3.2649   3.1413  -2.8466   2.2577  -2.5434   0.00    0.0
2019/01/17 09:41:30.000   4280292.5038  -4034427.5712  -2458139.5171   5  12   3.6257   3.2672   3.1423  -2.8508   2.2610  -2.5465   0.00    0.0
2019/01/17 09:41:45.000   4280292.3092  -4034427.8635  -2458139.4353   5  12   3.6306   3.2695   3.1432  -2.8550   2.2643  -2.5494   0.00    0.0
2019/01/17 09:42:00.000   4280293.6772  -4034428.8376  -2458140.8206   5  12   3.6355   3.2718   3.1441  -2.8591   2.2676  -2.5524   0.00    0.0
2019/01/17 09:42:15.000   4280293.3889  -4034428.4500  -2458140.7441   5  12   3.6404   3.2741   3.1450  -2.8633   2.2709  -2.5553   0.00    0.0
2019/01/17 09:42:30.000   4280292.9872  -4034428.0026  -2458140.7007   5  12   3.6453   3.2765   3.1459  -2.8674   2.2741  -2.5582   0.00    0.0
2019/01/17 09:42:45.000   4280292.8219  -4034428.4104  -2458141.1709   5  12   3.6501   3.2788   3.1467  -2.8715   2.2774  -2.5611   0.00    0.0
2019/01/17 09:43:00.000   4280292.6449  -4034428.1522  -2458140.7002   5  12   3.6550   3.2811   3.1475  -2.8756   2.2806  -2.5639   0.00    0.0
2019/01/17 09:43:15.000   4280292.7964  -4034428.2999  -2458140.9310   5  12   3.6598   3.2835   3.1482  -2.8797   2.2837  -2.5667   0.00    0.0
2019/01/17 09:43:30.000   4280292.8387  -4034428.6525  -2458140.7139   5  12   3.6646   3.2858   3.1489  -2.8838   2.2869  -2.5695   0.00    0.0
2019/01/17 09:43:45.000   4280292.3574  -4034427.9559  -2458140.3192   5  12   3.6694   3.2882   3.1496  -2.8878   2.2900  -2.5722   0.00    0.0
2019/01/17 09:44:00.000   4280293.0028  -4034429.0076  -2458140.5690   5  12   3.6741   3.2905   3.1503  -2.8919   2.2931  -2.5749   0.00    0.0
2019/01/17 09:44:15.000   4280293.3387  -4034429.4672  -2458140.7511   5  12   3.6789   3.2929   3.1509  -2.8959   2.2962  -2.5775   0.00    0.0
2019/01/17 09:44:30.000   4280292.3369  -4034428.3813  -2458140.4551   5  12   3.6836   3.2952   3.1515  -2.8999   2.2992  -2.5801   0.00    0.0
2019/01/17 09:44:45.000   4280291.9005  -4034427.9532  -2458139.8000   5  12   3.6884   3.2976   3.1521  -2.9039   2.3022  -2.5827   0.00    0.0
2019/01/17 09:45:00.000   4280292.3238  -4034427.8252  -2458140.1338   5  12   3.6931   3.2999   3.1526  -2.9079   2.3052  -2.5852   0.00    0.0
2019/01/17 09:45:15.000   4280292.8215  -4034427.9378  -2458140.4950   5  12   3.6977   3.3023   3.1531  -2.9118   2.3081  -2.5877   0.00    0.0
2019/01/17 09:45:30.000   4280293.1337  -4034428.4859  -2458140.0756   5  12   3.7024   3.3047   3.1535  -2.9158   2.3111  -2.5902   0.00    0.0
2019/01/17 09:45:45.000   4280292.8321  -4034428.3403  -2458140.5407   5  12   3.7070   3.3070   3.1540  -2.9197   2.3140  -2.5926   0.00    0.0
2019/01/17 09:46:00.000   4280293.0604  -4034428.1283  -2458140.3288   5  13   3.6039   3.2934   3.1487  -2.8739   2.3300  -2.6270   0.00    0.0
2019/01/17 09:46:15.000   4280292.7573  -4034428.3766  -2458140.1258   5  12   3.7163   3.3117   3.1547  -2.9275   2.3196  -2.5973   0.00    0.0
2019/01/17 09:46:30.000   4280291.5886  -4034427.5371  -2458139.4071   5  13   3.6139   3.2983   3.1491  -2.8822   2.3358  -2.6324   0.00    0.0
2019/01/17 09:46:45.000   4280292.2484  -4034428.1808  -2458139.9830   5  13   3.6189   3.3008   3.1492  -2.8863   2.3387  -2.6350   0.00    0.0
2019/01/17 09:47:00.000   4280292.9182  -4034428.4090  -2458140.3329   5  12   3.7300   3.3188   3.1556  -2.9391   2.3279  -2.6041   0.00    0.0
2019/01/17 09:47:15.000   4280292.2344  -4034428.1212  -2458141.3628   5  13   3.6289   3.3057   3.1494  -2.8945   2.3444  -2.6400   0.00    0.0
2019/01/17 09:47:30.000   4280292.3104  -4034427.8087  -2458140.9008   5  13   3.6338   3.3082   3.1494  -2.8986   2.3472  -2.6425   0.00    0.0
2019/01/17 09:47:45.000   4280292.7646  -4034428.6273  -2458141.3017   5  13   3.6387   3.3106   3.1494  -2.9027   2.3499  -2.6450   0.00    0.0
2019/01/17 09:48:00.000   4280293.5714  -4034429.0286  -2458141.3529   5  12   4.2901   3.4783   3.1497  -3.2937   2.3629  -2.6669   0.00    0.0
2019/01/17 09:48:15.000   4280293.2301  -4034428.4227  -2458141.1349   5  12   4.2924   3.4793   3.1495  -3.2952   2.3646  -2.6673   0.00    0.0
2019/01/17 09:48:30.000   4280292.6802  -4034427.7052  -2458140.9572   5  12   4.2947   3.4803   3.1494  -3.2966   2.3662  -2.6678   0.00    0.0
2019/01/17 09:48:45.000   4280291.7131  -4034427.9217  -2458140.0849   5  12   4.2969   3.4813   3.1491  -3.2980   2.3678  -2.6681   0.00    0.0
2019/01/17 09:49:00.000   4280292.0465  -4034428.0087  -2458140.3333   5  13   3.9818   3.2822   2.4264  -3.0000   1.8109  -1.9665   0.00    0.0
2019/01/17 09:49:15.000   4280291.8319  -4034427.4262  -2458140.1695   5  13   3.5112   3.1693   2.4264  -2.7186   1.8441  -2.0263   0.00    0.0
2019/01/17 09:49:30.000   4280291.7738  -4034427.4720  -2458140.7926   5  14   3.3905   3.1517   2.4250  -2.6609   1.8612  -2.0606   0.00    0.0
2019/01/17 09:49:45.000   4280291.8726  -4034427.6138  -2458140.6233   5  14   3.3966   3.1546   2.4270  -2.6660   1.8657  -2.0655   0.00    0.0
2019/01/17 09:50:00.000   4280292.9476  -4034428.2930  -2458141.2231   5  14   3.4028   3.1576   2.4290  -2.6711   1.8703  -2.0703   0.00    0.0
2019/01/17 09:50:15.000   4280293.1777  -4034428.7050  -2458140.9605   5  14   3.4089   3.1605   2.4309  -2.6761   1.8748  -2.0751   0.00    0.0
2019/01/17 09:50:30.000   4280292.5339  -4034428.6399  -2458140.8700   5  14   3.4150   3.1635   2.4329  -2.6812   1.8793  -2.0799   0.00    0.0
2019/01/17 09:50:45.000   4280292.1384  -4034427.8668  -2458140.3974   5  14   3.4212   3.1665   2.4348  -2.6863   1.8839  -2.0847   0.00    0.0
2019/01/17 09:51:00.000   4280291.7985  -4034427.4062  -2458140.3601   5  14   3.4273   3.1695   2.4367  -2.6913   1.8884  -2.0895   0.00    0.0
2019/01/17 09:51:15.000   4280293.4559  -4034428.5909  -2458140.5152   5  14   3.4334   3.1725   2.4387  -2.6964   1.8929  -2.0943   0.00    0.0
2019/01/17 09:51:30.000   4280293.0424  -4034428.4474  -2458140.6057   5  14   3.4396   3.1756   2.4406  -2.7015   1.8973  -2.0990   0.00    0.0
2019/01/17 09:51:45.000   4280291.5016  -4034427.4544  -2458140.1305   5  14   3.4457   3.1786   2.4425  -2.7065   1.9018  -2.1037   0.00    0.0
2019/01/17 09:52:00.000   4280291.4879  -4034426.9554  -2458140.2197   5  14   3.4518   3.1817   2.4444  -2.7116   1.9063  -2.1084   0.00    0.0
2019/01/17 09:52:15.000   4280291.7401  -4034427.8228  -2458140.3880   5  14   3.4580   3.1847   2.4463  -2.7167   1.9107  -2.1131   0.00    0.0
2019/01/17 09:52:30.000   4280292.2369  -4034428.3253  -2458140.8452   5  14   3.4641   3.1878   2.4482  -2.7217   1.9151  -2.1178   0.00    0.0
2019/01/17 09:52:45.000   4280292.1834  -4034428.1026  -2458140.2457   5  13   3.5921   3.2105   2.4543  -2.7864   1.9062  -2.0906   0.00    0.0
2019/01/17 09:53:00.000   4280291.7460  -4034428.0046  -2458140.0801   5  14   3.4763   3.1940   2.4519  -2.7318   1.9239  -2.1270   0.00    0.0
2019/01/17 09:53:15.000   4280292.6824  -4034427.9654  -2458140.6780   5  14   3.4824   3.1971   2.4537  -2.7368   1.9283  -2.1316   0.00    0.0
2019/01/17 09:53:30.000   4280293.2008  -4034428.2125  -2458140.6621   5  13   3.6093   3.2196   2.4600  -2.8008   1.9191  -2.1039   0.00    0.0
2019/01/17 09:53:45.000   4280292.9175  -4034427.9352  -2458140.6895   5  13   3.6150   3.2226   2.4619  -2.8056   1.9234  -2.1082   0.00    0.0
2019/01/17 09:54:00.000   4280292.5532  -4034427.8569  -2458140.1277   5  14   3.5007   3.2064   2.4592  -2.7519   1.9413  -2.1453   0.00    0.0
2019/01/17 09:54:15.000   4280292.2665  -4034428.2280  -2458140.0296   5  14   3.5068   3.2095   2.4610  -2.7570   1.9457  -2.1498   0.00    0.0
2019/01/17 09:54:30.000   4280292.1394  -4034428.2270  -2458140.4483   5  14   3.5129   3.2127   2.4628  -2.7620   1.9499  -2.1543   0.00    0.0
2019/01/17 09:54:45.000   4280293.0055  -4034428.3724  -2458140.7271   5  12   3.8583   3.3891   3.1460  -3.0461   2.3950  -2.6504   0.00    0.0
2019/01/17 09:55:00.000   4280292.9709  -4034428.5177  -2458140.9069   5  12   3.8620   3.3912   3.1451  -3.0491   2.3965  -2.6512   0.00    0.0
2019/01/17 09:55:15.000   4280293.3762  -4034428.7026  -2458140.9939   5  12   3.8657   3.3933   3.1442  -3.0521   2.3980  -2.6518   0.00    0.0
2019/01/17 09:55:30.000   4280293.2275  -4034428.6784  -2458141.0717   5  12   3.8693   3.3954   3.1433  -3.0550   2.3994  -2.6524   0.00    0.0
2019/01/17 09:55:45.000   4280292.6746  -4034427.6736  -2458140.6143   5  12   3.8729   3.3975   3.1423  -3.0579   2.4008  -2.6530   0.00    0.0
2019/01/17 09:56:00.000   4280293.1658  -4034428.0071  -2458140.6035   5  12   3.8765   3.3995   3.1413  -3.0608   2.4022  -2.6535   0.00    0.0
2019/01/17 09:56:15.000   4280293.2188  -4034428.6719  -2458141.0157   5  14   3.5552   3.2348   2.4749  -2.7968   1.9795  -2.1851   0.00    0.0
2019/01/17 09:56:30.000   4280293.1619  -4034428.8215  -2458140.7872   5  13   3.7116   3.2379   2.5885  -2.8016   1.9834  -2.3624   0.00    0.0
2019/01/17 09:56:45.000   4280292.4426  -4034428.0442  -2458140.3683   5  13   3.7193   3.2411   2.5913  -2.8076   1.9886  -2.3683   0.00    0.0
2019/01/17 09:57:00.000   4280291.9838  -4034428.0830  -2458140.4173   5  13   3.7269   3.2443   2.5941  -2.8135   1.9938  -2.3742   0.00    0.0
2019/01/17 09:57:15.000   4280292.2680  -4034428.0891  -2458140.4314   5  13   3.7346   3.2475   2.5968  -2.8195   1.9989  -2.3801   0.00    0.0
2019/01/17 09:57:30.000   4280291.9583  -4034427.9838  -2458140.6498   5  13   3.7423   3.2507   2.5996  -2.8255   2.0041  -2.3860   0.00    0.0
2019/01/17 09:57:45.000   4280292.3543  -4034428.0174  -2458140.4836   5  13   3.7499   3.2539   2.6023  -2.8314   2.0092  -2.3919   0.00    0.0
2019/01/17 09:58:00.000   4280291.9043  -4034427.8073  -2458140.1732   5  12   3.8203   3.3748   2.6054  -2.9427   2.0051  -2.3917   0.00    0.0
2019/01/17 09:58:15.000   4280291.0832  -4034427.4494  -2458140.1833   5  12   3.8294   3.3794   2.6081  -2.9504   2.0113  -2.3982   0.00    0.0
2019/01/17 09:58:30.000   4280291.7021  -4034427.8664  -2458140.3412   5  12   3.8385   3.3840   2.6107  -2.9582   2.0174  -2.4046   0.00    0.0
2019/01/17 09:58:45.000   4280291.7294  -4034427.6866  -2458140.3456   5  12   3.8477   3.3886   2.6133  -2.9659   2.0235  -2.4111   0.00    0.0
2019/01/17 09:59:00.000   4280290.9419  -4034427.6273  -2458139.9034   5  12   3.8568   3.3933   2.6160  -2.9737   2.0297  -2.4175   0.00    0.0
2019/01/17 09:59:15.000   4280291.8263  -4034428.1261  -2458139.9453   5  12   3.8660   3.3980   2.6186  -2.9815   2.0358  -2.4240   0.00    0.0
2019/01/17 09:59:30.000   4280292.1779  -4034428.6521  -2458140.7071   5  12   3.8752   3.4027   2.6213  -2.9893   2.0419  -2.4304   0.00    0.0
2019/01/17 09:59:45.000   4280291.5745  -4034427.7634  -2458140.1448   5  12   3.8844   3.4075   2.6239  -2.9971   2.0480  -2.4369   0.00    0.0
2019/01/17 10:00:00.000   4280291.3950  -4034427.3538  -2458140.3699   5  12   3.8936   3.4122   2.6265  -3.0049   2.0541  -2.4433   0.00    0.0
2019/01/17 10:00:15.000   4280292.8006  -4034428.4396  -2458140.5032   5  13   3.2899   3.3377   2.5372  -2.7458   1.9339  -2.1340   0.00    0.0
2019/01/17 10:00:30.000   4280292.3254  -4034428.3981  -2458140.0922   5  13   3.2972   3.3417   2.5398  -2.7522   1.9396  -2.1402   0.00    0.0
2019/01/17 10:00:45.000   4280292.1946  -4034428.3103  -2458140.3071   5  12   3.9214   3.4266   2.6344  -3.0284   2.0724  -2.4626   0.00    0.0
2019/01/17 10:01:00.000   4280291.8938  -4034427.9636  -2458140.1599   5  12   3.9307   3.4315   2.6370  -3.0363   2.0785  -2.4689   0.00    0.0
2019/01/17 10:01:15.000   4280291.9227  -4034428.0166  -2458140.5723   5  12   3.9400   3.4363   2.6396  -3.0441   2.0846  -2.4753   0.00    0.0
2019/01/17 10:01:30.000   4280292.3517  -4034428.4212  -2458140.5509   5  13   3.3268   3.3582   2.5500  -2.7777   1.9624  -2.1650   0.00    0.0
2019/01/17 10:01:45.000   4280291.5059  -4034427.6321  -2458140.0671   5  13   3.3343   3.3623   2.5526  -2.7842   1.9681  -2.1711   0.00    0.0
2019/01/17 10:02:00.000   4280291.5364  -4034427.6135  -2458140.2258   5  13   3.3417   3.3665   2.5552  -2.7906   1.9738  -2.1773   0.00    0.0
2019/01/17 10:02:15.000   4280291.9744  -4034428.0366  -2458140.2688   5  13   3.3492   3.3707   2.5577  -2.7970   1.9794  -2.1834   0.00    0.0
2019/01/17 10:02:30.000   4280291.5423  -4034427.9095  -2458140.0781   5  13   3.3566   3.3749   2.5603  -2.8035   1.9851  -2.1896   0.00    0.0
2019/01/17 10:02:45.000   4280292.2300  -4034428.1148  -2458140.4820   5  13   3.3641   3.3791   2.5628  -2.8099   1.9907  -2.1957   0.00    0.0
2019/01/17 10:03:00.000   4280292.8758  -4034428.7684  -2458140.7937   5  13   3.3716   3.3834   2.5653  -2.8164   1.9964  -2.2018   0.00    0.0
2019/01/17 10:03:15.000   4280292.1340  -4034427.8161  -2458140.3053   5  13   3.3791   3.3876   2.5679  -2.8229   2.0020  -2.2079   0.00    0.0
2019/01/17 10:03:30.000   4280291.4629  -4034427.8776  -2458140.3541   5  13   3.3866   3.3919   2.5704  -2.8294   2.0076  -2.2140   0.00    0.0
2019/01/17 10:03:45.000   4280291.3989  -4034427.6479  -2458140.3818   5  13   3.3941   3.3962   2.5729  -2.8359   2.0132  -2.2201   0.00    0.0
2019/01/17 10:04:00.000   4280291.6933  -4034427.5831  -2458139.7631   5  12   3.4869   3.4095   2.9024  -2.8088   1.9351  -2.4457   0.00    0.0
2019/01/17 10:04:15.000   4280292.0362  -4034427.8620  -2458140.1790   5  13   3.4092   3.4048   2.5780  -2.8489   2.0244  -2.2323   0.00    0.0
2019/01/17 10:04:30.000   4280292.5002  -4034428.4034  -2458140.4937   5  13   3.4167   3.4092   2.5805  -2.8554   2.0300  -2.2383   0.00    0.0
2019/01/17 10:04:45.000   4280291.0070  -4034427.3044  -2458140.1045   5  13   3.4243   3.4135   2.5829  -2.8619   2.0355  -2.2443   0.00    0.0
2019/01/17 10:05:00.000   4280290.7017  -4034426.8908  -2458139.5568   5  13   3.4318   3.4179   2.5854  -2.8684   2.0411  -2.2504   0.00    0.0
2019/01/17 10:05:15.000   4280291.0624  -4034426.8502  -2458139.9308   5  13   3.4394   3.4222   2.5879  -2.8749   2.0466  -2.2564   0.00    0.0
2019/01/17 10:05:30.000   4280291.7889  -4034426.8573  -2458140.0312   5  13   3.4469   3.4266   2.5904  -2.8815   2.0521  -2.2623   0.00    0.0
2019/01/17 10:05:45.000   4280291.3448  -4034427.0670  -2458139.4105   5  13   3.4545   3.4310   2.5929  -2.8880   2.0576  -2.2683   0.00    0.0
2019/01/17 10:06:00.000   4280291.5997  -4034427.2571  -2458139.5187   5  14   3.3887   3.4237   2.4280  -2.8596   1.9992  -2.1266   0.00    0.0
2019/01/17 10:06:15.000   4280291.6908  -4034427.3896  -2458139.8836   5  14   3.3962   3.4281   2.4306  -2.8662   2.0048  -2.1326   0.00    0.0
2019/01/17 10:06:30.000   4280291.5821  -4034426.9283  -2458140.0332   5  14   3.4037   3.4326   2.4331  -2.8727   2.0104  -2.1387   0.00    0.0
2019/01/17 10:06:45.000   4280291.5672  -4034427.7057  -2458140.3701   5  14   3.4112   3.4370   2.4357  -2.8792   2.0160  -2.1448   0.00    0.0
2019/01/17 10:07:00.000   4280291.2642  -4034427.5326  -2458139.9115   5  14   3.4187   3.4415   2.4383  -2.8858   2.0216  -2.1508   0.00    0.0
2019/01/17 10:07:15.000   4280292.2199  -4034427.8155  -2458140.5854   5  14   3.4263   3.4459   2.4408  -2.8923   2.0272  -2.1568   0.00    0.0
2019/01/17 10:07:30.000   4280291.9479  -4034427.5234  -2458139.8936   5  13   3.4946   3.5023   2.8560  -2.9654   2.2406  -2.3744   0.00    0.0
2019/01/17 10:07:45.000   4280291.4817  -4034427.7206  -2458140.2193   5  13   3.5012   3.5062   2.8565  -2.9710   2.2442  -2.3781   0.00    0.0
2019/01/17 10:08:00.000   4280291.8355  -4034427.9907  -2458140.3206   5  14   3.4489   3.4594   2.4485  -2.9120   2.0438  -2.1748   0.00    0.0
2019/01/17 10:08:15.000   4280290.9735  -4034427.2600  -2458140.2880   5  14   3.4564   3.4639   2.4510  -2.9186   2.0494  -2.1808   0.00    0.0
2019/01/17 10:08:30.000   4280291.7571  -4034428.5017  -2458140.3267   5  14   3.4640   3.4684   2.4536  -2.9251   2.0549  -2.1868   0.00    0.0
2019/01/17 10:08:45.000   4280291.5865  -4034427.6642  -2458139.6950   5  13   3.5278   3.5217   2.8582  -2.9936   2.2581  -2.3928   0.00    0.0
2019/01/17 10:09:00.000   4280290.5854  -4034427.1618  -2458139.1765   5  13   3.5344   3.5256   2.8586  -2.9992   2.2616  -2.3964   0.00    0.0
2019/01/17 10:09:15.000   4280290.8220  -4034427.7891  -2458140.2029   5  13   3.5411   3.5295   2.8589  -3.0048   2.2649  -2.4000   0.00    0.0
2019/01/17 10:09:30.000   4280291.7467  -4034428.0012  -2458140.3159   5  14   3.4942   3.4865   2.4637  -2.9513   2.0767  -2.2105   0.00    0.0
2019/01/17 10:09:45.000   4280291.7090  -4034427.5962  -2458139.8487   5  14   3.5017   3.4910   2.4662  -2.9579   2.0822  -2.2163   0.00    0.0
2019/01/17 10:10:00.000   4280291.6256  -4034427.5764  -2458139.9436   5  14   3.5093   3.4955   2.4687  -2.9644   2.0876  -2.2222   0.00    0.0
2019/01/17 10:10:15.000   4280291.3189  -4034427.4555  -2458139.8319   5  14   3.5168   3.5001   2.4712  -2.9709   2.0930  -2.2280   0.00    0.0
2019/01/17 10:10:30.000   4280291.5755  -4034427.5769  -2458140.2234   5  14   3.5244   3.5046   2.4737  -2.9774   2.0983  -2.2339   0.00    0.0
2019/01/17 10:10:45.000   4280291.7106  -4034427.9204  -2458140.0508   5  14   3.5319   3.5092   2.4762  -2.9839   2.1037  -2.2397   0.00    0.0
2019/01/17 10:11:00.000   4280291.9663  -4034428.0745  -2458140.1686   5  14   3.5395   3.5137   2.4786  -2.9905   2.1090  -2.2454   0.00    0.0
2019/01/17 10:11:15.000   4280291.6403  -4034427.6364  -2458139.6971   5  14   3.5470   3.5182   2.4811  -2.9969   2.1143  -2.2512   0.00    0.0
2019/01/17 10:11:30.000   4280290.9771  -4034427.5301  -2458139.6884   5  14   3.5546   3.5228   2.4836  -3.0034   2.1196  -2.2569   0.00    0.0
2019/01/17 10:11:45.000   4280291.5084  -4034427.4933  -2458140.0162   5  14   3.5621   3.5273   2.4860  -3.0099   2.1248  -2.2627   0.00    0.0
2019/01/17 10:12:00.000   4280290.6752  -4034427.0416  -2458140.1939   5  14   3.5696   3.5319   2.4885  -3.0164   2.1301  -2.2683   0.00    0.0
2019/01/17 10:12:15.000   4280291.3275  -4034427.1995  -2458140.0187   5  14   3.5771   3.5364   2.4909  -3.0228   2.1353  -2.2740   0.00    0.0
2019/01/17 10:12:30.000   4280291.1799  -4034427.1304  -2458139.7989   5  14   3.5846   3.5409   2.4933  -3.0293   2.1405  -2.2797   0.00    0.0
2019/01/17 10:12:45.000   4280291.5497  -4034427.8690  -2458139.7161   5  14   3.5921   3.5455   2.4957  -3.0357   2.1456  -2.2853   0.00    0.0
2019/01/17 10:13:00.000   4280292.1318  -4034427.6490  -2458139.3519   5  14   3.5996   3.5500   2.4981  -3.0421   2.1508  -2.2909   0.00    0.0
2019/01/17 10:13:15.000   4280292.4474  -4034428.1385  -2458140.5976   5  13   3.7680   4.1978   2.5244  -3.4244   2.3284  -2.3771   0.00    0.0
2019/01/17 10:13:30.000   4280291.7770  -4034428.0888  -2458140.0471   5  13   3.7766   4.2035   2.5275  -3.4321   2.3358  -2.3840   0.00    0.0
2019/01/17 10:13:45.000   4280291.5076  -4034428.0572  -2458140.3626   5  13   3.7851   4.2091   2.5305  -3.4399   2.3432  -2.3909   0.00    0.0
2019/01/17 10:14:00.000   4280291.9153  -4034428.6314  -2458140.4200   5  13   3.7937   4.2147   2.5336  -3.4477   2.3506  -2.3977   0.00    0.0
2019/01/17 10:14:15.000   4280292.0344  -4034428.7320  -2458140.5822   5  13   3.8022   4.2203   2.5366  -3.4554   2.3579  -2.4046   0.00    0.0
2019/01/17 10:14:30.000   4280290.9601  -4034427.8159  -2458140.1548   5  13   3.8107   4.2259   2.5397  -3.4632   2.3652  -2.4113   0.00    0.0
2019/01/17 10:14:45.000   4280291.1225  -4034427.3439  -2458139.7804   5  13   3.8192   4.2315   2.5427  -3.4709   2.3724  -2.4181   0.00    0.0
2019/01/17 10:15:00.000   4280291.4547  -4034427.5944  -2458140.0258   5  13   3.8277   4.2370   2.5458  -3.4786   2.3797  -2.4248   0.00    0.0
2019/01/17 10:15:15.000   4280291.0845  -4034427.2423  -2458139.9910   5  13   3.8362   4.2426   2.5488  -3.4862   2.3868  -2.4315   0.00    0.0
2019/01/17 10:15:30.000   4280290.4098  -4034425.8856  -2458139.4217   5  13   3.8446   4.2482   2.5518  -3.4939   2.3940  -2.4382   0.00    0.0
