% program   : RTKPOST ver.2.4.2
% inp file  : D:\Google Drive\UERJ\_Projeto Final\20190115_Marco 91500 IBGE\riod0151.19d
% inp file  : D:\Google Drive\UERJ\_Projeto Final\20190115_Marco 91500 IBGE\brdm0150.19p
% obs start : 2019/01/15 00:00:00.0 GPST (week2036 172800.0s)
% obs end   : 2019/01/15 23:59:45.0 GPST (week2036 259185.0s)
% pos mode  : single
% elev mask : 15.0 deg
% ionos opt : broadcast
% tropo opt : saastamoinen
% ephemeris : broadcast
% navi sys  : gps glonass
%
% (x/y/z-ecef=WGS84,Q=1:fix,2:float,3:sbas,4:dgps,5:single,6:ppp,ns=# of satellites)
%  GPST                      x-ecef(m)      y-ecef(m)      z-ecef(m)   Q  ns   sdx(m)   sdy(m)   sdz(m)  sdxy(m)  sdyz(m)  sdzx(m) age(s)  ratio
2019/01/15 00:00:00.000   4280292.7443  -4034429.6217  -2458140.8134   5  16   3.4548   3.6551   2.5452  -2.9025   2.2859  -2.0016   0.00    0.0
2019/01/15 00:00:15.000   4280292.5845  -4034429.1384  -2458140.7831   5  16   3.4547   3.6495   2.5436  -2.8991   2.2838  -1.9996   0.00    0.0
2019/01/15 00:00:30.000   4280291.5072  -4034427.6665  -2458139.0647   5  15   3.9261   4.0953   3.6117  -3.4455   3.1625  -2.9624   0.00    0.0
2019/01/15 00:00:45.000   4280291.6920  -4034427.7535  -2458139.7015   5  15   3.9281   4.0932   3.6126  -3.4456   3.1643  -2.9639   0.00    0.0
2019/01/15 00:01:00.000   4280292.3313  -4034428.3295  -2458139.9353   5  15   3.9302   4.0911   3.6136  -3.4457   3.1662  -2.9654   0.00    0.0
2019/01/15 00:01:15.000   4280291.6921  -4034427.6048  -2458139.7248   5  15   3.9322   4.0890   3.6144  -3.4457   3.1679  -2.9668   0.00    0.0
2019/01/15 00:01:30.000   4280291.6187  -4034427.7729  -2458139.7127   5  15   3.9343   4.0868   3.6152  -3.4457   3.1696  -2.9682   0.00    0.0
2019/01/15 00:01:45.000   4280291.6555  -4034428.2035  -2458139.7170   5  15   3.9363   4.0847   3.6160  -3.4457   3.1713  -2.9695   0.00    0.0
2019/01/15 00:02:00.000   4280290.6171  -4034427.1721  -2458138.7747   5  15   3.9383   4.0825   3.6166  -3.4457   3.1728  -2.9707   0.00    0.0
2019/01/15 00:02:15.000   4280291.2934  -4034427.4470  -2458139.1954   5  15   3.9403   4.0803   3.6172  -3.4456   3.1743  -2.9719   0.00    0.0
2019/01/15 00:02:30.000   4280292.5354  -4034428.5601  -2458140.0777   5  15   3.9422   4.0781   3.6178  -3.4455   3.1758  -2.9731   0.00    0.0
2019/01/15 00:02:45.000   4280292.3001  -4034427.8342  -2458140.0011   5  15   3.9442   4.0759   3.6183  -3.4454   3.1772  -2.9742   0.00    0.0
2019/01/15 00:03:00.000   4280292.4490  -4034427.6173  -2458139.9869   5  15   3.9461   4.0736   3.6187  -3.4453   3.1785  -2.9753   0.00    0.0
2019/01/15 00:03:15.000   4280291.7250  -4034427.3487  -2458139.7602   5  15   3.9481   4.0714   3.6190  -3.4451   3.1797  -2.9763   0.00    0.0
2019/01/15 00:03:30.000   4280291.9856  -4034428.1442  -2458140.0369   5  15   3.9500   4.0691   3.6193  -3.4449   3.1809  -2.9772   0.00    0.0
2019/01/15 00:03:45.000   4280291.5002  -4034427.8287  -2458139.3894   5  15   3.9519   4.0668   3.6196  -3.4447   3.1820  -2.9781   0.00    0.0
2019/01/15 00:04:00.000   4280291.4902  -4034428.5841  -2458139.5715   5  15   3.9538   4.0645   3.6197  -3.4445   3.1831  -2.9789   0.00    0.0
2019/01/15 00:04:15.000   4280291.2108  -4034428.2665  -2458139.5020   5  15   3.9557   4.0622   3.6198  -3.4442   3.1841  -2.9797   0.00    0.0
2019/01/15 00:04:30.000   4280290.2864  -4034427.0672  -2458138.7577   5  15   3.9575   4.0598   3.6198  -3.4439   3.1850  -2.9805   0.00    0.0
2019/01/15 00:04:45.000   4280290.2513  -4034427.2720  -2458138.7024   5  15   3.9594   4.0574   3.6198  -3.4436   3.1859  -2.9811   0.00    0.0
2019/01/15 00:05:00.000   4280290.4237  -4034426.4966  -2458139.0121   5  15   3.9612   4.0550   3.6197  -3.4432   3.1867  -2.9818   0.00    0.0
2019/01/15 00:05:15.000   4280291.5746  -4034427.6535  -2458139.8074   5  15   3.9630   4.0526   3.6195  -3.4429   3.1874  -2.9823   0.00    0.0
2019/01/15 00:05:30.000   4280291.0537  -4034427.1667  -2458139.4276   5  14   4.1916   4.3650   4.3672  -3.7502   3.7606  -3.4960   0.00    0.0
2019/01/15 00:05:45.000   4280291.7684  -4034428.3618  -2458139.9995   5  14   4.1970   4.3676   4.3729  -3.7547   3.7677  -3.5024   0.00    0.0
2019/01/15 00:06:00.000   4280290.5810  -4034427.3390  -2458139.1328   5  14   4.2024   4.3702   4.3785  -3.7591   3.7747  -3.5088   0.00    0.0
2019/01/15 00:06:15.000   4280292.3485  -4034428.8439  -2458140.2821   5  14   4.2077   4.3728   4.3840  -3.7636   3.7816  -3.5151   0.00    0.0
2019/01/15 00:06:30.000   4280292.7010  -4034428.8708  -2458140.4729   5  14   4.2131   4.3754   4.3894  -3.7679   3.7884  -3.5213   0.00    0.0
2019/01/15 00:06:45.000   4280292.9510  -4034429.1135  -2458140.0733   5  14   4.2184   4.3780   4.3947  -3.7723   3.7952  -3.5274   0.00    0.0
2019/01/15 00:07:00.000   4280292.6833  -4034429.3285  -2458140.2788   5  14   4.2237   4.3805   4.3999  -3.7766   3.8018  -3.5335   0.00    0.0
2019/01/15 00:07:15.000   4280292.9733  -4034429.3443  -2458141.1274   5  14   4.2290   4.3830   4.4050  -3.7809   3.8084  -3.5395   0.00    0.0
2019/01/15 00:07:30.000   4280291.4175  -4034427.7751  -2458139.8750   5  14   4.2343   4.3855   4.4100  -3.7852   3.8149  -3.5455   0.00    0.0
2019/01/15 00:07:45.000   4280292.2175  -4034429.0229  -2458140.2676   5  14   4.2395   4.3880   4.4149  -3.7895   3.8212  -3.5514   0.00    0.0
2019/01/15 00:08:00.000   4280292.5612  -4034429.3673  -2458140.4818   5  14   4.2448   4.3904   4.4197  -3.7937   3.8275  -3.5572   0.00    0.0
2019/01/15 00:08:15.000   4280292.2447  -4034428.8342  -2458139.4677   5  14   4.2500   4.3928   4.4244  -3.7978   3.8337  -3.5629   0.00    0.0
2019/01/15 00:08:30.000   4280292.0875  -4034429.1895  -2458140.5063   5  14   4.2552   4.3952   4.4290  -3.8020   3.8398  -3.5685   0.00    0.0
2019/01/15 00:08:45.000   4280292.1071  -4034428.6854  -2458139.7627   5  14   4.2604   4.3975   4.4335  -3.8060   3.8457  -3.5741   0.00    0.0
2019/01/15 00:09:00.000   4280292.0162  -4034428.4972  -2458139.1703   5  14   4.2655   4.3998   4.4378  -3.8101   3.8516  -3.5795   0.00    0.0
2019/01/15 00:09:15.000   4280292.0415  -4034428.2865  -2458139.2795   5  14   4.2706   4.4020   4.4420  -3.8141   3.8574  -3.5849   0.00    0.0
2019/01/15 00:09:30.000   4280291.8957  -4034428.0765  -2458139.8177   5  14   4.2757   4.4043   4.4461  -3.8181   3.8630  -3.5902   0.00    0.0
2019/01/15 00:09:45.000   4280290.6417  -4034427.7913  -2458138.9739   5  14   4.2808   4.4064   4.4501  -3.8220   3.8686  -3.5954   0.00    0.0
2019/01/15 00:10:00.000   4280292.1157  -4034428.4155  -2458140.0499   5  14   4.2859   4.4085   4.4540  -3.8258   3.8740  -3.6005   0.00    0.0
2019/01/15 00:10:15.000   4280291.5598  -4034428.2463  -2458139.2752   5  14   4.2909   4.4106   4.4578  -3.8297   3.8794  -3.6055   0.00    0.0
2019/01/15 00:10:30.000   4280291.7812  -4034428.1376  -2458139.2495   5  14   4.2959   4.4126   4.4614  -3.8334   3.8846  -3.6105   0.00    0.0
2019/01/15 00:10:45.000   4280291.2925  -4034428.3109  -2458139.5466   5  14   4.3008   4.4146   4.4649  -3.8371   3.8897  -3.6153   0.00    0.0
2019/01/15 00:11:00.000   4280291.8543  -4034428.2115  -2458140.2493   5  14   4.3057   4.4165   4.4683  -3.8408   3.8946  -3.6201   0.00    0.0
2019/01/15 00:11:15.000   4280291.6926  -4034428.6274  -2458140.8564   5  14   4.3106   4.4184   4.4715  -3.8444   3.8995  -3.6247   0.00    0.0
2019/01/15 00:11:30.000   4280290.6882  -4034428.6853  -2458140.2608   5  14   4.3154   4.4202   4.4746  -3.8480   3.9042  -3.6292   0.00    0.0
2019/01/15 00:11:45.000   4280290.7391  -4034428.0812  -2458139.9623   5  14   4.3203   4.4219   4.4776  -3.8514   3.9088  -3.6337   0.00    0.0
2019/01/15 00:12:00.000   4280290.7730  -4034428.2732  -2458140.1883   5  14   4.3250   4.4236   4.4805  -3.8549   3.9133  -3.6380   0.00    0.0
2019/01/15 00:12:15.000   4280292.1765  -4034429.8372  -2458141.7348   5  14   4.3298   4.4252   4.4832  -3.8582   3.9177  -3.6422   0.00    0.0
2019/01/15 00:12:30.000   4280291.7276  -4034429.0798  -2458141.1324   5  14   4.3344   4.4268   4.4857  -3.8615   3.9219  -3.6464   0.00    0.0
2019/01/15 00:12:45.000   4280291.2469  -4034428.0063  -2458139.8613   5  14   4.3391   4.4283   4.4882  -3.8648   3.9260  -3.6504   0.00    0.0
2019/01/15 00:13:00.000   4280291.9881  -4034428.2797  -2458140.0487   5  14   4.3437   4.4297   4.4905  -3.8679   3.9300  -3.6543   0.00    0.0
2019/01/15 00:13:15.000   4280292.0017  -4034427.8389  -2458140.0556   5  14   4.3482   4.4311   4.4926  -3.8710   3.9338  -3.6581   0.00    0.0
2019/01/15 00:13:30.000   4280292.1241  -4034428.0144  -2458139.6768   5  14   4.3527   4.4324   4.4946  -3.8740   3.9375  -3.6618   0.00    0.0
2019/01/15 00:13:45.000   4280291.1251  -4034427.4490  -2458139.0992   5  14   4.3572   4.4336   4.4965  -3.8770   3.9411  -3.6653   0.00    0.0
2019/01/15 00:14:00.000   4280292.1001  -4034427.9183  -2458140.3810   5  14   4.3616   4.4347   4.4982  -3.8799   3.9445  -3.6688   0.00    0.0
2019/01/15 00:14:15.000   4280292.7604  -4034429.3550  -2458140.7497   5  14   4.3660   4.4358   4.4998  -3.8827   3.9478  -3.6721   0.00    0.0
2019/01/15 00:14:30.000   4280292.4062  -4034428.9132  -2458140.7821   5  14   4.3703   4.4368   4.5012  -3.8854   3.9510  -3.6753   0.00    0.0
2019/01/15 00:14:45.000   4280291.9760  -4034428.0656  -2458139.7639   5  14   4.3746   4.4377   4.5024  -3.8880   3.9540  -3.6784   0.00    0.0
2019/01/15 00:15:00.000   4280292.5835  -4034428.9886  -2458140.2262   5  14   4.3788   4.4385   4.5036  -3.8906   3.9569  -3.6814   0.00    0.0
2019/01/15 00:15:15.000   4280292.7316  -4034429.6442  -2458140.5826   5  14   4.3829   4.4393   4.5045  -3.8931   3.9596  -3.6843   0.00    0.0
2019/01/15 00:15:30.000   4280291.3184  -4034428.8491  -2458139.8712   5  14   4.3870   4.4399   4.5053  -3.8955   3.9622  -3.6870   0.00    0.0
2019/01/15 00:15:45.000   4280291.5003  -4034428.9242  -2458139.9966   5  14   4.3911   4.4405   4.5060  -3.8978   3.9646  -3.6896   0.00    0.0
2019/01/15 00:16:00.000   4280291.7001  -4034428.7616  -2458139.8597   5  14   4.3951   4.4410   4.5065  -3.9001   3.9669  -3.6921   0.00    0.0
2019/01/15 00:16:15.000   4280292.4998  -4034429.2944  -2458140.8898   5  14   4.3990   4.4414   4.5068  -3.9022   3.9691  -3.6945   0.00    0.0
2019/01/15 00:16:30.000   4280291.6210  -4034428.2509  -2458140.3075   5  14   4.4029   4.4418   4.5070  -3.9043   3.9711  -3.6967   0.00    0.0
2019/01/15 00:16:45.000   4280292.1025  -4034429.0585  -2458140.7025   5  14   4.4067   4.4420   4.5071  -3.9063   3.9729  -3.6988   0.00    0.0
2019/01/15 00:17:00.000   4280292.5478  -4034429.8288  -2458141.4092   5  14   4.4105   4.4421   4.5069  -3.9082   3.9746  -3.7008   0.00    0.0
2019/01/15 00:17:15.000   4280292.2440  -4034429.2752  -2458141.1069   5  14   4.4141   4.4422   4.5066  -3.9100   3.9762  -3.7026   0.00    0.0
2019/01/15 00:17:30.000   4280291.4311  -4034428.7701  -2458140.0718   5  14   4.4178   4.4422   4.5062  -3.9117   3.9776  -3.7043   0.00    0.0
2019/01/15 00:17:45.000   4280291.6330  -4034428.6430  -2458139.6304   5  14   4.4213   4.4420   4.5056  -3.9133   3.9788  -3.7059   0.00    0.0
2019/01/15 00:18:00.000   4280291.1508  -4034427.1764  -2458138.8290   5  14   4.4248   4.4418   4.5048  -3.9148   3.9799  -3.7074   0.00    0.0
2019/01/15 00:18:15.000   4280291.7874  -4034427.5302  -2458139.1792   5  14   4.4283   4.4415   4.5039  -3.9163   3.9809  -3.7087   0.00    0.0
2019/01/15 00:18:30.000   4280292.2589  -4034428.7869  -2458139.3290   5  14   4.4317   4.4410   4.5028  -3.9176   3.9817  -3.7098   0.00    0.0
2019/01/15 00:18:45.000   4280292.4911  -4034428.0250  -2458138.9999   5  14   4.4350   4.4405   4.5015  -3.9188   3.9823  -3.7109   0.00    0.0
2019/01/15 00:19:00.000   4280293.2052  -4034428.7956  -2458139.9711   5  15   3.9470   3.0775   2.9102  -2.9784   2.2085  -2.6098   0.00    0.0
2019/01/15 00:19:15.000   4280292.8202  -4034429.0301  -2458140.8519   5  15   3.9518   3.0779   2.9118  -2.9816   2.2126  -2.6138   0.00    0.0
2019/01/15 00:19:30.000   4280293.0735  -4034429.4618  -2458141.2919   5  15   3.9566   3.0783   2.9133  -2.9847   2.2167  -2.6178   0.00    0.0
2019/01/15 00:19:45.000   4280291.1568  -4034427.7125  -2458139.5948   5  15   3.9614   3.0787   2.9149  -2.9878   2.2207  -2.6217   0.00    0.0
2019/01/15 00:20:00.000   4280290.8665  -4034427.4143  -2458140.0037   5  15   3.9662   3.0791   2.9164  -2.9910   2.2248  -2.6257   0.00    0.0
2019/01/15 00:20:15.000   4280292.0248  -4034429.1621  -2458141.6834   5  15   3.9710   3.0795   2.9178  -2.9941   2.2287  -2.6296   0.00    0.0
2019/01/15 00:20:30.000   4280291.4057  -4034428.0501  -2458140.5649   5  15   3.9758   3.0799   2.9193  -2.9972   2.2327  -2.6334   0.00    0.0
2019/01/15 00:20:45.000   4280291.4007  -4034428.3730  -2458140.7082   5  15   3.9806   3.0804   2.9207  -3.0004   2.2366  -2.6373   0.00    0.0
2019/01/15 00:21:00.000   4280292.4529  -4034429.7441  -2458141.3562   5  15   3.9854   3.0809   2.9221  -3.0035   2.2405  -2.6411   0.00    0.0
2019/01/15 00:21:15.000   4280291.6949  -4034429.1646  -2458140.8510   5  15   3.9901   3.0813   2.9235  -3.0066   2.2443  -2.6448   0.00    0.0
2019/01/15 00:21:30.000   4280292.6697  -4034430.1647  -2458141.1757   5  15   3.9949   3.0818   2.9248  -3.0097   2.2482  -2.6486   0.00    0.0
2019/01/15 00:21:45.000   4280293.5184  -4034430.7780  -2458141.3942   5  15   3.9996   3.0823   2.9261  -3.0128   2.2519  -2.6523   0.00    0.0
2019/01/15 00:22:00.000   4280293.7698  -4034430.3560  -2458141.2730   5  15   4.0044   3.0828   2.9274  -3.0160   2.2557  -2.6560   0.00    0.0
2019/01/15 00:22:15.000   4280292.7021  -4034429.2948  -2458140.7498   5  15   4.0091   3.0833   2.9287  -3.0191   2.2594  -2.6596   0.00    0.0
2019/01/15 00:22:30.000   4280293.3016  -4034429.8856  -2458141.9203   5  15   4.0139   3.0838   2.9299  -3.0222   2.2631  -2.6632   0.00    0.0
2019/01/15 00:22:45.000   4280293.0236  -4034430.0681  -2458141.9628   5  15   4.0186   3.0844   2.9311  -3.0252   2.2668  -2.6668   0.00    0.0
2019/01/15 00:23:00.000   4280292.6851  -4034429.3843  -2458141.2418   5  15   4.0233   3.0849   2.9323  -3.0283   2.2704  -2.6703   0.00    0.0
2019/01/15 00:23:15.000   4280291.9083  -4034428.9620  -2458140.1880   5  15   4.0280   3.0854   2.9334  -3.0314   2.2739  -2.6738   0.00    0.0
2019/01/15 00:23:30.000   4280292.3101  -4034429.1515  -2458140.3493   5  15   4.0326   3.0860   2.9345  -3.0344   2.2775  -2.6773   0.00    0.0
2019/01/15 00:23:45.000   4280291.4128  -4034428.2159  -2458139.6823   5  15   4.0373   3.0865   2.9355  -3.0375   2.2810  -2.6807   0.00    0.0
2019/01/15 00:24:00.000   4280292.7769  -4034429.6927  -2458140.3199   5  15   4.0419   3.0871   2.9366  -3.0405   2.2845  -2.6841   0.00    0.0
2019/01/15 00:24:15.000   4280294.0051  -4034429.8887  -2458140.5034   5  15   4.0466   3.0877   2.9376  -3.0435   2.2879  -2.6875   0.00    0.0
2019/01/15 00:24:30.000   4280293.6864  -4034429.8350  -2458140.2084   5  15   4.0512   3.0882   2.9385  -3.0466   2.2913  -2.6908   0.00    0.0
2019/01/15 00:24:45.000   4280293.5405  -4034429.9814  -2458140.9852   5  15   4.0558   3.0888   2.9395  -3.0496   2.2946  -2.6940   0.00    0.0
2019/01/15 00:25:00.000   4280293.5194  -4034430.1003  -2458140.7428   5  15   4.0604   3.0894   2.9404  -3.0525   2.2979  -2.6972   0.00    0.0
2019/01/15 00:25:15.000   4280292.6489  -4034429.2596  -2458140.5668   5  15   4.0649   3.0899   2.9412  -3.0555   2.3012  -2.7004   0.00    0.0
2019/01/15 00:25:30.000   4280292.3939  -4034429.1372  -2458140.8040   5  15   4.0695   3.0905   2.9420  -3.0584   2.3045  -2.7036   0.00    0.0
2019/01/15 00:25:45.000   4280292.2972  -4034429.1589  -2458140.8898   5  15   4.0740   3.0911   2.9428  -3.0614   2.3076  -2.7067   0.00    0.0
2019/01/15 00:26:00.000   4280291.3650  -4034428.0409  -2458140.2271   5  15   4.0785   3.0916   2.9436  -3.0643   2.3108  -2.7097   0.00    0.0
2019/01/15 00:26:15.000   4280292.2535  -4034428.6025  -2458140.3935   5  15   4.0829   3.0922   2.9443  -3.0672   2.3139  -2.7127   0.00    0.0
2019/01/15 00:26:30.000   4280292.8135  -4034429.5266  -2458141.1764   5  15   4.0874   3.0928   2.9450  -3.0701   2.3170  -2.7157   0.00    0.0
2019/01/15 00:26:45.000   4280292.5798  -4034429.3213  -2458141.0046   5  15   4.0918   3.0933   2.9456  -3.0729   2.3200  -2.7186   0.00    0.0
2019/01/15 00:27:00.000   4280294.0192  -4034429.9539  -2458141.4189   5  15   4.0962   3.0939   2.9462  -3.0758   2.3230  -2.7214   0.00    0.0
2019/01/15 00:27:15.000   4280293.1661  -4034429.8183  -2458141.6363   5  15   4.1006   3.0945   2.9468  -3.0786   2.3259  -2.7242   0.00    0.0
2019/01/15 00:27:30.000   4280291.4446  -4034428.8253  -2458140.7465   5  15   4.1049   3.0950   2.9473  -3.0814   2.3288  -2.7270   0.00    0.0
2019/01/15 00:27:45.000   4280292.0773  -4034428.8498  -2458141.2907   5  15   4.1093   3.0956   2.9478  -3.0841   2.3316  -2.7297   0.00    0.0
2019/01/15 00:28:00.000   4280291.6857  -4034428.7383  -2458140.6276   5  15   4.1136   3.0961   2.9482  -3.0869   2.3344  -2.7324   0.00    0.0
2019/01/15 00:28:15.000   4280291.6281  -4034427.8839  -2458139.8714   5  15   4.1178   3.0966   2.9486  -3.0896   2.3372  -2.7350   0.00    0.0
2019/01/15 00:28:30.000   4280292.1195  -4034428.8603  -2458140.6352   5  15   4.1221   3.0972   2.9490  -3.0923   2.3399  -2.7376   0.00    0.0
2019/01/15 00:28:45.000   4280292.3278  -4034429.3242  -2458140.7799   5  15   4.1263   3.0977   2.9493  -3.0950   2.3426  -2.7401   0.00    0.0
2019/01/15 00:29:00.000   4280293.1510  -4034430.2246  -2458141.4475   5  15   4.1304   3.0982   2.9496  -3.0976   2.3452  -2.7425   0.00    0.0
2019/01/15 00:29:15.000   4280292.6334  -4034429.7011  -2458140.6736   5  15   4.1346   3.0987   2.9498  -3.1002   2.3478  -2.7449   0.00    0.0
2019/01/15 00:29:30.000   4280292.2599  -4034429.4760  -2458140.3919   5  15   4.1387   3.0992   2.9500  -3.1028   2.3503  -2.7473   0.00    0.0
2019/01/15 00:29:45.000   4280292.8928  -4034429.9555  -2458141.2780   5  15   4.1428   3.0997   2.9502  -3.1054   2.3527  -2.7496   0.00    0.0
2019/01/15 00:30:00.000   4280292.6051  -4034429.8635  -2458141.3652   5  15   4.1468   3.1002   2.9503  -3.1079   2.3552  -2.7518   0.00    0.0
2019/01/15 00:30:15.000   4280293.0514  -4034430.2010  -2458141.1692   5  15   4.1508   3.1007   2.9503  -3.1104   2.3575  -2.7540   0.00    0.0
2019/01/15 00:30:30.000   4280293.4290  -4034430.3765  -2458141.3499   5  15   4.1548   3.1011   2.9504  -3.1129   2.3599  -2.7561   0.00    0.0
2019/01/15 00:30:45.000   4280293.0511  -4034429.5626  -2458141.0982   5  15   4.1587   3.1016   2.9503  -3.1153   2.3621  -2.7582   0.00    0.0
2019/01/15 00:31:00.000   4280293.3717  -4034429.9563  -2458141.3570   5  15   4.1626   3.1020   2.9503  -3.1177   2.3644  -2.7602   0.00    0.0
2019/01/15 00:31:15.000   4280293.8277  -4034430.2493  -2458141.6501   5  15   4.1665   3.1024   2.9502  -3.1201   2.3665  -2.7621   0.00    0.0
2019/01/15 00:31:30.000   4280293.0828  -4034428.8717  -2458140.6608   5  15   4.1703   3.1028   2.9500  -3.1224   2.3686  -2.7640   0.00    0.0
2019/01/15 00:31:45.000   4280292.5665  -4034429.2897  -2458140.7102   5  15   4.1741   3.1032   2.9498  -3.1247   2.3707  -2.7658   0.00    0.0
2019/01/15 00:32:00.000   4280292.7664  -4034429.6440  -2458141.4161   5  15   4.1778   3.1036   2.9496  -3.1270   2.3727  -2.7676   0.00    0.0
2019/01/15 00:32:15.000   4280292.4336  -4034429.3681  -2458141.3517   5  15   4.1815   3.1039   2.9493  -3.1292   2.3747  -2.7693   0.00    0.0
2019/01/15 00:32:30.000   4280292.4220  -4034428.7308  -2458141.1166   5  15   4.1852   3.1043   2.9489  -3.1314   2.3766  -2.7710   0.00    0.0
2019/01/15 00:32:45.000   4280293.0755  -4034428.8541  -2458141.4868   5  15   4.1888   3.1046   2.9485  -3.1335   2.3785  -2.7725   0.00    0.0
2019/01/15 00:33:00.000   4280293.0377  -4034428.5393  -2458140.1984   5  15   4.1924   3.1049   2.9481  -3.1356   2.3803  -2.7741   0.00    0.0
2019/01/15 00:33:15.000   4280292.5306  -4034428.8720  -2458141.1306   5  15   4.1959   3.1052   2.9476  -3.1377   2.3820  -2.7755   0.00    0.0
2019/01/15 00:33:30.000   4280291.3514  -4034427.5796  -2458140.2372   5  15   4.1994   3.1054   2.9471  -3.1397   2.3837  -2.7769   0.00    0.0
2019/01/15 00:33:45.000   4280290.4915  -4034426.4745  -2458139.3281   5  15   4.2028   3.1057   2.9465  -3.1417   2.3853  -2.7782   0.00    0.0
2019/01/15 00:34:00.000   4280291.2655  -4034427.2453  -2458139.6482   5  15   4.2062   3.1059   2.9459  -3.1436   2.3869  -2.7795   0.00    0.0
2019/01/15 00:34:15.000   4280292.0401  -4034428.1256  -2458140.7606   5  15   4.2095   3.1061   2.9452  -3.1456   2.3884  -2.7807   0.00    0.0
2019/01/15 00:34:30.000   4280291.2970  -4034428.5929  -2458140.9399   5  15   4.2128   3.1063   2.9445  -3.1474   2.3899  -2.7818   0.00    0.0
2019/01/15 00:34:45.000   4280291.7554  -4034428.6313  -2458140.6630   5  15   4.2161   3.1065   2.9437  -3.1492   2.3913  -2.7828   0.00    0.0
2019/01/15 00:35:00.000   4280292.5565  -4034428.7309  -2458140.0552   5  15   4.2193   3.1066   2.9429  -3.1510   2.3927  -2.7838   0.00    0.0
2019/01/15 00:35:15.000   4280292.5901  -4034428.8709  -2458140.8253   5  15   4.2224   3.1067   2.9420  -3.1527   2.3940  -2.7848   0.00    0.0
2019/01/15 00:35:30.000   4280293.1939  -4034429.7251  -2458141.6158   5  15   4.2255   3.1068   2.9411  -3.1544   2.3952  -2.7856   0.00    0.0
2019/01/15 00:35:45.000   4280293.1469  -4034430.0277  -2458142.0771   5  15   4.2285   3.1069   2.9401  -3.1560   2.3964  -2.7864   0.00    0.0
2019/01/15 00:36:00.000   4280291.5818  -4034428.1251  -2458139.8416   5  15   4.2315   3.1069   2.9391  -3.1576   2.3975  -2.7871   0.00    0.0
2019/01/15 00:36:15.000   4280292.3995  -4034428.4906  -2458139.8557   5  15   4.2345   3.1069   2.9380  -3.1592   2.3986  -2.7877   0.00    0.0
2019/01/15 00:36:30.000   4280292.4898  -4034429.4436  -2458140.9102   5  15   4.2373   3.1069   2.9369  -3.1607   2.3996  -2.7883   0.00    0.0
2019/01/15 00:36:45.000   4280292.0905  -4034428.7780  -2458140.6007   5  15   4.2402   3.1069   2.9357  -3.1621   2.4005  -2.7888   0.00    0.0
2019/01/15 00:37:00.000   4280292.5783  -4034429.1931  -2458141.2834   5  15   4.2429   3.1069   2.9345  -3.1635   2.4014  -2.7892   0.00    0.0
2019/01/15 00:37:15.000   4280291.9724  -4034428.7140  -2458140.8515   5  15   4.2457   3.1068   2.9332  -3.1648   2.4022  -2.7896   0.00    0.0
2019/01/15 00:37:30.000   4280292.2687  -4034428.9898  -2458140.8501   5  15   4.2483   3.1067   2.9319  -3.1661   2.4030  -2.7899   0.00    0.0
2019/01/15 00:37:45.000   4280292.2101  -4034429.4474  -2458140.9783   5  15   4.2509   3.1065   2.9305  -3.1674   2.4037  -2.7901   0.00    0.0
2019/01/15 00:38:00.000   4280292.2160  -4034429.2864  -2458140.8697   5  15   4.2535   3.1064   2.9291  -3.1686   2.4044  -2.7902   0.00    0.0
2019/01/15 00:38:15.000   4280292.3856  -4034429.0277  -2458140.7213   5  15   4.2560   3.1062   2.9276  -3.1697   2.4049  -2.7903   0.00    0.0
2019/01/15 00:38:30.000   4280292.2514  -4034429.0827  -2458140.5016   5  15   4.2584   3.1059   2.9260  -3.1708   2.4055  -2.7903   0.00    0.0
2019/01/15 00:38:45.000   4280292.3242  -4034429.1973  -2458140.9158   5  15   4.2608   3.1057   2.9245  -3.1718   2.4059  -2.7902   0.00    0.0
2019/01/15 00:39:00.000   4280291.3651  -4034428.7073  -2458140.6559   5  15   4.2631   3.1054   2.9228  -3.1728   2.4063  -2.7900   0.00    0.0
2019/01/15 00:39:15.000   4280290.4264  -4034427.5673  -2458139.7108   5  14   4.7135   3.8758   3.0108  -3.8374   2.7356  -3.0407   0.00    0.0
2019/01/15 00:39:30.000   4280291.2492  -4034427.8479  -2458140.4735   5  14   4.7195   3.8786   3.0107  -3.8423   2.7394  -3.0437   0.00    0.0
2019/01/15 00:39:45.000   4280291.7014  -4034427.8414  -2458140.8809   5  14   4.7253   3.8814   3.0106  -3.8471   2.7431  -3.0467   0.00    0.0
2019/01/15 00:40:00.000   4280292.6027  -4034429.5244  -2458141.7307   5  14   4.7311   3.8841   3.0105  -3.8518   2.7467  -3.0495   0.00    0.0
2019/01/15 00:40:15.000   4280290.7487  -4034428.1618  -2458140.4695   5  14   4.7368   3.8868   3.0102  -3.8564   2.7502  -3.0523   0.00    0.0
2019/01/15 00:40:30.000   4280290.7353  -4034427.9003  -2458139.9889   5  14   4.7424   3.8894   3.0100  -3.8610   2.7537  -3.0550   0.00    0.0
2019/01/15 00:40:45.000   4280292.1217  -4034428.6670  -2458140.2372   5  14   4.7480   3.8920   3.0097  -3.8656   2.7570  -3.0576   0.00    0.0
2019/01/15 00:41:00.000   4280292.6244  -4034429.7255  -2458140.9187   5  14   4.7535   3.8946   3.0093  -3.8700   2.7603  -3.0602   0.00    0.0
2019/01/15 00:41:15.000   4280292.8040  -4034429.6895  -2458140.6650   5  14   4.7589   3.8971   3.0089  -3.8744   2.7635  -3.0626   0.00    0.0
2019/01/15 00:41:30.000   4280291.9226  -4034429.1696  -2458140.6556   5  14   4.7643   3.8996   3.0084  -3.8787   2.7667  -3.0650   0.00    0.0
2019/01/15 00:41:45.000   4280292.3149  -4034429.0602  -2458140.3855   5  14   4.7695   3.9020   3.0079  -3.8829   2.7697  -3.0672   0.00    0.0
2019/01/15 00:42:00.000   4280292.2288  -4034429.1912  -2458141.0077   5  14   4.7747   3.9044   3.0073  -3.8871   2.7727  -3.0694   0.00    0.0
2019/01/15 00:42:15.000   4280292.4512  -4034429.6000  -2458141.4895   5  14   4.7798   3.9067   3.0066  -3.8912   2.7756  -3.0715   0.00    0.0
2019/01/15 00:42:30.000   4280292.7525  -4034430.4374  -2458141.8205   5  14   4.7848   3.9090   3.0060  -3.8952   2.7784  -3.0735   0.00    0.0
2019/01/15 00:42:45.000   4280291.0516  -4034428.3322  -2458140.3860   5  14   4.7897   3.9113   3.0052  -3.8991   2.7811  -3.0755   0.00    0.0
2019/01/15 00:43:00.000   4280291.4961  -4034428.9191  -2458140.7386   5  14   4.7946   3.9134   3.0044  -3.9029   2.7837  -3.0773   0.00    0.0
2019/01/15 00:43:15.000   4280291.2572  -4034428.3284  -2458140.3496   5  14   4.7993   3.9156   3.0036  -3.9067   2.7863  -3.0790   0.00    0.0
2019/01/15 00:43:30.000   4280291.6408  -4034428.2289  -2458140.4778   5  14   4.8040   3.9176   3.0026  -3.9103   2.7887  -3.0806   0.00    0.0
2019/01/15 00:43:45.000   4280292.0003  -4034428.9779  -2458141.2710   5  14   4.8086   3.9196   3.0017  -3.9139   2.7911  -3.0822   0.00    0.0
2019/01/15 00:44:00.000   4280291.9597  -4034429.1265  -2458141.4810   5  14   4.8131   3.9216   3.0006  -3.9174   2.7934  -3.0836   0.00    0.0
2019/01/15 00:44:15.000   4280291.6937  -4034428.8253  -2458141.0349   5  14   4.8175   3.9235   2.9995  -3.9209   2.7956  -3.0850   0.00    0.0
2019/01/15 00:44:30.000   4280291.0189  -4034428.2786  -2458140.7038   5  14   4.8218   3.9253   2.9984  -3.9242   2.7977  -3.0862   0.00    0.0
2019/01/15 00:44:45.000   4280290.8262  -4034428.1555  -2458140.9051   5  14   4.8260   3.9271   2.9972  -3.9274   2.7997  -3.0874   0.00    0.0
2019/01/15 00:45:00.000   4280290.6936  -4034428.5376  -2458140.9433   5  14   4.8301   3.9289   2.9959  -3.9306   2.8016  -3.0885   0.00    0.0
2019/01/15 00:45:15.000   4280290.2545  -4034427.1569  -2458140.1445   5  14   4.8341   3.9305   2.9946  -3.9336   2.8035  -3.0894   0.00    0.0
2019/01/15 00:45:30.000   4280290.3895  -4034427.3971  -2458140.6125   5  14   4.8380   3.9321   2.9932  -3.9366   2.8052  -3.0903   0.00    0.0
2019/01/15 00:45:45.000   4280291.2969  -4034429.0976  -2458141.2977   5  14   4.8418   3.9336   2.9918  -3.9394   2.8069  -3.0910   0.00    0.0
2019/01/15 00:46:00.000   4280290.8110  -4034428.7196  -2458141.0017   5  14   4.8455   3.9351   2.9903  -3.9422   2.8085  -3.0917   0.00    0.0
2019/01/15 00:46:15.000   4280290.6778  -4034427.4849  -2458140.0959   5  14   4.8491   3.9365   2.9887  -3.9449   2.8099  -3.0922   0.00    0.0
2019/01/15 00:46:30.000   4280291.4642  -4034428.9192  -2458141.0591   5  14   4.8527   3.9378   2.9871  -3.9475   2.8113  -3.0927   0.00    0.0
2019/01/15 00:46:45.000   4280291.5532  -4034428.5712  -2458140.5172   5  14   4.8561   3.9391   2.9854  -3.9499   2.8126  -3.0930   0.00    0.0
2019/01/15 00:47:00.000   4280292.1410  -4034428.7784  -2458141.0097   5  14   4.8594   3.9403   2.9837  -3.9523   2.8138  -3.0933   0.00    0.0
2019/01/15 00:47:15.000   4280292.0344  -4034428.8601  -2458141.0565   5  14   4.8626   3.9414   2.9819  -3.9546   2.8149  -3.0934   0.00    0.0
2019/01/15 00:47:30.000   4280292.5911  -4034429.2088  -2458141.6285   5  14   4.8657   3.9425   2.9800  -3.9568   2.8159  -3.0934   0.00    0.0
2019/01/15 00:47:45.000   4280291.4026  -4034428.4666  -2458141.1475   5  14   4.8686   3.9435   2.9781  -3.9588   2.8169  -3.0934   0.00    0.0
2019/01/15 00:48:00.000   4280290.6296  -4034428.8231  -2458140.4830   5  14   4.8715   3.9444   2.9761  -3.9608   2.8177  -3.0932   0.00    0.0
2019/01/15 00:48:15.000   4280290.6069  -4034428.0675  -2458139.9302   5  14   4.8743   3.9452   2.9740  -3.9627   2.8184  -3.0929   0.00    0.0
2019/01/15 00:48:30.000   4280291.2723  -4034429.7832  -2458141.1412   5  14   4.8769   3.9460   2.9719  -3.9644   2.8191  -3.0925   0.00    0.0
2019/01/15 00:48:45.000   4280291.5064  -4034429.5166  -2458140.9923   5  14   4.8795   3.9467   2.9697  -3.9661   2.8196  -3.0920   0.00    0.0
2019/01/15 00:49:00.000   4280292.6138  -4034429.3676  -2458141.1533   5  14   4.8819   3.9473   2.9675  -3.9676   2.8200  -3.0914   0.00    0.0
2019/01/15 00:49:15.000   4280292.8732  -4034430.2629  -2458141.6739   5  14   4.8842   3.9479   2.9652  -3.9691   2.8204  -3.0907   0.00    0.0
2019/01/15 00:49:30.000   4280292.2508  -4034429.8075  -2458141.5831   5  14   4.8864   3.9484   2.9629  -3.9704   2.8206  -3.0899   0.00    0.0
2019/01/15 00:49:45.000   4280292.9036  -4034429.7677  -2458141.4483   5  14   4.8885   3.9487   2.9604  -3.9716   2.8208  -3.0889   0.00    0.0
2019/01/15 00:50:00.000   4280292.5855  -4034429.5978  -2458141.5055   5  14   4.8905   3.9491   2.9579  -3.9728   2.8209  -3.0879   0.00    0.0
2019/01/15 00:50:15.000   4280293.6664  -4034430.3918  -2458141.8343   5  14   4.8924   3.9493   2.9554  -3.9738   2.8208  -3.0867   0.00    0.0
2019/01/15 00:50:30.000   4280293.4847  -4034430.0588  -2458141.7548   5  14   4.8941   3.9495   2.9528  -3.9747   2.8207  -3.0854   0.00    0.0
2019/01/15 00:50:45.000   4280293.0924  -4034429.9208  -2458141.7796   5  14   4.8958   3.9495   2.9501  -3.9754   2.8205  -3.0841   0.00    0.0
2019/01/15 00:51:00.000   4280292.8623  -4034429.1428  -2458141.7045   5  14   4.8973   3.9495   2.9474  -3.9761   2.8202  -3.0826   0.00    0.0
2019/01/15 00:51:15.000   4280293.5236  -4034430.1702  -2458142.0886   5  14   4.8987   3.9495   2.9446  -3.9767   2.8198  -3.0810   0.00    0.0
2019/01/15 00:51:30.000   4280293.3499  -4034429.8963  -2458141.3456   5  14   4.9000   3.9493   2.9417  -3.9771   2.8192  -3.0793   0.00    0.0
2019/01/15 00:51:45.000   4280292.0368  -4034429.0044  -2458140.7551   5  14   4.9011   3.9491   2.9388  -3.9775   2.8186  -3.0775   0.00    0.0
2019/01/15 00:52:00.000   4280291.8985  -4034428.7769  -2458140.4609   5  15   4.5894   3.3256   2.3328  -3.4862   2.0361  -2.5274   0.00    0.0
2019/01/15 00:52:15.000   4280293.4270  -4034429.9226  -2458141.6766   5  15   4.5931   3.3272   2.3325  -3.4894   2.0388  -2.5290   0.00    0.0
2019/01/15 00:52:30.000   4280294.3499  -4034431.6408  -2458142.7577   5  14   4.9039   3.9479   2.9297  -3.9778   2.8162  -3.0713   0.00    0.0
2019/01/15 00:52:45.000   4280292.3112  -4034429.5667  -2458141.1586   5  14   4.9046   3.9473   2.9266  -3.9777   2.8153  -3.0691   0.00    0.0
2019/01/15 00:53:00.000   4280292.6431  -4034429.4677  -2458141.3540   5  14   4.9052   3.9467   2.9233  -3.9775   2.8142  -3.0667   0.00    0.0
2019/01/15 00:53:15.000   4280292.6183  -4034429.5037  -2458140.8943   5  14   4.9056   3.9459   2.9201  -3.9771   2.8130  -3.0642   0.00    0.0
2019/01/15 00:53:30.000   4280292.1503  -4034429.0012  -2458140.7726   5  14   4.9060   3.9451   2.9167  -3.9767   2.8117  -3.0616   0.00    0.0
2019/01/15 00:53:45.000   4280292.1276  -4034429.8355  -2458141.2011   5  14   4.9062   3.9442   2.9133  -3.9761   2.8104  -3.0589   0.00    0.0
2019/01/15 00:54:00.000   4280292.3259  -4034428.9959  -2458140.6041   5  14   4.9063   3.9433   2.9099  -3.9754   2.8089  -3.0561   0.00    0.0
2019/01/15 00:54:15.000   4280292.4762  -4034429.4254  -2458141.0186   5  14   4.9062   3.9422   2.9064  -3.9746   2.8073  -3.0532   0.00    0.0
2019/01/15 00:54:30.000   4280293.4999  -4034430.3982  -2458141.6735   5  14   4.9061   3.9411   2.9028  -3.9737   2.8057  -3.0502   0.00    0.0
2019/01/15 00:54:45.000   4280293.8093  -4034430.4424  -2458141.9406   5  14   4.9058   3.9399   2.8992  -3.9726   2.8040  -3.0470   0.00    0.0
2019/01/15 00:55:00.000   4280292.2621  -4034429.5446  -2458141.2909   5  14   4.9055   3.9385   2.8955  -3.9715   2.8021  -3.0438   0.00    0.0
2019/01/15 00:55:15.000   4280291.1512  -4034428.2759  -2458140.2727   5  14   4.9050   3.9372   2.8918  -3.9702   2.8002  -3.0404   0.00    0.0
2019/01/15 00:55:30.000   4280291.9767  -4034428.4017  -2458140.9553   5  14   4.9043   3.9357   2.8880  -3.9688   2.7982  -3.0370   0.00    0.0
2019/01/15 00:55:45.000   4280293.3567  -4034430.2644  -2458141.8372   5  14   4.9036   3.9341   2.8841  -3.9673   2.7961  -3.0334   0.00    0.0
2019/01/15 00:56:00.000   4280293.1255  -4034430.3016  -2458141.4169   5  14   4.9027   3.9325   2.8802  -3.9657   2.7939  -3.0297   0.00    0.0
2019/01/15 00:56:15.000   4280293.0282  -4034430.1433  -2458141.5082   5  14   4.9018   3.9308   2.8763  -3.9640   2.7916  -3.0259   0.00    0.0
2019/01/15 00:56:30.000   4280293.5028  -4034430.1405  -2458141.4698   5  14   4.9007   3.9290   2.8723  -3.9622   2.7892  -3.0220   0.00    0.0
2019/01/15 00:56:45.000   4280295.0121  -4034431.1576  -2458142.2590   5  14   4.8995   3.9271   2.8682  -3.9602   2.7868  -3.0180   0.00    0.0
2019/01/15 00:57:00.000   4280294.2700  -4034430.7797  -2458141.7481   5  14   4.8981   3.9251   2.8641  -3.9582   2.7842  -3.0139   0.00    0.0
2019/01/15 00:57:15.000   4280292.8989  -4034429.2453  -2458141.1234   5  15   3.7162   3.4860   2.5543  -3.1483   2.3286  -2.2264   0.00    0.0
2019/01/15 00:57:30.000   4280293.1134  -4034429.7099  -2458141.0247   5  15   3.7158   3.4856   2.5527  -3.1479   2.3288  -2.2255   0.00    0.0
2019/01/15 00:57:45.000   4280294.1747  -4034430.1026  -2458141.7409   5  15   3.7154   3.4851   2.5510  -3.1475   2.3289  -2.2246   0.00    0.0
2019/01/15 00:58:00.000   4280293.8961  -4034429.9824  -2458141.9611   5  16   3.6187   3.0562   2.1219  -2.9150   1.7489  -1.9384   0.00    0.0
2019/01/15 00:58:15.000   4280293.9581  -4034430.8321  -2458142.2906   5  16   3.6191   3.0567   2.1217  -2.9159   1.7511  -1.9393   0.00    0.0
2019/01/15 00:58:30.000   4280293.2392  -4034429.4676  -2458141.4915   5  16   3.6195   3.0572   2.1215  -2.9168   1.7533  -1.9403   0.00    0.0
2019/01/15 00:58:45.000   4280293.6187  -4034429.8542  -2458141.3238   5  16   3.6198   3.0577   2.1213  -2.9176   1.7554  -1.9412   0.00    0.0
2019/01/15 00:59:00.000   4280294.2031  -4034430.5544  -2458141.9807   5  16   3.6201   3.0581   2.1211  -2.9184   1.7575  -1.9420   0.00    0.0
2019/01/15 00:59:15.000   4280293.6641  -4034430.4005  -2458141.7606   5  16   3.6203   3.0586   2.1208  -2.9192   1.7596  -1.9428   0.00    0.0
2019/01/15 00:59:30.000   4280292.8033  -4034430.0321  -2458141.4278   5  16   3.6205   3.0590   2.1206  -2.9199   1.7616  -1.9436   0.00    0.0
2019/01/15 00:59:45.000   4280292.4597  -4034429.4252  -2458141.2776   5  16   3.6207   3.0594   2.1203  -2.9206   1.7636  -1.9443   0.00    0.0
2019/01/15 01:00:00.000   4280292.0342  -4034429.3974  -2458141.4341   5  16   3.6208   3.0598   2.1200  -2.9212   1.7655  -1.9450   0.00    0.0
2019/01/15 01:00:15.000   4280292.7510  -4034429.2905  -2458141.4641   5  16   3.6209   3.0601   2.1198  -2.9218   1.7674  -1.9456   0.00    0.0
2019/01/15 01:00:30.000   4280293.1036  -4034429.1541  -2458141.3564   5  16   3.6210   3.0605   2.1194  -2.9224   1.7693  -1.9462   0.00    0.0
2019/01/15 01:00:45.000   4280293.3404  -4034429.5221  -2458141.1797   5  16   3.6210   3.0608   2.1191  -2.9230   1.7711  -1.9468   0.00    0.0
2019/01/15 01:01:00.000   4280293.2550  -4034429.5853  -2458141.2211   5  16   3.6209   3.0611   2.1188  -2.9235   1.7729  -1.9473   0.00    0.0
2019/01/15 01:01:15.000   4280293.5255  -4034429.9026  -2458141.7977   5  17   3.6055   3.0514   2.0024  -2.9099   1.7258  -1.8879   0.00    0.0
2019/01/15 01:01:30.000   4280293.1979  -4034430.1929  -2458142.3099   5  17   3.6058   3.0520   2.0028  -2.9107   1.7284  -1.8894   0.00    0.0
2019/01/15 01:01:45.000   4280293.7223  -4034430.3427  -2458142.1457   5  17   3.6061   3.0525   2.0032  -2.9115   1.7310  -1.8909   0.00    0.0
2019/01/15 01:02:00.000   4280293.1483  -4034429.7962  -2458141.8324   5  17   3.6063   3.0530   2.0036  -2.9122   1.7335  -1.8924   0.00    0.0
2019/01/15 01:02:15.000   4280293.0154  -4034429.7023  -2458141.7022   5  17   3.6065   3.0535   2.0039  -2.9129   1.7359  -1.8938   0.00    0.0
2019/01/15 01:02:30.000   4280293.8371  -4034430.7295  -2458142.2835   5  17   3.6066   3.0540   2.0043  -2.9136   1.7384  -1.8952   0.00    0.0
2019/01/15 01:02:45.000   4280293.9949  -4034430.2727  -2458142.4117   5  17   3.6067   3.0544   2.0046  -2.9142   1.7408  -1.8966   0.00    0.0
2019/01/15 01:03:00.000   4280294.0579  -4034430.0396  -2458142.0366   5  17   3.6067   3.0548   2.0050  -2.9148   1.7431  -1.8979   0.00    0.0
2019/01/15 01:03:15.000   4280293.4871  -4034428.9832  -2458141.3142   5  17   3.6067   3.0552   2.0053  -2.9153   1.7455  -1.8991   0.00    0.0
2019/01/15 01:03:30.000   4280293.6332  -4034428.9316  -2458141.3163   5  17   3.6066   3.0556   2.0056  -2.9158   1.7478  -1.9004   0.00    0.0
2019/01/15 01:03:45.000   4280294.8800  -4034430.2706  -2458141.8778   5  17   3.6064   3.0560   2.0058  -2.9162   1.7500  -1.9015   0.00    0.0
2019/01/15 01:04:00.000   4280294.2759  -4034430.6437  -2458141.9362   5  17   3.6063   3.0563   2.0061  -2.9166   1.7522  -1.9027   0.00    0.0
2019/01/15 01:04:15.000   4280294.1591  -4034430.7636  -2458141.9529   5  17   3.6060   3.0566   2.0064  -2.9170   1.7544  -1.9038   0.00    0.0
2019/01/15 01:04:30.000   4280293.1720  -4034430.4050  -2458141.9849   5  17   3.6058   3.0569   2.0066  -2.9173   1.7565  -1.9048   0.00    0.0
2019/01/15 01:04:45.000   4280292.0689  -4034429.1692  -2458141.6007   5  17   3.6054   3.0572   2.0068  -2.9176   1.7586  -1.9058   0.00    0.0
2019/01/15 01:05:00.000   4280293.2741  -4034429.3562  -2458141.6455   5  17   3.6050   3.0574   2.0070  -2.9178   1.7607  -1.9068   0.00    0.0
2019/01/15 01:05:15.000   4280293.3214  -4034429.7631  -2458141.8634   5  17   3.6046   3.0576   2.0072  -2.9180   1.7627  -1.9077   0.00    0.0
2019/01/15 01:05:30.000   4280292.9725  -4034429.2227  -2458141.8310   5  17   3.6041   3.0578   2.0074  -2.9181   1.7647  -1.9085   0.00    0.0
2019/01/15 01:05:45.000   4280292.9930  -4034429.8042  -2458141.9997   5  17   3.6036   3.0580   2.0076  -2.9182   1.7666  -1.9094   0.00    0.0
2019/01/15 01:06:00.000   4280293.4180  -4034430.2745  -2458141.7152   5  17   3.6030   3.0581   2.0077  -2.9182   1.7685  -1.9101   0.00    0.0
2019/01/15 01:06:15.000   4280294.1376  -4034430.1586  -2458141.6563   5  17   3.6024   3.0582   2.0079  -2.9182   1.7704  -1.9109   0.00    0.0
2019/01/15 01:06:30.000   4280293.4629  -4034430.2059  -2458141.7200   5  17   3.6017   3.0583   2.0080  -2.9181   1.7722  -1.9116   0.00    0.0
2019/01/15 01:06:45.000   4280293.8997  -4034430.4949  -2458141.9165   5  17   3.6009   3.0584   2.0081  -2.9180   1.7740  -1.9122   0.00    0.0
2019/01/15 01:07:00.000   4280293.1904  -4034430.1922  -2458142.0909   5  17   3.6001   3.0584   2.0082  -2.9179   1.7757  -1.9128   0.00    0.0
2019/01/15 01:07:15.000   4280293.2799  -4034429.6560  -2458141.8128   5  17   3.5993   3.0584   2.0083  -2.9177   1.7774  -1.9134   0.00    0.0
2019/01/15 01:07:30.000   4280295.0685  -4034431.3705  -2458142.8409   5  17   3.5984   3.0584   2.0083  -2.9174   1.7790  -1.9139   0.00    0.0
2019/01/15 01:07:45.000   4280294.1920  -4034430.6705  -2458142.3558   5  17   3.5974   3.0583   2.0083  -2.9171   1.7807  -1.9143   0.00    0.0
2019/01/15 01:08:00.000   4280294.0915  -4034430.2321  -2458141.8599   5  17   3.5964   3.0582   2.0084  -2.9168   1.7822  -1.9147   0.00    0.0
2019/01/15 01:08:15.000   4280293.9175  -4034430.3158  -2458141.8130   5  17   3.5954   3.0581   2.0084  -2.9164   1.7838  -1.9151   0.00    0.0
2019/01/15 01:08:30.000   4280294.1100  -4034430.7299  -2458141.9265   5  17   3.5943   3.0580   2.0084  -2.9160   1.7853  -1.9154   0.00    0.0
2019/01/15 01:08:45.000   4280294.1075  -4034430.4784  -2458141.5318   5  17   3.5931   3.0578   2.0083  -2.9155   1.7867  -1.9157   0.00    0.0
2019/01/15 01:09:00.000   4280294.2906  -4034430.2979  -2458141.4308   5  17   3.5919   3.0576   2.0083  -2.9149   1.7881  -1.9159   0.00    0.0
2019/01/15 01:09:15.000   4280294.4515  -4034430.5114  -2458142.2841   5  17   3.5906   3.0574   2.0082  -2.9143   1.7895  -1.9161   0.00    0.0
2019/01/15 01:09:30.000   4280293.4708  -4034429.5857  -2458141.4819   5  17   3.5893   3.0572   2.0081  -2.9137   1.7908  -1.9162   0.00    0.0
2019/01/15 01:09:45.000   4280293.9994  -4034430.4569  -2458141.9366   5  17   3.5879   3.0569   2.0080  -2.9130   1.7921  -1.9163   0.00    0.0
2019/01/15 01:10:00.000   4280293.5396  -4034430.5138  -2458142.3169   5  17   3.5865   3.0566   2.0079  -2.9123   1.7934  -1.9164   0.00    0.0
2019/01/15 01:10:15.000   4280293.5235  -4034429.5188  -2458142.0814   5  17   3.5850   3.0562   2.0078  -2.9115   1.7946  -1.9164   0.00    0.0
2019/01/15 01:10:30.000   4280292.6243  -4034428.7002  -2458141.4981   5  17   3.5834   3.0558   2.0076  -2.9106   1.7958  -1.9163   0.00    0.0
2019/01/15 01:10:45.000   4280293.2262  -4034429.1493  -2458141.4813   5  17   3.5818   3.0554   2.0074  -2.9097   1.7969  -1.9162   0.00    0.0
2019/01/15 01:11:00.000   4280293.3359  -4034429.5287  -2458141.6474   5  17   3.5802   3.0550   2.0072  -2.9088   1.7980  -1.9161   0.00    0.0
2019/01/15 01:11:15.000   4280293.4463  -4034430.2804  -2458141.7841   5  17   3.5785   3.0545   2.0070  -2.9078   1.7990  -1.9159   0.00    0.0
2019/01/15 01:11:30.000   4280293.4665  -4034429.8530  -2458141.6030   5  17   3.5768   3.0540   2.0068  -2.9068   1.8000  -1.9156   0.00    0.0
2019/01/15 01:11:45.000   4280293.5082  -4034429.8884  -2458141.5707   5  17   3.5750   3.0535   2.0066  -2.9057   1.8010  -1.9153   0.00    0.0
2019/01/15 01:12:00.000   4280293.7251  -4034430.1580  -2458142.3201   5  17   3.5731   3.0530   2.0063  -2.9046   1.8019  -1.9150   0.00    0.0
2019/01/15 01:12:15.000   4280293.3869  -4034429.7714  -2458141.8550   5  17   3.5712   3.0524   2.0060  -2.9034   1.8027  -1.9146   0.00    0.0
2019/01/15 01:12:30.000   4280294.2771  -4034430.4123  -2458141.8963   5  17   3.5692   3.0518   2.0057  -2.9021   1.8036  -1.9142   0.00    0.0
2019/01/15 01:12:45.000   4280294.7382  -4034430.9603  -2458142.0956   5  17   3.5672   3.0511   2.0054  -2.9008   1.8044  -1.9137   0.00    0.0
2019/01/15 01:13:00.000   4280294.3114  -4034430.8789  -2458141.8333   5  17   3.5652   3.0504   2.0050  -2.8995   1.8051  -1.9131   0.00    0.0
2019/01/15 01:13:15.000   4280293.6973  -4034430.2087  -2458142.0038   5  17   3.5630   3.0497   2.0047  -2.8981   1.8058  -1.9126   0.00    0.0
2019/01/15 01:13:30.000   4280293.9985  -4034430.5539  -2458142.3752   5  17   3.5609   3.0490   2.0043  -2.8967   1.8065  -1.9119   0.00    0.0
2019/01/15 01:13:45.000   4280293.1625  -4034429.3583  -2458141.7476   5  17   3.5587   3.0482   2.0039  -2.8952   1.8071  -1.9113   0.00    0.0
2019/01/15 01:14:00.000   4280293.5736  -4034429.3727  -2458142.2596   5  17   3.5564   3.0474   2.0035  -2.8936   1.8077  -1.9106   0.00    0.0
2019/01/15 01:14:15.000   4280293.9103  -4034429.5632  -2458142.4373   5  17   3.5541   3.0465   2.0030  -2.8920   1.8082  -1.9098   0.00    0.0
2019/01/15 01:14:30.000   4280293.3845  -4034429.7605  -2458142.1857   5  17   3.5517   3.0456   2.0026  -2.8904   1.8088  -1.9090   0.00    0.0
2019/01/15 01:14:45.000   4280293.2477  -4034429.3269  -2458141.8169   5  17   3.5493   3.0447   2.0021  -2.8887   1.8092  -1.9081   0.00    0.0
2019/01/15 01:15:00.000   4280292.9714  -4034429.4317  -2458141.5517   5  17   3.5468   3.0438   2.0016  -2.8869   1.8096  -1.9072   0.00    0.0
2019/01/15 01:15:15.000   4280293.7379  -4034429.8379  -2458141.5483   5  17   3.5443   3.0428   2.0011  -2.8851   1.8100  -1.9062   0.00    0.0
2019/01/15 01:15:30.000   4280293.6112  -4034429.8963  -2458141.6675   5  17   3.5417   3.0418   2.0005  -2.8833   1.8103  -1.9052   0.00    0.0
2019/01/15 01:15:45.000   4280293.9295  -4034430.5837  -2458142.0390   5  17   3.5391   3.0408   2.0000  -2.8814   1.8106  -1.9042   0.00    0.0
2019/01/15 01:16:00.000   4280294.9578  -4034430.7852  -2458141.7118   5  17   3.5364   3.0397   1.9994  -2.8795   1.8109  -1.9031   0.00    0.0
2019/01/15 01:16:15.000   4280294.4658  -4034431.5079  -2458142.2886   5  17   3.5337   3.0386   1.9988  -2.8775   1.8111  -1.9020   0.00    0.0
2019/01/15 01:16:30.000   4280294.3208  -4034430.8573  -2458142.2522   5  17   3.5309   3.0375   1.9982  -2.8754   1.8113  -1.9008   0.00    0.0
2019/01/15 01:16:45.000   4280293.5559  -4034430.3351  -2458141.8863   5  17   3.5281   3.0363   1.9975  -2.8733   1.8114  -1.8995   0.00    0.0
2019/01/15 01:17:00.000   4280294.3620  -4034430.2696  -2458141.6777   5  17   3.5252   3.0351   1.9969  -2.8712   1.8115  -1.8983   0.00    0.0
2019/01/15 01:17:15.000   4280293.7670  -4034430.5620  -2458142.3656   5  17   3.5223   3.0339   1.9962  -2.8690   1.8116  -1.8969   0.00    0.0
2019/01/15 01:17:30.000   4280293.8245  -4034429.7426  -2458141.7563   5  17   3.5193   3.0326   1.9955  -2.8668   1.8116  -1.8956   0.00    0.0
2019/01/15 01:17:45.000   4280293.1506  -4034429.8753  -2458141.9888   5  17   3.5163   3.0314   1.9948  -2.8645   1.8115  -1.8941   0.00    0.0
2019/01/15 01:18:00.000   4280294.5826  -4034430.4581  -2458142.4779   5  17   3.5133   3.0300   1.9940  -2.8622   1.8115  -1.8927   0.00    0.0
2019/01/15 01:18:15.000   4280293.7966  -4034430.1377  -2458142.4714   5  17   3.5102   3.0287   1.9933  -2.8598   1.8114  -1.8912   0.00    0.0
2019/01/15 01:18:30.000   4280295.1031  -4034430.6592  -2458142.6415   5  17   3.5070   3.0273   1.9925  -2.8573   1.8112  -1.8896   0.00    0.0
2019/01/15 01:18:45.000   4280293.4043  -4034430.1215  -2458142.1777   5  17   3.5038   3.0259   1.9917  -2.8549   1.8110  -1.8880   0.00    0.0
2019/01/15 01:19:00.000   4280294.4406  -4034430.4250  -2458142.0011   5  17   3.5006   3.0244   1.9909  -2.8523   1.8108  -1.8864   0.00    0.0
2019/01/15 01:19:15.000   4280293.3523  -4034430.2941  -2458141.7369   5  17   3.4973   3.0229   1.9901  -2.8498   1.8105  -1.8847   0.00    0.0
2019/01/15 01:19:30.000   4280294.6540  -4034431.1382  -2458142.6534   5  17   3.4940   3.0214   1.9892  -2.8471   1.8102  -1.8830   0.00    0.0
2019/01/15 01:19:45.000   4280294.6145  -4034430.8126  -2458142.3206   5  17   3.4906   3.0199   1.9884  -2.8445   1.8099  -1.8812   0.00    0.0
2019/01/15 01:20:00.000   4280294.7409  -4034430.7898  -2458142.3097   5  17   3.4872   3.0183   1.9875  -2.8418   1.8095  -1.8794   0.00    0.0
2019/01/15 01:20:15.000   4280294.5010  -4034430.9283  -2458142.1421   5  17   3.4837   3.0167   1.9866  -2.8390   1.8091  -1.8775   0.00    0.0
2019/01/15 01:20:30.000   4280293.5369  -4034430.0958  -2458141.6359   5  17   3.4802   3.0151   1.9856  -2.8362   1.8086  -1.8756   0.00    0.0
2019/01/15 01:20:45.000   4280294.1024  -4034430.2463  -2458141.9167   5  17   3.4767   3.0134   1.9847  -2.8333   1.8081  -1.8737   0.00    0.0
2019/01/15 01:21:00.000   4280293.3174  -4034430.3214  -2458142.3195   5  17   3.4731   3.0117   1.9837  -2.8305   1.8076  -1.8717   0.00    0.0
2019/01/15 01:21:15.000   4280294.7379  -4034431.0715  -2458142.3788   5  17   3.4694   3.0100   1.9827  -2.8275   1.8070  -1.8696   0.00    0.0
2019/01/15 01:21:30.000   4280293.6807  -4034429.8188  -2458142.0780   5  17   3.4658   3.0082   1.9817  -2.8245   1.8064  -1.8676   0.00    0.0
2019/01/15 01:21:45.000   4280293.9931  -4034429.8868  -2458142.4268   5  17   3.4621   3.0064   1.9807  -2.8215   1.8058  -1.8655   0.00    0.0
2019/01/15 01:22:00.000   4280294.4183  -4034430.6273  -2458142.8233   5  17   3.4583   3.0046   1.9796  -2.8184   1.8051  -1.8633   0.00    0.0
2019/01/15 01:22:15.000   4280293.6279  -4034430.1468  -2458142.1706   5  16   3.5073   3.0131   2.0739  -2.8420   1.8467  -1.9597   0.00    0.0
2019/01/15 01:22:30.000   4280294.5788  -4034431.1145  -2458142.6328   5  16   3.5040   3.0115   2.0732  -2.8393   1.8466  -1.9582   0.00    0.0
2019/01/15 01:22:45.000   4280294.1296  -4034430.4914  -2458142.3787   5  16   3.5006   3.0099   2.0725  -2.8366   1.8465  -1.9566   0.00    0.0
2019/01/15 01:23:00.000   4280294.3839  -4034430.1628  -2458142.0290   5  16   3.4972   3.0082   2.0719  -2.8339   1.8463  -1.9550   0.00    0.0
2019/01/15 01:23:15.000   4280293.4013  -4034430.2611  -2458142.1377   5  16   3.4937   3.0065   2.0711  -2.8311   1.8461  -1.9533   0.00    0.0
2019/01/15 01:23:30.000   4280293.2777  -4034430.9830  -2458142.0377   5  16   3.4902   3.0048   2.0704  -2.8282   1.8458  -1.9516   0.00    0.0
2019/01/15 01:23:45.000   4280293.8449  -4034431.3131  -2458142.1013   5  16   3.4867   3.0031   2.0696  -2.8253   1.8455  -1.9499   0.00    0.0
2019/01/15 01:24:00.000   4280292.8354  -4034429.7740  -2458141.6782   5  16   3.4831   3.0013   2.0688  -2.8224   1.8452  -1.9481   0.00    0.0
2019/01/15 01:24:15.000   4280293.2182  -4034429.9744  -2458141.8508   5  16   3.4795   2.9995   2.0680  -2.8194   1.8448  -1.9462   0.00    0.0
2019/01/15 01:24:30.000   4280291.4897  -4034428.1138  -2458140.9578   5  16   3.4758   2.9977   2.0672  -2.8164   1.8444  -1.9443   0.00    0.0
2019/01/15 01:24:45.000   4280292.9121  -4034429.2284  -2458141.2038   5  16   3.4721   2.9959   2.0664  -2.8133   1.8439  -1.9424   0.00    0.0
2019/01/15 01:25:00.000   4280294.0599  -4034430.5355  -2458141.5729   5  16   3.4684   2.9940   2.0655  -2.8102   1.8434  -1.9404   0.00    0.0
2019/01/15 01:25:15.000   4280293.6937  -4034430.0898  -2458141.3147   5  16   3.4646   2.9921   2.0646  -2.8071   1.8429  -1.9384   0.00    0.0
2019/01/15 01:25:30.000   4280293.6097  -4034430.8677  -2458141.7340   5  16   3.4607   2.9862   2.0604  -2.8031   1.8374  -1.9355   0.00    0.0
2019/01/15 01:25:45.000   4280293.6525  -4034430.7785  -2458141.7017   5  16   3.4568   2.9844   2.0595  -2.8000   1.8369  -1.9335   0.00    0.0
2019/01/15 01:26:00.000   4280293.4344  -4034430.2505  -2458141.4779   5  16   3.4529   2.9825   2.0586  -2.7967   1.8364  -1.9313   0.00    0.0
2019/01/15 01:26:15.000   4280293.3200  -4034430.1380  -2458141.7704   5  16   3.4490   2.9806   2.0578  -2.7935   1.8358  -1.9292   0.00    0.0
2019/01/15 01:26:30.000   4280292.9255  -4034430.2232  -2458141.8675   5  16   3.4451   2.9787   2.0568  -2.7901   1.8352  -1.9270   0.00    0.0
2019/01/15 01:26:45.000   4280293.0070  -4034429.5803  -2458141.8871   5  16   3.4411   2.9767   2.0559  -2.7868   1.8346  -1.9248   0.00    0.0
2019/01/15 01:27:00.000   4280292.9178  -4034429.6691  -2458141.9067   5  16   3.4370   2.9747   2.0549  -2.7834   1.8339  -1.9225   0.00    0.0
2019/01/15 01:27:15.000   4280293.1324  -4034430.1463  -2458142.0377   5  16   3.4330   2.9727   2.0540  -2.7800   1.8332  -1.9202   0.00    0.0
2019/01/15 01:27:30.000   4280291.9986  -4034428.9901  -2458141.0795   5  16   3.4289   2.9707   2.0530  -2.7765   1.8325  -1.9178   0.00    0.0
2019/01/15 01:27:45.000   4280292.4277  -4034429.0500  -2458141.0928   5  16   3.4247   2.9686   2.0519  -2.7730   1.8317  -1.9154   0.00    0.0
2019/01/15 01:28:00.000   4280292.5884  -4034429.7530  -2458141.6020   5  16   3.4206   2.9665   2.0509  -2.7694   1.8309  -1.9130   0.00    0.0
2019/01/15 01:28:15.000   4280293.2672  -4034430.3600  -2458141.6029   5  16   3.4164   2.9644   2.0498  -2.7658   1.8300  -1.9105   0.00    0.0
2019/01/15 01:28:30.000   4280293.8155  -4034430.7817  -2458141.9453   5  16   3.4121   2.9623   2.0487  -2.7622   1.8291  -1.9080   0.00    0.0
2019/01/15 01:28:45.000   4280293.6798  -4034430.5792  -2458141.3995   5  16   3.4079   2.9601   2.0476  -2.7585   1.8282  -1.9054   0.00    0.0
2019/01/15 01:29:00.000   4280294.2269  -4034431.1852  -2458141.9504   5  16   3.4036   2.9580   2.0465  -2.7548   1.8272  -1.9028   0.00    0.0
2019/01/15 01:29:15.000   4280293.4901  -4034430.6551  -2458142.1141   5  16   3.3993   2.9557   2.0453  -2.7511   1.8262  -1.9001   0.00    0.0
2019/01/15 01:29:30.000   4280293.8355  -4034431.0736  -2458141.9435   5  16   3.3949   2.9535   2.0441  -2.7473   1.8251  -1.8975   0.00    0.0
2019/01/15 01:29:45.000   4280293.5449  -4034430.6420  -2458141.4801   5  16   3.3905   2.9513   2.0429  -2.7435   1.8241  -1.8947   0.00    0.0
2019/01/15 01:30:00.000   4280292.7451  -4034430.0193  -2458141.0463   5  16   3.3861   2.9490   2.0417  -2.7396   1.8230  -1.8920   0.00    0.0
2019/01/15 01:30:15.000   4280293.0690  -4034429.9466  -2458141.0867   5  16   3.3817   2.9467   2.0404  -2.7358   1.8218  -1.8892   0.00    0.0
2019/01/15 01:30:30.000   4280293.8556  -4034431.0448  -2458141.4051   5  16   3.3772   2.9443   2.0392  -2.7318   1.8206  -1.8863   0.00    0.0
2019/01/15 01:30:45.000   4280293.7636  -4034430.6360  -2458141.4225   5  16   3.3727   2.9420   2.0379  -2.7279   1.8194  -1.8835   0.00    0.0
2019/01/15 01:31:00.000   4280293.5899  -4034430.6629  -2458141.6267   5  16   3.3682   2.9396   2.0366  -2.7239   1.8181  -1.8806   0.00    0.0
2019/01/15 01:31:15.000   4280293.9119  -4034430.7008  -2458142.0573   5  16   3.3636   2.9372   2.0352  -2.7199   1.8169  -1.8776   0.00    0.0
2019/01/15 01:31:30.000   4280293.2565  -4034430.3496  -2458141.9144   5  16   3.3591   2.9348   2.0339  -2.7158   1.8155  -1.8746   0.00    0.0
2019/01/15 01:31:45.000   4280293.2393  -4034430.0639  -2458141.5617   5  16   3.3545   2.9324   2.0325  -2.7117   1.8142  -1.8716   0.00    0.0
2019/01/15 01:32:00.000   4280292.9360  -4034430.1177  -2458141.6615   5  16   3.3499   2.9299   2.0311  -2.7076   1.8128  -1.8686   0.00    0.0
2019/01/15 01:32:15.000   4280292.1551  -4034429.4136  -2458141.3118   5  16   3.3452   2.9274   2.0297  -2.7034   1.8114  -1.8655   0.00    0.0
2019/01/15 01:32:30.000   4280292.5912  -4034429.2709  -2458141.1064   5  16   3.3405   2.9249   2.0283  -2.6993   1.8099  -1.8624   0.00    0.0
2019/01/15 01:32:45.000   4280293.2327  -4034429.6482  -2458141.2157   5  16   3.3359   2.9224   2.0268  -2.6950   1.8084  -1.8592   0.00    0.0
2019/01/15 01:33:00.000   4280292.5649  -4034430.2849  -2458141.7539   5  16   3.3311   2.9198   2.0254  -2.6908   1.8069  -1.8560   0.00    0.0
2019/01/15 01:33:15.000   4280293.2817  -4034430.6820  -2458142.0549   5  16   3.3264   2.9173   2.0239  -2.6865   1.8054  -1.8528   0.00    0.0
2019/01/15 01:33:30.000   4280293.4313  -4034430.7044  -2458142.3478   5  16   3.3217   2.9147   2.0224  -2.6822   1.8038  -1.8495   0.00    0.0
2019/01/15 01:33:45.000   4280294.1174  -4034430.4188  -2458142.1187   5  16   3.3169   2.9121   2.0208  -2.6779   1.8022  -1.8462   0.00    0.0
2019/01/15 01:34:00.000   4280293.7966  -4034430.2696  -2458141.7535   5  16   3.3121   2.9095   2.0193  -2.6735   1.8006  -1.8429   0.00    0.0
2019/01/15 01:34:15.000   4280292.9107  -4034429.5234  -2458141.4385   5  16   3.3073   2.9068   2.0177  -2.6691   1.7989  -1.8396   0.00    0.0
2019/01/15 01:34:30.000   4280292.6220  -4034429.7040  -2458141.4323   5  16   3.3025   2.9042   2.0162  -2.6647   1.7972  -1.8362   0.00    0.0
2019/01/15 01:34:45.000   4280293.0193  -4034430.1884  -2458141.5524   5  16   3.2976   2.9015   2.0146  -2.6602   1.7955  -1.8328   0.00    0.0
2019/01/15 01:35:00.000   4280293.2114  -4034430.3746  -2458141.3322   5  16   3.2927   2.8988   2.0129  -2.6557   1.7937  -1.8293   0.00    0.0
2019/01/15 01:35:15.000   4280293.5569  -4034430.9004  -2458141.7977   5  16   3.2879   2.8961   2.0113  -2.6512   1.7919  -1.8259   0.00    0.0
2019/01/15 01:35:30.000   4280293.1757  -4034430.7507  -2458141.6030   5  16   3.2830   2.8933   2.0096  -2.6467   1.7901  -1.8224   0.00    0.0
2019/01/15 01:35:45.000   4280293.1788  -4034429.8427  -2458141.4548   5  16   3.2781   2.8906   2.0080  -2.6421   1.7883  -1.8188   0.00    0.0
2019/01/15 01:36:00.000   4280293.2100  -4034429.5673  -2458141.7074   5  16   3.2731   2.8878   2.0063  -2.6376   1.7864  -1.8153   0.00    0.0
2019/01/15 01:36:15.000   4280292.6878  -4034430.0012  -2458141.5510   5  16   3.2682   2.8850   2.0046  -2.6330   1.7845  -1.8117   0.00    0.0
2019/01/15 01:36:30.000   4280292.3894  -4034429.7730  -2458141.2923   5  16   3.2632   2.8822   2.0028  -2.6283   1.7826  -1.8081   0.00    0.0
2019/01/15 01:36:45.000   4280292.4814  -4034429.1922  -2458141.7911   5  16   3.2583   2.8794   2.0011  -2.6237   1.7806  -1.8044   0.00    0.0
2019/01/15 01:37:00.000   4280292.9483  -4034429.9492  -2458141.4880   5  16   3.2533   2.8766   1.9994  -2.6190   1.7786  -1.8008   0.00    0.0
2019/01/15 01:37:15.000   4280293.5270  -4034430.6511  -2458142.2349   5  16   3.2483   2.8737   1.9976  -2.6143   1.7766  -1.7971   0.00    0.0
2019/01/15 01:37:30.000   4280293.4078  -4034430.2401  -2458142.3465   5  16   3.2433   2.8709   1.9958  -2.6096   1.7746  -1.7934   0.00    0.0
2019/01/15 01:37:45.000   4280293.0941  -4034430.0580  -2458141.8462   5  16   3.2383   2.8680   1.9940  -2.6048   1.7726  -1.7896   0.00    0.0
2019/01/15 01:38:00.000   4280293.0779  -4034429.5646  -2458141.5711   5  16   3.2333   2.8651   1.9922  -2.6000   1.7705  -1.7858   0.00    0.0
2019/01/15 01:38:15.000   4280293.0435  -4034429.2854  -2458142.2630   5  16   3.2282   2.8622   1.9903  -2.5953   1.7684  -1.7820   0.00    0.0
2019/01/15 01:38:30.000   4280292.8229  -4034429.2610  -2458141.6120   5  16   3.2232   2.8593   1.9856  -2.5904   1.7660  -1.7780   0.00    0.0
2019/01/15 01:38:45.000   4280292.9477  -4034430.1636  -2458141.9733   5  16   3.2181   2.8564   1.9838  -2.5856   1.7638  -1.7741   0.00    0.0
2019/01/15 01:39:00.000   4280293.0967  -4034430.2066  -2458141.6947   5  16   3.2131   2.8534   1.9820  -2.5808   1.7616  -1.7703   0.00    0.0
2019/01/15 01:39:15.000   4280293.7383  -4034430.1852  -2458142.1000   5  16   3.2080   2.8505   1.9803  -2.5759   1.7594  -1.7664   0.00    0.0
2019/01/15 01:39:30.000   4280293.2055  -4034429.4677  -2458141.4981   5  17   2.9848   2.7963   1.8045  -2.4466   1.6285  -1.4710   0.00    0.0
2019/01/15 01:39:45.000   4280292.6179  -4034429.9722  -2458141.3611   5  17   2.9819   2.7946   1.8042  -2.4438   1.6284  -1.4695   0.00    0.0
2019/01/15 01:40:00.000   4280292.8992  -4034429.8536  -2458141.7119   5  17   2.9789   2.7929   1.8039  -2.4409   1.6283  -1.4680   0.00    0.0
2019/01/15 01:40:15.000   4280293.4900  -4034430.7906  -2458142.4357   5  17   2.9760   2.7911   1.8036  -2.4380   1.6281  -1.4665   0.00    0.0
2019/01/15 01:40:30.000   4280292.7079  -4034430.1247  -2458141.3528   5  17   2.9730   2.7894   1.8032  -2.4352   1.6279  -1.4650   0.00    0.0
2019/01/15 01:40:45.000   4280292.5097  -4034429.9224  -2458141.4251   5  17   2.9700   2.7875   1.8029  -2.4322   1.6277  -1.4634   0.00    0.0
2019/01/15 01:41:00.000   4280293.2075  -4034430.3621  -2458141.6674   5  17   2.9670   2.7857   1.8025  -2.4293   1.6275  -1.4618   0.00    0.0
2019/01/15 01:41:15.000   4280293.5677  -4034430.4335  -2458142.0218   5  17   2.9640   2.7839   1.8021  -2.4263   1.6272  -1.4602   0.00    0.0
2019/01/15 01:41:30.000   4280293.6415  -4034430.3197  -2458141.9656   5  17   2.9610   2.7820   1.8018  -2.4233   1.6270  -1.4586   0.00    0.0
2019/01/15 01:41:45.000   4280293.9005  -4034430.3660  -2458142.0132   5  17   2.9580   2.7801   1.8014  -2.4203   1.6267  -1.4570   0.00    0.0
