     2.11           OBSERVATION DATA    M (MIXED)           RINEX VERSION / TYPE
teqc  2018Dec12                         20190116 19:33:28UTCPGM / RUN BY / DATE
RIOD                                                        MARKER NAME
41608M001                                                   MARKER NUMBER
  4280294.8786 -4034431.2247 -2458141.3800                  APPROX POSITION XYZ
        0.0080        0.0000        0.0000                  ANTENNA: DELTA H/E/N
RBMC                IBGE/CGED                               OBSERVER / AGENCY
1551129599          TRM115000.00    NONE                    ANT # / TYPE
5750R51585          TRIMBLE NETR9       5.37                REC # / TYPE / VERS
    17    C1    C2    C5    C7    C8    L1    L2    L5    L7# / TYPES OF OBSERV
          L8    P1    P2    S1    S2    S5    S7    S8      # / TYPES OF OBSERV
CODIGO: 91720    Estacao: Rio de Janeiro                    COMMENT
  2019     1    15     0     0    0.0000000     GPS         TIME OF FIRST OBS
    18                                                      LEAP SECONDS
                                                            END OF HEADER
 19  1 15  9 25 30.0000000  0 19E07E19E21E27E30G06G12G13G15G17G19G28
                                G30R02R03R11R12R21R22
  26988459.688                          42.900
  26386002.836                          41.500
  25748828.070                          47.400
  24510740.156                          50.100
  25646173.445                          42.300
  23431362.961                          42.000
  25022808.164                          39.500
  20713743.141                          48.400
  22634358.875                          48.200
  20314247.563                          50.800
  20482593.391                          49.300
  22215198.148                          44.100
  22522222.938                          47.100
  22036560.688                          46.900
  23651093.734                          35.400
  21615221.945                          46.700
  21080205.070                          45.800
  22202563.141                          45.100
  19728049.914                          49.700
 19  1 15  9 25 45.0000000  0 19E07E19E21E27E30G06G13G15G17G19G28G30
                                R01R02R03R11R12R21R22
  26995974.063                          43.300
  26385383.828                          41.600
  25746213.172                          47.600
  24511092.148                          49.500
  25649056.641                          42.300
  23423596.320                          41.500
  20714627.391                          49.500
  22630025.727                          47.900
  20317570.773                          51.300
  20481555.188                          49.300
  22221298.477                          43.200
  22527243.133                          47.100
  23496231.117                          36.600
  22041461.875                          47.000
  23648133.313                          35.400
  21616806.500                          46.700
  21076973.422                          45.800
  22211402.414                          45.200
  19725658.297                          50.000
 19  1 15  9 26  0.0000000  0 21E07E19E21E27E30G06G12G13G15G17G19G24
                                G28G30R01R02R03R11R12R21R22
  27003485.125                          43.500
  26384783.742                          41.400
  25743595.383                          46.800
  24511442.586                          49.900
  25651940.188                          41.900
  23415832.117                          42.600
  25013311.648                          39.400
  20715538.938                          48.900
  22625716.102                          48.200
  20320921.586                          50.300
  20480542.641                          48.800
  24701124.461                          37.300
  22227398.992                          43.000
  22532277.438                          46.400
  23505862.523                          36.800
  22046388.844                          47.000
  23645201.961                          35.100
  21618397.422                          46.500
  21073740.297                          45.400
  22220267.367                          45.200
  19723304.023                          50.400
 19  1 15  9 26 15.0000000  0 18E07E19E21E27E30G12G13G15G17G19G28G30
                                R01R02R11R12R21R22
  27010992.617                          44.000
  26384201.547                          40.900
  25740974.563                          47.500
  24511791.922                          49.800
  25654825.094                          42.100
  25008573.648                          40.800
  20716476.594                          48.500
  22621429.742                          48.500
  20324299.945                          50.400
  20479556.375                          49.300
  22233500.906                          42.500
  22537326.047                          47.200
  23515486.859                          37.800
  22051337.375                          47.200
  21619995.234                          46.700
  21070509.305                          45.200
  22229154.984                          45.400
  19720986.117                          50.800
 19  1 15  9 26 30.0000000  0 18E07E19E21E27E30G13G15G17G19G28G30R02
                                R03R11R12R21R22R23
  27018496.070                          41.300
  26383636.516                          40.200
  25738351.008                          46.400
  24512139.398                          43.600
  25657709.820                          42.200
  20717443.367                          47.700
  22617165.922                          47.300
  20327705.258                          49.900
  20478596.219                          47.200
  22239603.273                          41.700
  22542387.570                          46.700
  22056308.336                          43.800
  23639433.656                          35.900
  21621600.094                          44.300
  21067279.203                          43.600
  22238068.070                          42.300
  19718706.711                          48.600
  21929605.195                          
 19  1 15  9 26 45.0000000  0 20E07E19E21E27E30G06G12G13G15G17G19G24
                                G28G30R02R11R12R21R22R23
  27025996.406                          44.500
  26383089.117                          40.500
  25735724.602                          47.200
  24512485.703                          49.500
  25660594.914                          43.000
  23392540.234                          43.000
  24999108.188                          39.700
  20718436.797                          48.400
  22612925.984                          47.800
  20331136.578                          50.800
  20477662.844                          48.400
  24674763.961                          39.200
  22245705.680                          42.600
  22547463.141                          46.800
  22061303.086                          46.400
  21623210.539                          46.700
  21064048.969                          46.500
  22247004.680                          44.900
  19716463.195                          50.700
  21917892.180                          
 19  1 15  9 27  0.0000000  0 19E07E19E21E27E30G13G15G17G19G24G28G30
                                R02R03R11R12R21R22R23
  27033493.016                          44.200
  26382559.547                          41.800
  25733095.031                          47.400
  24512831.477                          50.100
  25663480.172                          43.700
  20719457.828                          48.300
  22608709.320                          48.300
  20334594.930                          51.100
  20476754.773                          48.500
  24665969.195                          39.200
  22251808.961                          41.400
  22552552.156                          47.300
  22066322.023                          45.900
  23633782.336                          36.300
  21624828.469                          46.800
  21060818.219                          45.900
  22255964.961                          45.000
  19714257.297                          50.500
  21906189.766                          
 19  1 15  9 27 15.0000000  0 22E07E19E21E27E30G06G12G13G15G17G19G24
                                G28G30R01R02R03R11R12R21R22R23
  27040985.313                          44.600
  26382048.266                          41.400
  25730462.695                          46.600
  24513175.656                          49.500
  25666366.008                          42.600
  23377017.422                          43.500
  24989668.109                          40.600
  20720506.672                          48.300
  22604516.234                          49.100
  20338080.984                          50.800
  20475874.008                          49.100
  24657171.188                          39.400
  22257913.555                          40.700
  22557653.359                          46.900
  23553925.555                          38.400
  22071360.555                          45.800
  23631001.445                          35.700
  21626452.219                          47.000
  21057588.891                          46.800
  22264950.680                          45.800
  19712089.172                          50.500
  21894499.688                          
 19  1 15  9 27 30.0000000  0 20E07E19E21E27E30G12G13G15G17G19G24G28
                                G30R02R03R11R12R21R22R23
  27048474.242                          44.200
  26381554.211                          41.000
  25727827.156                          46.800
  24513518.602                          50.300
  25669252.070                          42.400
  24984954.727                          40.900
  20721583.008                          48.400
  22600346.492                          48.000
  20341593.820                          50.300
  20475018.828                          48.100
  24648367.617                          39.500
  22264019.102                          40.800
  22562769.172                          47.200
  22076423.828                          45.400
  23628250.109                          36.400
  21628081.953                          47.000
  21054359.867                          46.200
  22273957.922                          45.600
  19709957.734                          50.500
  21882818.109                          
 19  1 15  9 27 45.0000000  0 21E07E19E21E27E30G06G12G13G15G17G19G24
                                G28G30R02R03R11R12R21R22R23
  27055959.281                          44.300
  26381077.961                          41.000
  25725188.336                          47.100
  24513859.945                          49.800
  25672138.555                          42.600
  23361497.664                          44.700
  24980247.125                          40.700
  20722686.438                          48.600
  22596199.992                          48.900
  20345133.359                          50.800
  20474189.617                          48.500
  24639560.547                          39.600
  22270124.813                          41.100
  22567898.898                          47.800
  22081507.750                          45.800
  23625530.727                          36.300
  21629719.711                          47.200
  21051133.070                          46.800
  22282990.867                          45.800
  19707863.219                          50.800
  21871148.625                          
 19  1 15  9 28  0.0000000  0 21E07E19E21E27E30G06G12G13G15G17G19G24
                                G28G30R02R03R11R12R21R22R23
  27063440.227                          44.300
  26380619.922                          41.200
  25722546.984                          46.700
  24514200.289                          49.400
  25675025.367                          42.100
  23353739.906                          44.500
  24975543.641                          39.100
  20723817.148                          48.400
  22592077.195                          47.600
  20348699.586                          50.500
  20473386.344                          48.700
  24630750.023                          39.600
  22276230.836                          41.600
  22573041.969                          48.100
  22086616.016                          46.100
  23622837.938                          35.100
  21631363.219                          47.100
  21047906.625                          46.400
  22292047.594                          45.900
  19705806.539                          50.300
  21859491.305                          
 19  1 15  9 28 15.0000000  0 19E07E19E21E27E30G06G12G13G15G17G19G28
                                G30R02R11R12R21R22R23
  27070917.148                          43.700
  26380179.367                          42.300
  25719903.031                          46.800
  24514539.305                          49.900
  25677912.922                          42.000
  23345982.711                          44.600
  24970847.148                          38.900
  20724974.766                          48.100
  22587978.320                          48.000
  20352293.305                          50.700
  20472609.969                          47.600
  22282337.367                          41.000
  22578198.844                          47.600
  22091745.102                          45.300
  21633013.813                          46.600
  21044679.766                          46.500
  22301125.477                          45.700
  19703787.766                          50.700
  21847844.398                          
 19  1 15  9 28 30.0000000  0 20E07E19E21E27E30G06G12G13G15G17G19G24
                                G28G30R02R11R12R21R22R23
  27078390.281                          44.200
  26379756.773                          41.700
  25717256.219                          47.400
  24514877.031                          49.700
  25680801.680                          41.900
  23338227.359                          45.100
  24966155.016                          39.500
  20726160.328                          47.600
  22583902.867                          48.300
  20355912.922                          51.000
  20471859.305                          48.000
  24613117.891                          39.600
  22288446.070                          41.800
  22583369.852                          47.500
  22096896.828                          45.500
  21634670.250                          46.400
  21041453.977                          46.000
  22310227.836                          45.200
  19701805.563                          50.000
  21836208.578                          
 19  1 15  9 28 45.0000000  0 20E07E19E21E27E30G06G12G13G15G17G19G28
                                G30R01R02R11R12R21R22R23
  27085859.539                          43.400
  26379351.680                          41.400
  25714606.656                          47.700
  24515213.766                          49.100
  25683691.188                          43.000
  23330474.242                          44.900
  24961468.625                          39.900
  20727374.211                          47.700
  22579850.391                          48.500
  20359559.953                          50.700
  20471134.648                          47.900
  22294553.406                          42.400
  22588553.211                          47.000
  23611394.547                          37.100
  22102071.164                          45.300
  21636334.000                          46.800
  21038229.039                          45.700
  22319352.867                          45.100
  19699859.633                          50.200
  21824584.539                          
 19  1 15  9 29  0.0000000  0 19E07E19E21E27E30G12G13G15G17G19G28G30
                                R01R02R11R12R21R22R23
  27093324.742                          43.000
  26378963.805                          41.500
  25711953.992                          47.800
  24515549.664                          49.600
  25686581.180                          42.700
  24956786.727                          39.500
  20728613.813                          47.100
  22575822.141                          48.400
  20363233.219                          50.900
  20470436.461                          49.100
  22300661.469                          42.200
  22593751.273                          47.000
  23620948.086                          37.600
  22107267.344                          45.500
  21638005.195                          47.000
  21035005.094                          46.000
  22328503.063                          45.000
  19697952.953                          50.200
  21812971.273                          
 19  1 15  9 29 15.0000000  0 17E07E19E21E27E30G13G15G17G19G28G30R02
                                R11R12R21R22R23
  27100786.078                          43.400
  26378593.641                          41.700
  25709297.695                          47.200
  24515884.164                          49.300
  25689471.422                          43.100
  20729881.891                          46.900
  22571818.758                          48.300
  20366933.813                          50.600
  20469764.844                          48.800
  22306769.727                          42.000
  22598962.438                          46.400
  22112484.859                          44.700
  21639682.031                          45.400
  21031781.422                          44.900
  22337676.141                          45.100
  19696083.078                          48.900
  21801369.727                          
 19  1 15  9 29 30.0000000  0 19E07E19E21E27E30G06G13G15G17G19G28G30
                                R02R03R11R12R21R22R23
  27108243.195                          43.300
  26378241.875                          41.200
  25706638.352                          47.300
  24516217.477                          49.500
  25692362.289                          43.200
  23307223.555                          45.100
  20731177.609                          47.800
  22567837.875                          48.900
  20370660.203                          51.500
  20469118.000                          48.700
  22312877.656                          41.500
  22604186.922                          46.700
  22117724.508                          45.000
  23607311.266                          33.700
  21641366.844                          45.900
  21028558.656                          45.600
  22346872.328                          46.200
  19694251.063                          50.700
  21789781.727                          
 19  1 15  9 29 45.0000000  0 20E07E19E21E27E30G06G13G15G17G19G24G28
                                G30R02R03R11R12R21R22R23
  27115696.000                          42.800
  26377907.664                          41.100
  25703976.289                          47.600
  24516549.836                          50.200
  25695253.391                          41.900
  23299477.914                          45.200
  20732500.266                          47.900
  22563879.836                          48.800
  20374412.898                          51.100
  20468497.977                          47.800
  24568971.633                          40.400
  22318987.953                          42.100
  22609426.063                          47.800
  22122987.023                          45.400
  23604831.430                          34.900
  21643058.219                          46.500
  21025338.289                          46.700
  22356089.398                          46.100
  19692456.961                          50.400
  21778206.336                          
 19  1 15  9 30  0.0000000  0 19E07E19E21E27E30G06G12G13G15G17G19G28
                                G30R02R11R12R21R22R23
  27123144.422                          42.500
  26377590.250                          40.200
  25701310.961                          47.600
  24516880.859                          49.800
  25698145.719                          41.900
  23291733.461                          45.300
  24938111.445                          39.300
  20733850.375                          48.900
  22559947.109                          49.000
  20378192.555                          51.000
  20467903.711                          49.000
  22325098.242                          43.400
  22614678.133                          47.300
  22128269.203                          44.900
  21644755.727                          47.000
  21022117.789                          45.700
  22365330.320                          45.900
  19690699.555                          50.400
  21766640.656                          
 19  1 15  9 30 15.0000000  0 19E07E19E21E27E30G06G13G15G17G19G28G30
                                R02R03R11R12R21R22R23
  27130588.633                          42.200
  26377290.719                          40.300
  25698643.109                          47.700
  24517210.750                          49.300
  25701038.813                          42.500
  23283989.805                          45.800
  20735227.820                          49.100
  22556036.281                          49.000
  20381998.531                          50.900
  20467335.539                          49.200
  22331207.891                          43.400
  22619943.672                          48.000
  22133575.242                          45.100
  23599956.289                          35.600
  21646461.930                          46.900
  21018898.422                          46.100
  22374595.000                          46.600
  19688980.250                          50.700
  21755088.734                          
 19  1 15  9 30 30.0000000  0 21E07E19E21E27E30G06G12G13G15G17G19G24
                                G28G30R02R03R11R12R21R22R23
  27138029.133                          42.400
  26377009.133                          39.800
  25695972.133                          47.400
  24517539.672                          49.500
  25703932.813                          42.400
  23276248.906                          44.700
  24928803.289                          38.800
  20736632.773                          49.100
  22552149.766                          48.400
  20385830.352                          50.600
  20466794.188                          49.100
  24542440.453                          38.900
  22337319.133                          43.400
  22625223.961                          47.800
  22138901.945                          44.700
  23597561.406                          34.900
  21648175.141                          46.700
  21015681.109                          46.200
  22383883.133                          46.500
  19687298.406                          50.700
  21743548.914                          
 19  1 15  9 30 45.0000000  0 20E07E19E21E27E30G06G12G13G15G17G19G24
                                G28G30R02R11R12R21R22R23
  27145464.820                          42.100
  26376745.820                          39.400
  25693298.039                          47.600
  24517867.789                          49.700
  25706827.992                          43.000
  23268509.773                          44.900
  24924157.813                          38.700
  20738064.383                          48.000
  22548288.141                          48.800
  20389688.859                          50.500
  20466277.961                          48.800
  24533588.039                          38.800
  22343430.250                          43.800
  22630516.609                          47.000
  22144248.375                          45.400
  21649893.797                          46.800
  21012464.336                          46.000
  22393191.227                          45.400
  19685654.875                          50.400
  21732021.656                          
 19  1 15  9 31  0.0000000  0 20E07E19E21E27E30G06G12G13G15G17G19G24
                                G28G30R02R11R12R21R22R23
  27152896.359                          42.300
  26376499.906                          40.700
  25690620.664                          47.600
  24518194.586                          49.300
  25709722.898                          43.400
  23260772.742                          44.900
  24919516.305                          39.400
  20739522.336                          48.600
  22544449.281                          49.000
  20393573.680                          50.200
  20465787.469                          48.400
  24524733.992                          39.300
  22349540.906                          43.100
  22635822.883                          47.200
  22149617.781                          45.800
  21651619.633                          46.100
  21009248.680                          46.000
  22402522.891                          45.300
  19684047.516                          50.300
  21720505.102                          
 19  1 15  9 31 15.0000000  0 20E07E19E21E27E30G06G12G13G15G17G19G28
                                G30R02R03R11R12R21R22R23
  27160323.898                          42.500
  26376271.586                          40.900
  25687940.531                          47.200
  24518520.367                          49.400
  25712618.344                          42.200
  23253037.125                          44.700
  24914880.914                          38.400
  20741008.734                          48.300
  22540634.984                          48.500
  20397484.391                          50.700
  20465323.406                          48.400
  22355653.094                          43.200
  22641144.133                          47.200
  22155008.320                          45.900
  23590561.336                          36.500
  21653353.391                          46.000
  21006033.898                          46.100
  22411877.313                          44.600
  19682479.164                          50.700
  21709002.445                          
 19  1 15  9 31 30.0000000  0 19E19E21E27E30G06G12G13G15G17G19G28G30
                                R02R03R11R12R21R22R23
  26376060.344                          41.200
  25685257.625                          47.600
  24518844.930                          49.800
  25715513.820                          41.800
  23245304.430                          43.600
  24910249.531                          39.500
  20742522.117                          49.100
  22536843.781                          48.100
  20401422.094                          50.400
  20464885.023                          47.500
  22361764.844                          44.000
  22646477.930                          47.000
  22160419.273                          44.900
  23588286.641                          37.200
  21655094.313                          45.800
  21002819.641                          45.800
  22421254.531                          45.100
  19680948.148                          50.300
  21697511.398                          
 19  1 15  9 31 45.0000000  0 20E07E19E21E27E30G06G12G13G15G17G19G28
                                G30R02R03R11R12R21R22R23
  27175164.891                          42.400
  26375867.172                          40.400
  25682571.602                          48.100
  24519167.992                          48.900
  25718410.414                          41.200
  23237573.148                          44.200
  24905622.719                          39.000
  20744063.141                          49.000
  22533076.617                          48.300
  20405385.281                          50.200
  20464473.391                          48.300
  22367876.836                          42.600
  22651826.227                          46.700
  22165851.352                          44.100
  23586041.289                          36.400
  21656842.508                          46.000
  20999607.563                          45.800
  22430653.719                          45.600
  19679454.617                          50.000
  21686033.383                          
 19  1 15  9 32  0.0000000  0 20E19E21E27E30G06G12G13G15G17G19G24G28
                                G30R02R03R11R12R21R22R23
  26375691.070                          40.700
  25679882.227                          47.600
  24519490.563                          49.400
  25721309.250                          41.300
  23229844.563                          43.000
  24901001.492                          38.400
  20745630.422                          49.100
  22529332.898                          48.800
  20409374.156                          50.300
  20464087.320                          48.700
  24489279.922                          39.200
  22373988.648                          43.100
  22657187.633                          47.200
  22171305.023                          44.700
  23583823.727                          33.900
  21658598.492                          46.600
  20996396.734                          46.300
  22440074.086                          45.800
  19677998.320                          50.300
  21674568.258                          
 19  1 15  9 32 15.0000000  0 19E19E21E27E30G06G12G13G15G17G19G24G28
                                G30R02R11R12R21R22R23
  26375532.688                          40.400
  25677190.000                          47.100
  24519812.133                          48.900
  25724209.211                          42.500
  23222118.156                          44.100
  24896385.344                          39.700
  20747225.547                          49.800
  22525613.680                          48.800
  20413389.500                          51.000
  20463726.773                          48.400
  24480408.109                          39.700
  22380101.281                          43.400
  22662563.078                          47.200
  22176778.508                          44.500
  21660360.984                          46.500
  20993187.938                          46.400
  22449517.953                          45.700
  19676580.563                          50.500
  21663115.750                          
 19  1 15  9 32 30.0000000  0 20E19E21E27E30G06G12G13G15G17G19G24G28
                                G30R02R03R11R12R21R22R23
  26375392.711                          40.500
  25674494.578                          47.800
  24520132.953                          49.600
  25727109.602                          42.200
  23214395.164                          43.500
  24891775.789                          40.400
  20748847.664                          49.100
  22521918.586                          48.600
  20417431.109                          51.200
  20463392.984                          48.400
  24471532.000                          38.800
  22386214.516                          43.100
  22667951.672                          47.300
  22182273.875                          44.300
  23579487.875                          35.200
  21662131.430                          46.300
  20989980.063                          46.000
  22458983.500                          46.300
  19675200.555                          50.800
  21651676.805                          
 19  1 15  9 32 45.0000000  0 21E07E19E21E27E30G06G12G13G15G17G19G24
                                G28G30R02R03R11R12R21R22R23
  27204792.227                          43.600
  26375269.578                          40.600
  25671796.422                          47.900
  24520453.063                          49.400
  25730011.641                          43.200
  23206675.273                          44.400
  24887167.914                          39.800
  20750496.297                          48.700
  22518246.922                          48.400
  20421498.336                          51.600
  20463085.352                          48.100
  24462652.383                          38.700
  22392327.578                          42.500
  22673353.219                          48.000
  22187788.688                          43.900
  23577363.656                          36.300
  21663908.586                          46.300
  20986772.852                          45.700
  22468468.680                          46.200
  19673859.336                          50.800
  21640250.156                          
 19  1 15  9 33  0.0000000  0 21E07E19E21E27E30G06G12G13G15G17G19G24
                                G28G30R01R02R11R12R21R22R23
  27212187.531                          44.400
  26375163.586                          39.700
  25669095.055                          48.000
  24520772.094                          49.700
  25732913.719                          42.800
  23198957.867                          44.800
  24882566.789                          40.400
  20752171.859                          48.500
  22514600.320                          48.100
  20425591.289                          51.100
  20462803.648                          49.200
  24453771.680                          37.800
  22398441.625                          42.500
  22678769.820                          48.100
  23772838.828                          32.600
  22193325.352                          44.100
  21665694.148                          46.300
  20983568.141                          45.800
  22477979.195                          45.800
  19672554.227                          50.300
  21628838.531                          
 19  1 15  9 33 15.0000000  0 21E07E19E21E27E30G06G12G13G15G17G19G24
                                G28G30R02R03R11R12R21R22R23
  27219578.023                          43.600
  26375075.617                          39.800
  25666390.766                          47.800
  24521090.203                          49.600
  25735816.281                          42.300
  23191243.109                          45.400
  24877969.336                          39.500
  20753875.688                          48.800
  22510976.922                          49.300
  20429710.453                          51.400
  20462548.180                          48.900
  24444887.352                          38.400
  22404555.594                          43.300
  22684200.063                          47.300
  22198882.375                          44.500
  23573200.930                          35.600
  21667487.047                          45.800
  20980364.188                          46.300
  22487508.867                          45.700
  19671287.250                          50.500
  21617439.461                          
 19  1 15  9 33 30.0000000  0 22E07E19E21E27E30G06G12G13G15G17G19G24
                                G28G30R01R02R03R11R12R21R22R23
  27226963.516                          43.100
  26375005.406                          39.500
  25663683.656                          48.300
  24521407.031                          49.500
  25738719.656                          41.800
  23183532.352                          46.600
  24873377.258                          40.200
  20755605.773                          48.300
  22507377.633                          48.600
  20433854.805                          51.100
  20462317.820                          48.600
  24435999.531                          38.500
  22410670.492                          44.300
  22689643.500                          47.600
  23791685.359                          30.500
  22204458.844                          44.500
  23571165.203                          36.400
  21669287.203                          46.400
  20977161.859                          46.100
  22497060.445                          45.800
  19670059.172                          50.200
  21606053.445                          
 19  1 15  9 33 45.0000000  0 21E07E19E21E27E30G06G12G13G15G17G19G24
                                G28G30R01R02R11R12R21R22R23
  27234344.852                          42.700
  26374952.414                          40.500
  25660973.164                          47.800
  24521722.813                          49.400
  25741624.641                          41.700
  23175823.227                          47.100
  24868790.773                          40.900
  20757363.234                          48.400
  22503802.289                          48.800
  20438024.875                          51.000
  20462113.656                          48.700
  24427107.813                          37.700
  22416784.813                          44.300
  22695099.953                          48.100
  23801094.563                          30.400
  22210054.867                          44.900
  21671095.234                          46.200
  20973961.836                          45.600
  22506634.797                          45.500
  19668868.234                          50.300
  21594681.352                          
 19  1 15  9 34  0.0000000  0 21E07E19E21E27E30G06G12G13G15G17G19G24
                                G28G30R02R03R11R12R21R22R23
  27241720.953                          43.500
  26374916.914                          40.800
  25658259.156                          47.400
  24522037.875                          48.600
  25744530.219                          41.800
  23168117.219                          46.800
  24864207.414                          40.300
  20759147.852                          48.000
  22500251.031                          48.100
  20442221.031                          51.000
  20461934.500                          47.100
  24418214.313                          38.400
  22422898.313                          44.500
  22700570.617                          47.900
  22215673.625                          45.100
  23567182.984                          38.100
  21672910.398                          46.500
  20970762.164                          45.900
  22516229.328                          45.300
  19667714.773                          50.000
  21583322.938                          
 19  1 15  9 34 15.0000000  0 21E07E19E21E27E30G06G12G13G15G17G19G24
                                G28G30R01R02R11R12R21R22R23
  27249091.695                          42.700
  26374898.930                          40.400
  25655542.828                          47.600
  24522352.430                          48.500
  25747437.063                          41.200
  23160413.672                          46.700
  24859630.461                          40.800
  20760958.023                          47.800
  22496724.656                          48.800
  20446442.781                          51.500
  20461781.797                          48.100
  24409317.445                          37.700
  22429013.281                          43.500
  22706054.703                          47.300
  23819893.188                          29.000
  22221310.867                          45.100
  21674733.016                          46.400
  20967566.234                          45.800
  22525845.688                          44.500
  19666600.711                          50.100
  21571977.992                          
 19  1 15  9 34 30.0000000  0 19E07E19E21E27E30G06G12G13G15G17G19G28
                                G30R02R11R12R21R22R23
  27256457.766                          42.100
  26374898.250                          39.800
  25652823.445                          47.900
  24522665.688                          48.900
  25750345.070                          40.400
  23152713.570                          46.100
  24855057.438                          40.400
  20762796.797                          47.800
  22493221.070                          48.600
  20450690.227                          51.100
  20461654.469                          47.700
  22435127.430                          43.700
  22711552.555                          47.300
  22226968.883                          45.800
  21676564.289                          46.800
  20964371.266                          45.800
  22535482.711                          44.200
  19665524.234                          50.000
  21560646.813                          
 19  1 15  9 34 45.0000000  0 20E07E19E21E27E30G02G06G13G15G17G19G28
                                G30R01R02R11R12R21R22R23
  27263818.859                          41.900
  26374914.828                          39.900
  25650100.320                          47.700
  24522978.414                          48.300
  25753253.508                          41.200
  25318576.695                          31.500
  23145016.148                          46.700
  20764662.430                          48.000
  22489742.070                          48.600
  20454963.125                          51.600
  20461554.172                          48.400
  22441241.633                          43.000
  22717064.547                          47.400
  23838654.641                          28.800
  22232645.281                          45.400
  21678403.000                          47.200
  20961177.219                          45.800
  22545139.945                          44.400
  19664484.313                          50.400
  21549328.688                          
 19  1 15  9 35  0.0000000  0 21E07E19E21E27E30G02G06G12G13G15G17G19
                                G28G30R02R03R11R12R21R22R23
  27271175.977                          43.100
  26374948.766                          39.300
  25647374.281                          47.700
  24523290.414                          49.300
  25756164.133                          41.700
  25309581.672                          32.800
  23137322.859                          46.200
  24845925.414                          39.400
  20766554.508                          47.900
  22486287.000                          48.300
  20459260.945                          51.900
  20461479.602                          47.300
  22447355.852                          43.200
  22722590.680                          47.400
  22238343.805                          45.200
  23559577.633                          35.400
  21680248.672                          47.100
  20957984.766                          45.500
  22554819.570                          44.500
  19663483.938                          50.300
  21538026.766                          
 19  1 15  9 35 15.0000000  0 22E07E19E21E27E30G02G06G12G13G15G17G19
                                G24G28G30R02R03R11R12R21R22R23
  27278527.219                          42.600
  26375000.156                          39.200
  25644645.359                          47.400
  24523601.445                          49.300
  25759075.609                          41.400
  25300575.984                          33.700
  23129632.188                          44.800
  24841366.313                          39.900
  20768472.836                          47.900
  22482857.313                          49.600
  20463583.922                          51.700
  20461430.945                          48.800
  24373697.508                          38.300
  22453471.414                          43.900
  22728128.453                          47.300
  22244060.305                          44.700
  23557749.508                          36.100
  21682103.656                          47.200
  20954794.961                          46.300
  22564521.391                          44.600
  19662521.234                          50.100
  21526738.414                          
 19  1 15  9 35 30.0000000  0 22E07E19E21E27E30G02G06G12G13G15G17G19
                                G24G28G30R02R03R11R12R21R22R23
  27285873.945                          42.800
  26375070.078                          39.900
  25641913.148                          47.700
  24523911.508                          48.600
  25761987.930                          42.000
  25291561.453                          35.300
  23121943.602                          44.200
  24836812.359                          40.800
  20770418.969                          48.500
  22479450.492                          50.000
  20467933.453                          51.700
  20461407.102                          48.500
  24364786.297                          38.100
  22459586.555                          43.800
  22733680.453                          46.400
  22249797.633                          44.400
  23555952.320                          34.800
  21683965.813                          47.200
  20951606.453                          46.300
  22574241.844                          44.200
  19661595.906                          50.700
  21515464.297                          
 19  1 15  9 35 45.0000000  0 21E07E19E21E27E30G02G06G13G15G17G19G24
                                G28G30R02R03R11R12R21R22R23
  27293214.648                          43.900
  26375156.813                          40.200
  25639177.844                          47.800
  24524220.633                          49.200
  25764901.750                          42.400
  25282533.453                          35.100
  23114259.008                          43.100
  20772391.516                          48.600
  22476067.109                          49.400
  20472308.336                          51.300
  20461409.453                          48.500
  24355872.258                          39.800
  22465702.891                          44.100
  22739246.352                          47.300
  22255552.906                          44.300
  23554182.703                          32.400
  21685834.344                          46.300
  20948420.297                          46.000
  22583984.320                          44.600
  19660709.430                          50.300
  21504204.359                          
 19  1 15  9 36  0.0000000  0 22E07E19E21E27E30G02G06G12G13G15G17G19
                                G24G28G30R02R03R11R12R21R22R23
  27300550.500                          43.500
  26375261.586                          41.000
  25636439.766                          47.800
  24524529.383                          49.400
  25767816.609                          42.600
  25273497.484                          36.400
  23106578.633                          43.200
  24827716.633                          40.400
  20774391.227                          49.300
  22472709.188                          48.700
  20476707.453                          51.900
  20461437.836                          47.900
  24346954.711                          39.400
  22471817.938                          44.500
  22744826.109                          47.500
  22261328.828                          44.300
  23552447.383                          33.500
  21687713.242                          46.500
  20945235.352                          46.000
  22593746.703                          44.100
  19659859.969                          50.400
  21492959.820                          
 19  1 15  9 36 15.0000000  0 21E07E19E21E27E30G02G06G12G13G15G17G19
                                G24G28G30R02R11R12R21R22R23
  27307881.125                          43.200
  26375382.477                          40.900
  25633699.063                          48.000
  24524837.148                          49.000
  25770732.469                          41.900
  25264448.891                          36.200
  23098902.172                          43.000
  24823176.445                          39.900
  20776417.688                          49.100
  22469375.852                          49.100
  20481131.797                          51.700
  20461491.445                          48.800
  24338033.578                          39.700
  22477932.023                          43.900
  22750420.328                          47.200
  22267123.859                          45.000
  21689599.648                          46.800
  20942053.617                          46.200
  22603530.813                          44.500
  19659049.000                          49.800
  21481728.641                          
 19  1 15  9 36 30.0000000  0 21E07E19E21E27E30G02G06G12G13G15G17G19
                                G24G28G30R02R11R12R21R22R23
  27315206.391                          42.800
  26375520.828                          40.000
  25630954.898                          48.600
  24525144.180                          49.200
  25773649.336                          42.400
  25255388.992                          36.500
  23091230.367                          44.100
  24818641.297                          40.800
  20778470.148                          49.000
  22466065.938                          49.000
  20485581.219                          51.300
  20461571.219                          48.800
  24329110.461                          39.400
  22484047.047                          43.200
  22756026.828                          46.400
  22272937.664                          44.200
  21691493.617                          46.100
  20938873.727                          46.000
  22613334.734                          44.300
  19658276.305                          50.000
  21470511.820                          
 19  1 15  9 36 45.0000000  0 21E07E19E21E27E30G02G06G12G13G15G17G19
                                G24G28G30R02R11R12R21R22R23
  27322526.852                          43.700
  26375677.016                          41.100
  25628207.055                          48.200
  24525450.438                          49.000
  25776567.703                          42.200
  25246321.430                          36.300
  23083561.586                          44.600
  24814109.656                          40.300
  20780550.609                          48.800
  22462780.727                          48.500
  20490056.063                          51.500
  20461676.070                          49.000
  24320185.102                          39.900
  22490162.680                          43.400
  22761647.078                          45.800
  22278770.766                          43.900
  21693395.242                          46.700
  20935696.367                          46.600
  22623158.727                          45.100
  19657541.992                          50.700
  21459310.516                          
 19  1 15  9 37  0.0000000  0 21E07E19E21E27E30G02G06G12G13G15G17G19
                                G24G28G30R02R11R12R21R22R23
  27329842.016                          43.200
  26375850.773                          40.600
  25625456.266                          48.000
  24525756.180                          49.100
  25779486.938                          41.800
  25237242.086                          35.700
  23075897.883                          45.700
  24809581.563                          39.800
  20782657.445                          47.500
  22459519.938                          49.400
  20494556.242                          51.300
  20461807.586                          48.000
  24311256.531                          40.800
  22496277.391                          43.100
  22767281.086                          45.200
  22284624.445                          44.700
  21695306.086                          47.200
  20932519.852                          46.600
  22633004.070                          45.700
  19656845.094                          50.500
  21448123.852                          
 19  1 15  9 37 15.0000000  0 19E07E19E21E27E30G06G13G15G17G19G24G28
                                G30R02R11R12R21R22R23
  27337151.422                          43.000
  26376041.711                          40.600
  25622702.859                          48.100
  24526061.141                          49.200
  25782407.320                          40.900
  23068237.047                          46.700
  20784790.414                          48.700
  22456282.641                          49.400
  20499081.086                          52.500
  20461964.617                          47.900
  24302326.313                          41.400
  22502393.023                          43.000
  22772928.703                          45.100
  22290495.523                          44.700
  21697224.344                          46.600
  20929345.664                          46.000
  22642867.781                          45.300
  19656187.000                          50.300
  21436951.930                          
 19  1 15  9 37 30.0000000  0 20E07E19E21E27E30G02G06G13G15G17G19G24
                                G28G30R02R11R12R21R22R23
  27344455.664                          43.500
  26376249.438                          40.300
  25619945.992                          48.100
  24526364.938                          48.600
  25785329.305                          39.800
  25219053.469                          36.300
  23060580.125                          47.200
  20786950.297                          48.200
  22453069.539                          49.100
  20503630.172                          51.500
  20462146.742                          47.900
  24293392.805                          41.100
  22508507.805                          41.400
  22778590.797                          43.700
  22296385.711                          45.300
  21699149.953                          46.800
  20926174.172                          45.900
  22652752.156                          44.600
  19655566.156                          50.400
  21425796.047                          
 19  1 15  9 37 45.0000000  0 21E07E19E21E27E30G02G06G12G13G15G17G19
                                G24G28G30R02R11R12R21R22R23
  27351754.383                          43.400
  26376473.906                          39.700
  25617186.055                          47.700
  24526668.461                          48.300
  25788252.422                          39.700
  25209941.859                          36.400
  23052927.664                          46.300
  24796028.977                          39.400
  20789137.570                          47.700
  22449881.266                          48.100
  20508204.375                          51.400
  20462354.359                          48.800
  24284456.641                          40.500
  22514622.758                          42.400
  22784265.594                          44.700
  22302294.883                          44.600
  21701084.883                          47.000
  20923005.313                          46.300
  22662657.211                          44.300
  19654983.750                          50.800
  21414653.484                          
 19  1 15  9 38  0.0000000  0 19E07E19E21E27E30G06G12G13G15G17G19G28
                                G30R02R11R12R21R22R23
  27359047.930                          43.600
  26376717.016                          39.500
  25614423.141                          47.500
  24526971.688                          48.200
  25791177.344                          40.000
  23045278.594                          47.300
  24791521.414                          39.100
  20791350.367                          47.900
  22446717.164                          48.100
  20512804.172                          51.700
  20462587.938                          49.000
  22520737.680                          41.900
  22789954.789                          44.000
  22308222.477                          44.700
  21703028.875                          47.200
  20919839.008                          47.300
  22672581.617                          45.200
  19654439.211                          50.400
  21403526.719                          
 19  1 15  9 38 15.0000000  0 20E07E19E21E27E30G06G12G13G15G17G19G24
                                G28G30R02R11R12R21R22R23
  27366335.586                          43.400
  26376976.938                          40.400
  25611656.891                          48.200
  24527273.828                          48.600
  25794103.820                          40.700
  23037634.289                          48.300
  24787014.789                          38.700
  20793589.477                          48.500
  22443577.227                          48.200
  20517428.414                          51.800
  20462847.125                          49.500
  24266577.000                          40.400
  22526851.531                          42.600
  22795658.242                          44.300
  22314169.813                          45.800
  21704980.781                          46.900
  20916673.898                          46.300
  22682525.406                          44.800
  19653933.195                          50.400
  21392416.141                          
 19  1 15  9 38 30.0000000  0 20E07E19E21E27E30G06G12G13G15G17G19G24
                                G28G30R02R11R12R21R22R23
  27373617.594                          43.300
  26377254.688                          40.400
  25608888.000                          47.900
  24527575.648                          48.900
  25797031.320                          41.700
  23029993.125                          48.000
  24782515.492                          38.400
  20795855.805                          48.400
  22440462.148                          49.000
  20522077.094                          51.400
  20463131.867                          49.300
  24257633.633                          41.100
  22532966.617                          42.300
  22801373.328                          45.100
  22320134.281                          46.000
  21706939.906                          45.900
  20913511.664                          46.000
  22692490.695                          45.600
  19653465.547                          49.800
  21381320.867                          
 19  1 15  9 38 45.0000000  0 20E07E19E21E27E30G06G13G15G17G19G24G28
                                G30R02R03R11R12R21R22R23
  27380894.469                          43.200
  26377548.516                          40.200
  25606116.023                          48.100
  24527877.188                          48.600
  25799960.820                          42.400
  23022357.016                          47.300
  20798148.797                          48.200
  22437371.516                          49.600
  20526750.523                          51.400
  20463441.984                          48.800
  24248687.391                          40.700
  22539082.359                          43.100
  22807103.266                          44.500
  22326116.742                          45.200
  23535296.094                          36.800
  21708907.688                          45.900
  20910352.023                          46.900
  22702474.875                          45.200
  19653036.281                          50.300
  21370241.148                          
 19  1 15  9 39  0.0000000  0 20E07E19E21E27E30G06G13G15G17G19G24G28
                                G30R02R03R11R12R21R22R23
  27388165.703                          43.500
  26377859.727                          39.400
  25603340.336                          47.900
  24528177.789                          48.500
  25802891.742                          42.600
  23014724.070                          46.700
  20800468.414                          47.800
  22434304.508                          48.500
  20531448.703                          51.400
  20463778.227                          49.300
  24239739.414                          40.100
  22545197.969                          42.400
  22812846.820                          44.900
  22332118.984                          46.000
  23533910.461                          35.500
  21710884.133                          46.300
  20907194.516                          46.800
  22712477.570                          45.200
  19652645.156                          50.700
  21359178.914                          
 19  1 15  9 39 15.0000000  0 20E07E19E21E27E30G06G13G15G17G19G24G28
                                G30R02R03R11R12R21R22R23
  27395430.938                          43.600
