     2.11           OBSERVATION DATA    M (MIXED)           RINEX VERSION / TYPE
teqc  2018Dec12                         20190118 08:23:32UTCPGM / RUN BY / DATE
RIOD                                                        MARKER NAME
41608M001                                                   MARKER NUMBER
  4280294.8786 -4034431.2247 -2458141.3800                  APPROX POSITION XYZ
        0.0080        0.0000        0.0000                  ANTENNA: DELTA H/E/N
RBMC                IBGE/CGED                               OBSERVER / AGENCY
1551129599          TRM115000.00    NONE                    ANT # / TYPE
5750R51585          TRIMBLE NETR9       5.37                REC # / TYPE / VERS
     3    C1    L1    S1                                    # / TYPES OF OBSERV
CODIGO: 91720    Estacao: Rio de Janeiro                    COMMENT
  2019     1    17     0     0    0.0000000     GPS         TIME OF FIRST OBS
    18                                                      LEAP SECONDS
                                                            END OF HEADER
 19  1 17  8 45 30.0000000  0 19E01E04E05E09E12G01G06G07G13G15G17G19
                                G28G30R04R13R17R23R24
  27730439.586                          41.200
  26684508.938                          45.000
  26248573.109                          44.600
  22745312.547                          48.200
  23441992.633                          44.000
  25406638.109                          32.400
  24407015.836                          41.600
  24588939.078                          34.000
  20825974.891                          48.400
  23359557.898                          45.400
  20125150.672                          52.100
  20825341.188                          47.500
  21450704.133                          45.900
  21993789.914                          48.500
  21695528.680                          45.300
  21451571.586                          43.200
  22726357.500                          45.200
  20801603.016                          48.500
  20275581.594                          
 19  1 17  8 45 45.0000000  0 19E01E04E05E09E12G01G06G07G13G15G17G19
                                G28G30R04R13R17R23R24
  27733650.109                          40.500
  26692389.164                          44.200
  26246249.211                          44.600
  22749605.172                          48.400
  23435450.781                          43.200
  25407588.953                          31.900
  24399698.633                          39.900
  24595356.281                          32.900
  20823372.945                          48.900
  23352558.797                          44.700
  20124755.914                          52.100
  20821040.438                          47.600
  21456522.383                          45.900
  21997154.047                          47.800
  21696598.234                          45.200
  21452403.016                          43.000
  22714264.180                          44.900
  20805042.273                          48.600
  20269105.281                          
 19  1 17  8 46  0.0000000  0 19E01E04E05E09E12G05G06G07G13G15G17G19
                                G28G30R04R13R17R23R24
  27736859.320                          40.800
  26700268.961                          44.000
  26243943.234                          44.800
  22753911.469                          47.800
  23428916.891                          43.600
  24677002.359                          33.500
  24392373.961                          40.600
  24601778.234                          33.900
  20820797.641                          47.800
  23345579.219                          45.400
  20124390.406                          52.000
  20816764.445                          48.800
  21462344.359                          46.300
  22000531.133                          48.100
  21697701.305                          45.600
  21453236.211                          44.000
  22702176.891                          44.300
  20808518.766                          48.700
  20262658.219                          
 19  1 17  8 46 15.0000000  0 18E01E04E05E09E12G06G07G13G15G17G19G28
                                G30R04R13R17R23R24
  27740066.969                          40.500
  26708146.938                          44.000
  26241655.766                          44.600
  22758232.602                          47.600
  23422391.656                          43.700
  24385041.703                          39.400
  24608211.961                          34.100
  20818248.641                          48.600
  23338616.016                          46.300
  20124055.953                          51.800
  20812512.227                          48.700
  21468170.414                          46.600
  22003918.672                          48.800
  21698831.188                          45.800
  21454072.039                          43.700
  22690090.953                          44.500
  20812030.570                          48.700
  20256240.352                          
 19  1 17  8 46 30.0000000  0 18E01E04E05E09E12G06G07G13G15G17G19G28
                                G30R04R13R17R23R24
  27743273.930                          41.300
  26716024.672                          44.000
  26239385.633                          44.700
  22762567.414                          48.000
  23415874.523                          44.200
  24377702.398                          40.400
  24614654.664                          33.600
  20815726.438                          47.700
  23331672.742                          46.900
  20123751.484                          51.200
  20808284.125                          48.100
  21474000.500                          45.900
  22007320.008                          48.800
  21699996.641                          44.800
  21454908.328                          43.100
  22678010.281                          44.500
  20815577.531                          49.300
  20249854.070                          
 19  1 17  8 46 45.0000000  0 18E04E05E09E12G01G06G07G13G15G17G19G28
                                G30R04R13R17R23R24
  26723901.008                          43.300
  26237133.539                          44.700
  22766916.039                          47.400
  23409366.055                          44.400
  25411586.969                          31.300
  24370355.273                          41.400
  24621104.047                          33.800
  20813230.844                          48.000
  23324747.492                          46.400
  20123477.180                          51.000
  20804081.609                          48.700
  21479832.945                          46.000
  22010732.664                          47.500
  21701190.336                          45.300
  21455746.352                          43.000
  22665932.414                          44.500
  20819161.438                          48.900
  20243497.477                          
 19  1 17  8 47  0.0000000  0 17E04E05E09E12G06G07G13G15G17G19G28G30
                                R04R13R17R23R24
  26731776.852                          43.300
  26234898.656                          45.100
  22771279.094                          47.600
  23402865.445                          44.500
  24363001.828                          41.500
  24627557.266                          30.300
  20810760.922                          47.600
  23317840.445                          46.200
  20123234.133                          51.700
  20799903.359                          49.400
  21485670.453                          45.500
  22014157.906                          47.200
  21702418.492                          45.700
  21456587.445                          42.900
  22653856.492                          44.200
  20822780.273                          49.000
  20237170.367                          
 19  1 17  8 47 15.0000000  0 19E04E05E09E12G01G06G07G13G15G17G19G28
                                G30R04R05R13R17R23R24
  26739651.680                          43.800
  26232681.914                          44.600
  22775656.055                          48.500
  23396373.289                          43.800
  25413701.250                          31.800
  24355639.758                          41.300
  24634022.313                          27.300
  20808318.422                          47.600
  23310952.234                          45.900
  20123021.594                          52.300
  20795749.695                          47.900
  21491511.984                          45.300
  22017595.773                          48.300
  21703678.609                          45.900
  24192853.820                          36.400
  21457430.469                          43.300
  22641784.258                          44.200
  20826434.609                          49.200
  20230875.570                          
 19  1 17  8 47 30.0000000  0 17E04E05E09E12G06G07G13G15G17G19G28G30
                                R04R13R17R23R24
  26747524.242                          43.000
  26230482.820                          43.700
  22780046.492                          48.400
  23389889.750                          44.200
  24348271.461                          41.700
  24640495.000                          25.300
  20805901.727                          47.600
  23304081.352                          45.900
  20122838.484                          51.500
  20791620.867                          48.300
  21497358.563                          46.500
  22021045.117                          48.200
  21704968.250                          46.300
  21458274.922                          43.400
  22629716.406                          44.900
  20830123.930                          49.100
  20224609.172                          
 19  1 17  8 47 45.0000000  0 17E01E04E05E09E12G06G13G15G17G19G28G30
                                R04R13R17R23R24
  27759280.430                          42.300
  26755396.695                          44.000
  26228301.594                          43.500
  22784450.648                          48.700
  23383415.242                          44.000
  24340895.867                          41.100
  20803512.758                          48.100
  23297229.391                          46.400
  20122685.406                          51.900
  20787516.352                          48.800
  21503206.867                          46.100
  22024507.617                          48.400
  21706292.000                          46.300
  21459119.422                          43.000
  22617651.328                          44.700
  20833850.117                          48.500
  20218374.727                          
 19  1 17  8 48  0.0000000  0 17E01E04E05E09E12G06G13G15G17G19G28G30
                                R04R13R17R23R24
  27762476.711                          42.300
  26763267.398                          43.800
  26226138.695                          44.200
  22788868.633                          48.700
  23376948.992                          44.500
  24333514.258                          42.600
  20801150.688                          48.800
  23290397.531                          46.100
  20122562.469                          52.200
  20783437.563                          49.900
  21509060.000                          45.700
  22027982.922                          49.100
  21707646.609                          46.500
  21459968.461                          43.500
  22605590.680                          44.100
  20837612.086                          48.600
  20212167.773                          
 19  1 17  8 48 15.0000000  0 17E01E04E05E09E12G06G13G15G17G19G28G30
                                R04R13R17R23R24
  27765670.961                          41.200
  26771137.031                          44.000
  26223993.602                          44.500
  22793300.047                          48.400
  23370491.273                          44.700
  24326125.461                          42.800
  20798814.063                          48.700
  23283583.734                          46.400
  20122469.906                          51.700
  20779382.195                          48.700
  21514916.188                          46.000
  22031470.078                          49.800
  21709031.234                          46.500
  21460817.391                          42.700
  22593532.859                          45.200
  20841409.586                          49.100
  20205994.141                          
 19  1 17  8 48 30.0000000  0 17E01E04E05E09E12G06G13G15G17G19G28G30
                                R04R13R17R23R24
  27768863.711                          41.100
  26779005.703                          44.200
  26221866.555                          44.300
  22797744.875                          48.200
  23364042.164                          44.600
  24318727.789                          42.000
  20796504.438                          48.600
  23276788.219                          46.400
  20122407.023                          50.500
  20775351.578                          49.200
  21520776.055                          45.200
  22034969.109                          49.300
  21710446.398                          46.000
  21461670.273                          42.700
  22581480.328                          45.000
  20845242.945                          49.500
  20199849.508                          
 19  1 17  8 48 45.0000000  0 17E01E04E05E09E12G06G13G15G17G19G28G30
                                R04R13R17R23R24
  27772055.164                          40.900
  26786871.727                          44.200
  26219756.797                          44.700
  22802203.328                          48.500
  23357601.867                          44.500
  24311325.250                          42.600
  20794221.078                          48.000
  23270011.461                          46.300
  20122375.336                          51.100
  20771346.313                          49.200
  21526640.680                          46.200
  22038480.477                          48.900
  21711893.945                          45.800
  21462523.852                          42.800
  22569431.727                          45.200
  20849110.547                          48.900
  20193737.508                          
 19  1 17  8 49  0.0000000  0 17E01E04E05E09E12G06G13G15G17G19G28G30
                                R04R13R17R23R24
  27775245.414                          40.200
  26794737.477                          43.800
  26217664.688                          43.900
  22806675.438                          48.000
  23351170.227                          45.400
  24303916.141                          42.100
  20791966.250                          49.800
  23263253.922                          46.800
  20122373.711                          50.500
  20767365.570                          48.600
  21532508.484                          47.000
  22042004.969                          49.500
  21713373.250                          46.000
  21463379.617                          43.500
  22557386.664                          45.100
  20853013.828                          49.400
  20187655.594                          
 19  1 17  8 49 15.0000000  0 16E01E04E05E09G06G13G15G17G19G28G30R04
                                R13R17R23R24
  27778434.336                          40.100
  26802601.500                          44.300
  26215590.203                          43.500
  22811161.547                          48.200
  24296500.484                          43.000
  20789736.531                          48.900
  23256515.367                          45.700
  20122402.320                          51.700
  20763410.266                          49.000
  21538379.391                          47.700
  22045540.805                          49.200
  21714883.156                          46.700
  21464238.703                          43.000
  22545346.023                          45.100
  20856952.383                          49.300
  20181605.359                          
 19  1 17  8 49 30.0000000  0 16E04E05E09E12G06G13G15G17G19G28G30R04
                                R13R17R23R24
  26810463.898                          43.800
  26213533.953                          43.800
  22815660.922                          48.600
  23338333.039                          44.800
  24289077.305                          42.500
  20787534.047                          48.900
  23249795.344                          46.200
  20122461.156                          51.700
  20759478.477                          49.300
  21544254.070                          47.300
  22049089.531                          48.800
  21716425.367                          46.300
  21465098.016                          43.500
  22533308.922                          45.200
  20860926.156                          49.000
  20175585.289                          
 19  1 17  8 49 45.0000000  0 17E01E04E05E09E12G06G13G15G17G19G28G30
                                R04R13R17R23R24
  27784807.469                          41.100
  26818324.125                          44.000
  26211496.641                          44.200
  22820172.969                          48.500
  23331927.703                          44.600
  24281647.547                          42.800
  20785357.859                          49.300
  23243094.641                          46.000
  20122549.320                          51.300
  20755571.859                          48.400
  21550132.477                          46.100
  22052651.539                          49.300
  21717996.227                          46.400
  21465960.141                          42.700
  22521277.219                          45.000
  20864936.133                          48.700
  20169595.578                          
 19  1 17  8 50  0.0000000  0 17E01E04E05E09E12G06G13G15G17G19G28G30
                                R04R13R17R23R24
  27787991.648                          40.700
  26826183.383                          43.500
  26209476.344                          44.900
  22824698.805                          48.000
  23325531.922                          45.300
  24274211.391                          42.500
  20783208.984                          49.200
  23236412.883                          46.400
  20122668.297                          51.600
  20751690.641                          48.400
  21556014.258                          48.200
  22056225.422                          49.100
  21719599.063                          46.000
  21466824.500                          42.400
  22509250.063                          44.500
  20868980.836                          49.000
  20163636.734                          
 19  1 17  8 50 15.0000000  0 17E01E04E05E09E12G06G13G15G17G19G28G30
                                R04R13R17R23R24
  27791174.867                          40.400
  26834040.984                          43.500
  26207473.508                          44.000
  22829237.977                          48.200
  23319144.539                          45.300
  24266767.219                          41.300
  20781088.297                          49.500
  23229750.078                          46.500
  20122817.172                          51.100
  20747834.781                          48.300
  21561899.758                          47.000
  22059811.117                          49.200
  21721234.383                          45.500
  21467691.273                          42.600
  22497225.570                          44.300
  20873061.352                          48.600
  20157709.969                          
 19  1 17  8 50 30.0000000  0 17E01E04E05E09E12G06G13G15G17G19G28G30
                                R04R13R17R23R24
  27794355.695                          40.600
  26841897.406                          43.500
  26205488.953                          44.200
  22833790.203                          48.200
  23312766.383                          44.800
  24259319.359                          41.900
  20778993.133                          49.600
  23223106.719                          47.200
  20122996.641                          51.600
  20744003.094                          48.800
  21567788.148                          47.700
  22063410.000                          50.000
  21722900.250                          45.600
  21468560.875                          42.700
  22485208.852                          44.500
  20877176.180                          49.400
  20151815.719                          
 19  1 17  8 50 45.0000000  0 16E04E05E09E12G06G13G15G17G19G28G30R04
                                R13R17R23R24
  26849751.219                          43.800
  26203522.531                          43.700
  22838356.125                          48.000
  23306397.313                          45.300
  24251864.328                          40.500
  20776924.656                          50.100
  23216481.391                          46.200
  20123205.906                          50.700
  20740197.594                          48.900
  21573679.844                          46.400
  22067021.391                          49.100
  21724596.070                          46.300
  21469432.250                          42.800
  22473196.547                          44.900
  20881327.773                          49.100
  20145952.719                          
 19  1 17  8 51  0.0000000  0 16E04E05E09E12G06G13G15G17G19G28G30R04
                                R13R17R23R24
  26857603.758                          43.800
  26201573.703                          44.100
  22842935.438                          47.800
  23300037.469                          44.600
  24244403.836                          42.500
  20774883.609                          49.100
  23209876.898                          47.100
  20123445.469                          51.200
  20736416.078                          49.000
  21579574.883                          47.300
  22070644.547                          48.200
  21726323.406                          47.000
  21470306.344                          42.400
  22461187.414                          44.300
  20885512.695                          48.800
  20140118.781                          
 19  1 17  8 51 15.0000000  0 16E04E05E09E12G06G13G15G17G19G28G30R04
                                R13R17R23R24
  26865454.102                          44.000
  26199642.375                          43.300
  22847527.453                          47.800
  23293686.438                          45.300
  24236935.328                          40.600
  20772867.977                          49.400
  23203292.094                          47.500
  20123715.703                          50.800
  20732659.797                          49.000
  21585473.117                          46.800
  22074281.047                          48.900
  21728081.961                          47.200
  21471181.703                          42.100
  22449184.492                          45.100
  20889734.703                          48.800
  20134318.414                          
 19  1 17  8 51 30.0000000  0 17E01E04E05E09E12G06G13G15G17G19G28G30
                                R04R13R17R23R24
  27807066.977                          38.600
  26873303.055                          43.800
  26197729.930                          44.300
  22852132.680                          48.000
  23287345.305                          44.300
  24229461.531                          42.200
  20770880.883                          48.400
  23196725.992                          47.700
  20124015.773                          51.500
  20728928.922                          49.200
  21591376.016                          47.000
  22077930.000                          48.500
  21729871.375                          46.400
  21472059.500                          42.300
  22437185.633                          44.800
  20893988.898                          49.100
  20128550.609                          
 19  1 17  8 51 45.0000000  0 17E01E04E05E09E12G06G13G15G17G19G28G30
                                R04R13R17R23R24
  27810241.836                          38.600
  26881149.578                          44.300
  26195835.859                          45.400
  22856751.273                          47.900
  23281012.820                          44.300
  24221981.531                          42.600
  20768920.414                          48.500
  23190177.570                          47.800
  20124345.000                          50.700
  20725222.570                          48.700
  21597281.609                          47.500
  22081590.742                          48.800
  21731689.867                          46.000
  21472941.500                          43.300
  22425193.313                          45.200
  20898280.313                          48.600
  20122812.016                          
 19  1 17  8 52  0.0000000  0 17E01E04E05E09E12G06G13G15G17G19G28G30
                                R04R13R17R23R24
  27813415.719                          38.700
  26888995.000                          44.200
  26193958.930                          44.100
  22861383.227                          48.300
  23274690.070                          44.900
  24214494.188                          41.600
  20766987.656                          48.700
  23183650.148                          47.100
  20124705.273                          51.000
  20721542.133                          49.400
  21603189.875                          47.400
  22085264.820                          48.400
  21733540.719                          45.600
  21473824.500                          42.900
  22413205.742                          44.700
  20902605.375                          48.700
  20117106.695                          
 19  1 17  8 52 15.0000000  0 17E01E04E05E09E12G06G13G15G17G19G28G30
                                R04R13R17R23R24
  27816586.719                          37.700
  26896837.656                          44.400
  26192099.406                          44.700
  22866027.469                          47.900
  23268376.898                          44.800
  24207002.891                          41.400
  20765081.805                          48.700
  23177141.734                          47.800
  20125095.594                          51.400
  20717886.500                          49.600
  21609100.813                          47.300
  22088952.172                          48.500
  21735422.781                          46.300
  21474710.148                          42.700
  22401223.023                          44.200
  20906965.664                          48.400
  20111433.648                          
 19  1 17  8 52 30.0000000  0 17E01E04E05E09E12G06G13G15G17G19G28G30
                                R04R13R17R23R24
  27819757.492                          37.400
  26904678.203                          44.400
  26190258.500                          44.600
  22870685.086                          48.000
  23262073.211                          44.200
  24199504.406                          41.100
  20763201.672                          48.200
  23170652.984                          46.300
  20125515.602                          49.300
  20714255.695                          49.300
  21615016.266                          45.800
  22092651.227                          48.400
  21737335.063                          46.700
  21475598.148                          42.800
  22389246.391                          45.000
  20911361.227                          48.100
  20105792.719                          
 19  1 17  8 52 45.0000000  0 16E01E04E05E09E12G06G13G15G17G19G28G30
                                R04R13R23R24
  27822926.461                          38.100
  26912516.930                          43.700
  26188435.016                          44.600
  22875355.352                          48.200
  23255778.469                          44.100
  24192000.641                          41.800
  20761349.430                          47.900
  23164182.445                          45.700
  20125965.500                          50.300
  20710649.656                          48.800
  21620934.859                          46.500
  22096363.109                          49.400
  21739274.406                          46.100
  21476489.164                          43.400
  20915792.383                          48.500
  20100182.023                          
 19  1 17  8 53  0.0000000  0 15E04E05E09E12G06G13G15G17G19G28G30R04
                                R13R23R24
  26920353.461                          43.600
  26186629.359                          44.100
  22880038.672                          48.100
  23249493.266                          44.000
  24184489.875                          41.100
  20759524.367                          47.400
  23157732.891                          46.200
  20126446.305                          50.900
  20707069.984                          48.700
  21626855.438                          47.100
  22100088.117                          49.400
  21741246.000                          46.600
  21477382.305                          43.100
  20920256.781                          48.600
  20094605.164                          
 19  1 17  8 53 15.0000000  0 16E04E05E09E12G06G13G15G17G19G28G30R04
                                R13R17R23R24
  26928187.898                          43.700
  26184841.484                          43.700
  22884735.008                          48.200
  23243218.352                          44.000
  24176975.906                          42.300
  20757726.469                          47.800
  23151303.922                          47.500
  20126956.898                          50.300
  20703515.094                          49.600
  21632779.117                          46.700
  22103825.266                          48.500
  21743248.648                          46.000
  21478277.727                          42.800
  22353351.328                          45.000
  20924755.742                          48.600
  20089060.734                          
 19  1 17  8 53 30.0000000  0 17E01E04E05E09E12G06G13G15G17G19G28G30
                                R04R13R17R23R24
  27832427.984                          39.100
  26936020.398                          44.000
  26183071.969                          42.700
  22889443.547                          48.000
  23236952.547                          44.000
  24169454.000                          40.300
  20755955.344                          47.700
  23144893.688                          47.300
  20127497.125                          50.100
  20699985.227                          49.200
  21638706.406                          46.600
  22107575.469                          48.700
  21745281.211                          45.300
  21479177.953                          43.000
  22341397.719                          44.800
  20929290.836                          48.800
  20083547.813                          
 19  1 17  8 53 45.0000000  0 16E04E05E09E12G06G13G15G17G19G28G30R04
                                R13R17R23R24
  26943850.625                          44.100
  26181320.703                          42.800
  22894165.305                          48.000
  23230696.938                          44.000
  24161928.430                          42.500
  20754211.273                          47.200
  23138503.078                          47.300
  20128068.180                          51.500
  20696480.805                          49.400
  21644637.156                          46.600
  22111338.484                          50.000
  21747344.758                          44.100
  21480079.461                          42.600
  22329449.359                          44.600
  20933860.281                          48.400
  20078067.523                          
 19  1 17  8 54  0.0000000  0 16E04E05E09E12G06G13G15G17G19G28G30R04
                                R13R17R23R24
  26951677.914                          43.900
  26179587.555                          43.800
  22898899.766                          47.800
  23224451.070                          44.200
  24154394.805                          41.300
  20752495.039                          48.100
  23132132.305                          47.000
  20128667.969                          50.900
  20693001.836                          49.500
  21650570.805                          47.200
  22115113.016                          49.800
  21749439.414                          44.900
  21480982.922                          42.200
  22317509.266                          45.000
  20938464.734                          48.900
  20072619.352                          
 19  1 17  8 54 15.0000000  0 15E04E05E09E12G06G13G15G17G19G28G30R04
                                R13R23R24
  26959504.055                          44.300
  26177871.695                          44.000
  22903647.070                          48.100
  23218214.938                          44.900
  24146857.727                          42.300
  20750805.883                          48.400
  23125780.555                          46.500
  20129298.297                          51.000
  20689548.453                          49.100
  21656506.609                          47.000
  22118900.875                          49.300
  21751563.023                          45.300
  21481889.539                          41.500
  20943103.313                          49.100
  20067202.719                          
 19  1 17  8 54 30.0000000  0 15E04E05E09E12G06G13G15G17G19G28G30R04
                                R13R23R24
  26967327.414                          44.300
  26176174.789                          43.700
  22908407.000                          48.200
  23211988.688                          44.300
  24139313.078                          41.100
  20749143.789                          48.000
  23119448.836                          46.100
  20129959.016                          50.400
  20686120.297                          49.000
  21662445.914                          46.800
  22122701.141                          47.400
  21753717.273                          45.400
  21482800.898                          42.300
  20947775.578                          48.500
  20061820.555                          
 19  1 17  8 54 45.0000000  0 16E04E05E09E12G06G13G15G17G19G28G30R04
                                R13R17R23R24
  26975147.789                          42.100
  26174495.289                          42.100
  22913179.281                          44.900
  23205772.109                          42.100
  24131764.828                          41.100
  20747509.281                          47.000
  23113138.672                          44.300
  20130649.250                          48.700
  20682717.266                          46.200
  21668387.773                          45.100
  22126514.695                          46.800
  21755901.148                          42.600
  21483714.203                          40.900
  22281723.984                          43.700
  20952483.078                          43.500
  20056472.008                          
 19  1 17  8 55  0.0000000  0 16E04E05E09E12G06G13G15G17G19G28G30R04
                                R13R17R23R24
  26982966.242                          44.200
  26172834.164                          44.100
  22917963.852                          48.300
  23199565.477                          45.000
  24124209.625                          40.200
  20745900.727                          48.500
  23106847.875                          47.300
  20131369.180                          49.600
  20679339.531                          48.800
  21674333.227                          48.200
  22130340.805                          47.500
  21758115.875                          44.300
  21484629.781                          43.100
  22269808.313                          44.700
  20957223.828                          47.600
  20051153.477                          
 19  1 17  8 55 15.0000000  0 16E04E05E09E12G06G13G15G17G19G28G30R04
                                R13R17R23R24
  26990781.938                          44.800
  26171190.539                          44.600
  22922761.039                          48.200
  23193368.695                          45.500
  24116649.891                          40.700
  20744320.938                          48.500
  23100577.102                          47.000
  20132119.922                          50.200
  20675987.383                          48.200
  21680280.438                          47.200
  22134179.414                          48.700
  21760359.008                          44.100
  21485547.703                          43.200
  22257898.727                          44.800
  20962000.375                          48.100
  20045869.547                          
 19  1 17  8 55 30.0000000  0 16E04E05E09E12G06G13G15G17G19G28G30R04
                                R13R17R23R24
  26998595.289                          44.200
  26169564.234                          43.000
  22927571.258                          48.500
  23187182.211                          45.100
  24109085.430                          39.400
  20742768.086                          48.900
  23094325.258                          46.700
  20132899.797                          50.500
  20672660.695                          48.700
  21686230.570                          47.300
  22138031.203                          47.700
  21762631.367                          45.000
  21486470.148                          43.100
  22245996.102                          45.300
  20966811.234                          47.800
  20040618.141                          
 19  1 17  8 55 45.0000000  0 17E04E05E09E12G06G07G13G15G17G19G28G30
                                R04R13R17R23R24
  27006405.867                          44.300
  26167956.109                          43.400
  22932393.547                          48.200
  23181005.797                          45.500
  24101517.555                          42.000
  24858681.102                          31.300
  20741241.680                          48.000
  23088093.289                          45.800
  20133710.133                          49.000
  20669359.055                          48.600
  21692184.680                          46.700
  22141896.008                          47.200
  21764936.453                          44.600
  21487393.656                          42.200
  22234100.570                          45.900
  20971655.805                          47.900
  20035398.391                          
 19  1 17  8 56  0.0000000  0 17E04E05E09E12G06G07G13G15G17G19G28G30
                                R04R13R17R23R24
  27014213.734                          44.600
  26166366.320                          43.700
  22937227.953                          48.600
  23174839.367                          45.800
  24093941.648                          41.700
  24865429.695                          31.300
  20739743.625                          48.500
  23081883.500                          46.700
  20134549.023                          50.400
  20666082.797                          48.100
  21698140.789                          46.500
  22145772.992                          48.900
  21767271.609                          45.300
  21488322.008                          41.600
  22222212.633                          45.000
  20976535.078                          47.600
  20030212.984                          
 19  1 17  8 56 15.0000000  0 17E04E05E09E12G06G07G13G15G17G19G28G30
                                R04R13R17R23R24
  27022018.867                          44.800
  26164794.938                          43.300
  22942075.336                          48.400
  23168683.102                          46.100
  24086362.430                          43.400
  24872186.211                          31.300
  20738272.039                          49.300
  23075693.680                          47.200
  20135418.898                          51.100
  20662832.516                          48.200
  21704100.117                          47.500
  22149662.617                          48.100
  21769634.219                          44.800
  21489252.906                          41.900
  22210330.758                          46.100
  20981447.367                          47.800
  20025061.781                          
 19  1 17  8 56 30.0000000  0 17E04E05E09E12G06G07G13G15G17G19G28G30
                                R04R13R17R23R24
  27029821.039                          44.200
  26163241.508                          44.000
  22946935.016                          48.100
  23162536.945                          45.300
  24078777.070                          41.800
  24878952.617                          31.300
  20736828.328                          48.700
  23069523.117                          47.200
  20136319.305                          50.800
  20659607.648                          48.000
  21710061.336                          47.200
  22153566.070                          47.900
  21772027.688                          45.900
  21490186.859                          42.000
  22198456.852                          45.600
  20986393.914                          47.700
  20019942.383                          
 19  1 17  8 56 45.0000000  0 18E01E04E05E09E12G06G07G13G15G17G19G28
                                G30R04R13R17R23R24
  27873481.742                          37.200
  27037620.969                          44.100
  26161705.945                          44.100
  22951806.258                          48.200
  23156400.828                          44.900
  24071187.727                          42.600
  24885722.102                          29.400
  20735411.711                          49.900
  23063372.773                          47.600
  20137249.211                          51.200
  20656408.906                          47.800
  21716026.148                          47.400
  22157481.766                          48.600
  21774450.898                          45.900
  21491122.883                          42.300
  22186589.156                          44.900
  20991376.367                          48.100
  20014856.813                          
 19  1 17  8 57  0.0000000  0 17E01E04E05E09E12G06G13G15G17G19G28G30
                                R04R13R17R23R24
  27876633.352                          37.500
  27045417.859                          44.300
  26160188.281                          43.100
  22956689.992                          48.600
  23150275.438                          45.300
  24063592.148                          41.600
  20734023.070                          50.000
  23057242.117                          46.600
  20138208.195                          50.900
  20653235.727                          48.600
  21721992.422                          47.400
  22161411.070                          48.500
  21776902.539                          45.500
  21492063.164                          42.500
  22174728.797                          45.000
  20996391.391                          47.800
  20009803.984                          
 19  1 17  8 57 15.0000000  0 17E01E04E05E09E12G06G13G15G17G19G28G30
                                R04R13R17R23R24
  27879784.555                          38.900
  27053212.078                          44.200
  26158688.523                          44.100
  22961586.078                          48.300
  23144160.172                          45.000
  24055992.961                          41.700
  20732661.438                          49.600
  23051133.109                          46.000
  20139197.195                          50.800
  20650087.539                          47.500
  21727962.156                          46.600
  22165352.258                          49.300
  21779383.578                          45.200
  21493007.508                          41.800
  22162877.922                          44.600
  21001440.781                          47.400
  20004785.813                          
 19  1 17  8 57 30.0000000  0 16E04E05E09E12G06G13G15G17G19G28G30R04
                                R13R17R23R24
  27061003.445                          44.200
  26157207.266                          44.800
  22966494.250                          48.200
  23138055.016                          45.100
  24048389.156                          40.800
  20731327.352                          50.400
  23045044.289                          46.200
  20140216.172                          50.900
  20646964.969                          48.100
  21733934.313                          47.000
  22169306.063                          48.200
  21781895.219                          45.500
  21493954.617                          42.000
  22151033.023                          45.000
  21006523.734                          46.800
  19999799.508                          
 19  1 17  8 57 45.0000000  0 17E01E04E05E09E12G06G13G15G17G19G28G30
                                R04R13R17R23R24
  27886082.063                          38.900
  27068791.852                          43.300
  26155743.742                          43.700
  22971414.234                          48.200
  23131960.703                          44.900
  24040780.695                          40.900
  20730020.523                          49.800
  23038975.289                          45.500
  20141264.625                          51.800
  20643868.781                          47.600
  21739908.578                          46.600
  22173274.492                          49.200
  21784436.352                          46.400
  21494903.445                          41.600
  22139195.797                          44.700
  21011641.141                          47.500
  19994847.594                          
 19  1 17  8 58  0.0000000  0 17E01E04E05E09E12G06G13G15G17G19G28G30
                                R04R13R17R23R24
  27889228.922                          39.500
  27076576.852                          43.600
  26154297.961                          44.300
  22976346.180                          48.000
  23125876.805                          45.500
  24033167.539                          41.000
  20728740.766                          50.100
  23032928.352                          46.700
  20142342.547                          51.800
  20640797.367                          47.600
  21745886.453                          47.000
  22177254.109                          48.800
  21787006.398                          46.200
  21495858.063                          43.000
  22127368.430                          45.100
  21016791.805                          47.600
  19989929.531                          
 19  1 17  8 58 15.0000000  0 16E04E05E09E12G06G13G15G17G19G28G30R04
                                R13R17R23R24
  27084359.469                          43.300
  26152869.500                          43.900
  22981290.125                          48.000
  23119803.359                          45.500
  24025549.164                          41.400
  20727487.516                          49.400
  23026900.633                          46.100
  20143450.766                          51.400
  20637752.508                          48.100
  21751865.992                          46.200
  22181248.000                          49.900
  21789604.563                          46.400
  21496815.531                          43.000
  22115546.711                          44.900
  21021976.797                          47.300
  19985044.836                          
 19  1 17  8 58 30.0000000  0 16E04E05E09E12G06G13G15G17G19G28G30R04
                                R13R17R23R24
  27092138.977                          43.600
  26151459.367                          42.700
  22986245.938                          47.000
  23113740.641                          44.900
  24017927.836                          41.800
  20726262.984                          49.600
  23020893.000                          46.500
  20144588.930                          52.000
  20634732.805                          48.400
  21757847.977                          46.200
  22185255.156                          49.400
  21792233.914                          45.800
  21497774.641                          42.900
  22103732.891                          45.000
  21027193.836                          47.300
  19980195.367                          
 19  1 17  8 58 45.0000000  0 17E04E05E09E12G06G07G13G15G17G19G28G30
                                R04R13R17R23R24
  27099915.664                          43.600
  26150068.070                          44.000
  22991214.211                          47.300
  23107688.984                          45.700
  24010299.797                          40.600
  24940194.531                          32.300
  20725066.375                          50.000
  23014905.672                          45.300
  20145756.211                          52.000
  20631738.578                          47.700
  21763833.203                          46.500
  22189273.852                          49.200
  21794892.094                          45.900
  21498739.531                          42.800
  22091929.289                          44.300
  21032447.930                          47.600
  19975377.922                          
 19  1 17  8 59  0.0000000  0 17E04E05E09E12G06G07G13G15G17G19G28G30
                                R04R13R17R23R24
  27107688.867                          43.900
  26148695.227                          43.800
  22996193.805                          46.800
  23101647.422                          45.100
  24002670.273                          42.500
  24947038.820                          33.300
  20723896.953                          49.400
  23008940.461                          45.400
  20146953.266                          52.300
  20628770.891                          47.800
  21769820.234                          46.100
  22193306.297                          49.900
  21797578.516                          45.700
  21499705.813                          42.100
  22080132.039                          45.000
  21037733.281                          48.100
  19970595.281                          
 19  1 17  8 59 15.0000000  0 17E04E05E09E12G06G07G13G15G17G19G28G30
                                R04R13R17R23R24
  27115458.914                          44.700
  26147339.047                          43.600
  23001185.555                          47.300
  23095617.055                          45.100
  23995035.375                          42.800
  24953894.609                          32.900
  20722754.859                          48.800
  23002996.523                          46.600
  20148180.867                          52.100
  20625827.805                          47.900
  21775809.117                          45.900
  22197351.250                          49.500
  21800293.594                          45.800
  21500676.492                          40.900
  22068343.922                          44.600
  21043051.867                          47.800
  19965847.977                          
 19  1 17  8 59 30.0000000  0 18E01E04E05E09E12G06G07G13G15G17G19G28
                                G30R04R13R17R23R24
  27908095.047                          38.400
  27123225.734                          43.800
  26146001.031                          43.600
  23006189.094                          47.300
  23089596.922                          45.600
  23987395.297                          43.600
  24960755.852                          34.400
  20721640.414                          50.000
  22997072.727                          46.700
  20149436.820                          51.900
  20622910.406                          47.600
  21781801.016                          45.700
  22201409.188                          49.200
  21803038.781                          46.400
  21501650.578                          41.800
  22056563.297                          45.200
  21048403.648                          47.300
  19961132.094                          
 19  1 17  8 59 45.0000000  0 18E01E04E05E09E12G06G07G13G15G17G19G28
                                G30R04R13R17R23R24
  27911236.414                          37.300
  27130989.141                          45.100
  26144681.195                          43.700
  23011204.211                          46.600
  23083588.203                          44.500
  23979750.570                          42.900
  24967623.563                          33.400
  20720553.469                          50.300
  22991169.031                          46.300
  20150722.852                          51.800
  20620019.859                          47.500
  21787795.000                          45.600
  22205480.383                          49.400
  21805811.328                          46.700
  21502629.883                          41.500
  22044791.711                          45.600
  21053790.000                          47.800
  19956451.125                          
 19  1 17  9  0  0.0000000  0 18E01E04E05E09E12G06G07G13G15G17G19G28
                                G30R04R13R17R23R24
  27914377.813                          37.600
  27138749.406                          44.600
  26143379.203                          43.500
  23016231.141                          46.700
  23077589.727                          44.500
  23972103.148                          43.000
  24974501.641                          32.600
  20719494.242                          49.500
  22985286.102                          46.300
  20152038.414                          51.300
  20617155.375                          47.200
  21793791.258                          45.700
  22209564.734                          47.900
  21808613.438                          46.500
  21503613.375                          42.300
  22033030.109                          46.300
  21059208.586                          47.400
  19951804.398                          
 19  1 17  9  0 15.0000000  0 18E01E04E05E09E12G06G07G13G15G17G19G28
                                G30R04R13R17R23R24
  27917518.891                          38.100
  27146506.523                          44.500
  26142095.617                          43.900
  23021269.789                          47.100
  23071602.164                          44.900
  23964451.430                          43.700
  24981386.250                          31.900
  20718461.406                          49.000
  22979424.289                          45.400
  20153382.797                          50.800
  20614315.063                          47.800
  21799790.555                          45.500
  22213661.750                          48.700
  21811444.773                          46.000
  21504597.984                          42.500
  22021274.453                          46.000
  21064661.094                          47.600
  19947193.102                          
 19  1 17  9  0 30.0000000  0 17E04E05E09E12G06G07G13G15G17G19G28G30
                                R04R13R17R23R24
  27154260.086                          44.600
  26140829.875                          43.400
  23026320.250                          47.100
  23065626.203                          44.700
  23956795.016                          43.300
  24988276.992                          29.600
  20717457.477                          48.900
  22973583.828                          45.500
  20154757.766                          52.100
  20611501.352                          47.600
  21805790.930                          46.000
  22217772.789                          47.800
  21814304.773                          46.100
  21505586.375                          42.700
  22009529.172                          45.900
  21070147.758                          48.000
  19942614.414                          
 19  1 17  9  0 45.0000000  0 17E04E05E09E12G06G07G13G15G17G19G28G30
                                R04R13R17R23R24
  27162010.047                          44.800
  26139582.391                          43.700
  23031381.906                          47.700
  23059661.234                          45.400
  23949135.883                          43.700
  24995178.758                          28.600
  20716480.672                          50.100
  22967765.211                          46.200
  20156161.492                          51.900
  20608713.977                          47.500
  21811794.039                          45.000
  22221895.719                          47.300
  21817191.141                          45.600
  21506581.117                          42.000
  21997792.828                          46.200
  21075665.961                          47.600
  19938071.023                          
 19  1 17  9  1  0.0000000  0 19E01E04E05E09E12G06G07G13G15G17G19G28
                                G30R04R13R15R17R23R24
  27926936.633                          37.700
  27169757.289                          44.400
  26138353.828                          44.900
  23036455.469                          47.500
  23053707.094                          45.000
  23941472.828                          43.600
  25002090.719                          30.700
  20715531.313                          50.200
  22961966.000                          46.300
  20157594.906                          50.900
  20605953.188                          48.600
  21817799.289                          44.600
  22226031.656                          47.000
  21820108.289                          45.600
  21507576.453                          41.500
  24159963.352                          33.400
  21986065.578                          45.400
  21081218.461                          47.800
  19933561.953                          
 19  1 17  9  1 15.0000000  0 17E01E04E05E09E12G06G07G13G15G17G19G28
                                G30R04R13R23R24
  27930074.070                          36.700
  27177500.563                          45.200
  26137142.094                          45.500
  23041540.133                          46.800
  23047763.930                          44.400
  23933804.625                          43.300
  25009006.164                          32.300
  20714610.063                          50.200
  22956188.766                          46.300
  20159057.859                          50.700
  20603216.859                          48.200
  21823806.977                          43.900
  22230181.719                          48.400
  21823055.398                          46.500
  21508577.500                          42.100
  21086803.734                          47.600
  19929087.758                          
 19  1 17  9  1 30.0000000  0 17E04E05E09E12G06G07G13G15G17G19G28G30
                                R04R13R17R23R24
  27185239.992                          45.100
  26135947.898                          44.600
  23046635.992                          46.900
  23041832.031                          44.900
  23926134.648                          44.400
  25015931.250                          30.300
  20713715.391                          49.900
  22950431.500                          45.500
  20160550.336                          51.600
  20600506.633                          48.600
  21829816.328                          43.700
  22234344.750                          48.900
  21826028.789                          46.000
  21509582.445                          42.600
  21962637.273                          46.000
  21092422.180                          48.000
