% program   : RTKPOST ver.2.4.2
% inp file  : D:\Google Drive\UERJ\_Projeto Final\20190115_Marco 91500 IBGE\20190115_LevantamentoCompleto.19o
% inp file  : D:\Google Drive\UERJ\_Projeto Final\20190115_Marco 91500 IBGE\brdm0150.19p
% obs start : 2019/01/15 09:25:22.0 GPST (week2036 206722.0s)
% obs end   : 2019/01/15 10:25:42.0 GPST (week2036 210342.0s)
% pos mode  : single
% elev mask : 10.0 deg
% ionos opt : broadcast
% tropo opt : saastamoinen
% ephemeris : broadcast
% navi sys  : gps glonass galileo
%
% (x/y/z-ecef=WGS84,Q=1:fix,2:float,3:sbas,4:dgps,5:single,6:ppp,ns=# of satellites)
%  GPST                      x-ecef(m)      y-ecef(m)      z-ecef(m)   Q  ns   sdx(m)   sdy(m)   sdz(m)  sdxy(m)  sdyz(m)  sdzx(m) age(s)  ratio
2019/01/15 09:25:25.000   4280222.5090  -4034430.1014  -2458262.3421   5  10   4.2572   4.5978   3.0893  -3.6784   0.6496  -1.9908   0.00    0.0
2019/01/15 09:25:29.000   4280215.0425  -4034413.3616  -2458283.5219   5  10   4.2593   4.5988   3.0893  -3.6806   0.6529  -1.9907   0.00    0.0
2019/01/15 09:25:32.000   4280200.2375  -4034401.1293  -2458265.2962   5  10   4.2609   4.5995   3.0894  -3.6823   0.6554  -1.9907   0.00    0.0
2019/01/15 09:25:36.000   4280233.9112  -4034433.9084  -2458275.4050   5  10   4.2629   4.6004   3.0895  -3.6845   0.6588  -1.9906   0.00    0.0
2019/01/15 09:25:37.000   4280226.9803  -4034425.2735  -2458291.2356   5  10   4.2635   4.6007   3.0895  -3.6850   0.6596  -1.9906   0.00    0.0
2019/01/15 09:25:42.000   4280221.7573  -4034420.3560  -2458268.6346   5  11   3.9778   3.5009   2.9346  -2.9992   1.8239  -2.3349   0.00    0.0
2019/01/15 09:25:43.000   4280213.1993  -4034411.9010  -2458270.9292   5  11   3.9781   3.5010   2.9347  -2.9995   1.8240  -2.3350   0.00    0.0
2019/01/15 09:25:44.000   4280232.6921  -4034431.9868  -2458283.5837   5  11   3.9784   3.5010   2.9348  -2.9997   1.8242  -2.3350   0.00    0.0
2019/01/15 09:25:47.000   4280216.1098  -4034415.8111  -2458266.1726   5  11   3.9793   3.5012   2.9352  -3.0005   1.8246  -2.3351   0.00    0.0
2019/01/15 09:25:48.000   4280212.7438  -4034413.6266  -2458266.8205   5  11   3.9796   3.5012   2.9353  -3.0008   1.8247  -2.3351   0.00    0.0
2019/01/15 09:25:50.000   4280211.5461  -4034406.1452  -2458255.6718   5  13   3.9551   3.3284   2.8715  -2.9678   1.9970  -2.3523   0.00    0.0
2019/01/15 09:25:54.000   4280220.7686  -4034411.5988  -2458266.4776   5  13   3.9561   3.3283   2.8722  -2.9685   1.9974  -2.3526   0.00    0.0
2019/01/15 09:25:55.000   4280212.5887  -4034406.1518  -2458272.8113   5  13   3.9564   3.3283   2.8724  -2.9686   1.9975  -2.3527   0.00    0.0
2019/01/15 09:25:57.000   4280227.3509  -4034414.1377  -2458283.5986   5  13   3.9569   3.3283   2.8727  -2.9689   1.9977  -2.3529   0.00    0.0
2019/01/15 09:26:15.000   4280226.7492  -4034421.3508  -2458268.4923   5  13   3.9614   3.3282   2.8756  -2.9718   1.9995  -2.3544   0.00    0.0
2019/01/15 09:26:16.000   4280224.4209  -4034420.5008  -2458268.1729   5  12   4.2118   3.7947   4.2050  -3.3821   3.0969  -3.1513   0.00    0.0
2019/01/15 09:26:17.000   4280221.5308  -4034414.2820  -2458264.5872   5  12   4.2118   3.7944   4.2048  -3.3819   3.0965  -3.1508   0.00    0.0
2019/01/15 09:26:18.000   4280220.6399  -4034416.4781  -2458267.8803   5  12   4.2117   3.7941   4.2045  -3.3817   3.0962  -3.1503   0.00    0.0
2019/01/15 09:26:22.000   4280213.2242  -4034413.4585  -2458279.2559   5  12   4.2115   3.7930   4.2034  -3.3809   3.0947  -3.1485   0.00    0.0
2019/01/15 09:26:29.000   4280221.4305  -4034423.4723  -2458264.1099   5  12   4.2112   3.7911   4.2015  -3.3794   3.0921  -3.1452   0.00    0.0
2019/01/15 09:26:32.000   4280226.6783  -4034424.1604  -2458269.3207   5  12   4.2110   3.7903   4.2007  -3.3788   3.0910  -3.1438   0.00    0.0
2019/01/15 09:26:34.000   4280221.8589  -4034416.3515  -2458266.6611   5  12   4.2109   3.7897   4.2002  -3.3784   3.0902  -3.1428   0.00    0.0
2019/01/15 09:26:36.000   4280227.6387  -4034423.9685  -2458266.2955   5  12   4.2108   3.7892   4.1997  -3.3780   3.0895  -3.1419   0.00    0.0
2019/01/15 09:26:37.000   4280225.7491  -4034426.4826  -2458275.5807   5  12   4.2108   3.7889   4.1994  -3.3778   3.0891  -3.1414   0.00    0.0
2019/01/15 09:26:40.000   4280233.3232  -4034428.6085  -2458289.8492   5  12   4.2106   3.7881   4.1986  -3.3771   3.0880  -3.1400   0.00    0.0
2019/01/15 09:26:41.000   4280212.7349  -4034413.8752  -2458259.2524   5  12   4.2106   3.7878   4.1983  -3.3769   3.0876  -3.1395   0.00    0.0
2019/01/15 09:26:46.000   4280237.1822  -4034427.9607  -2458286.9804   5  12   4.2103   3.7864   4.1969  -3.3759   3.0858  -3.1371   0.00    0.0
2019/01/15 09:26:47.000   4280232.2899  -4034428.9696  -2458280.5080   5  12   4.2103   3.7862   4.1966  -3.3757   3.0854  -3.1366   0.00    0.0
2019/01/15 09:26:54.000   4280236.4671  -4034432.2806  -2458284.7927   5  12   4.2099   3.7842   4.1947  -3.3742   3.0828  -3.1333   0.00    0.0
2019/01/15 09:26:57.000   4280221.1757  -4034417.2026  -2458269.4279   5  12   4.2098   3.7834   4.1939  -3.3736   3.0817  -3.1319   0.00    0.0
2019/01/15 09:27:01.000   4280226.1820  -4034418.9210  -2458271.7479   5  12   4.2096   3.7823   4.1928  -3.3728   3.0802  -3.1300   0.00    0.0
2019/01/15 09:27:02.000   4280214.0671  -4034418.7757  -2458262.5860   5  12   4.2095   3.7821   4.1925  -3.3726   3.0798  -3.1295   0.00    0.0
2019/01/15 09:27:04.000   4280209.4517  -4034411.5632  -2458251.9901   5  12   4.2094   3.7815   4.1919  -3.3722   3.0791  -3.1286   0.00    0.0
2019/01/15 09:27:05.000   4280217.7628  -4034423.8231  -2458272.9641   5  12   4.2094   3.7813   4.1917  -3.3719   3.0787  -3.1281   0.00    0.0
2019/01/15 09:27:09.000   4280210.8366  -4034411.0571  -2458266.2198   5  12   4.2092   3.7802   4.1905  -3.3711   3.0772  -3.1262   0.00    0.0
2019/01/15 09:27:13.000   4280216.4832  -4034411.9608  -2458255.0996   5  12   4.2090   3.7791   4.1894  -3.3703   3.0757  -3.1242   0.00    0.0
2019/01/15 09:27:14.000   4280215.8493  -4034417.4514  -2458269.4544   5  12   4.2090   3.7788   4.1891  -3.3701   3.0754  -3.1238   0.00    0.0
2019/01/15 09:27:18.000   4280228.5317  -4034418.2485  -2458274.2083   5  12   4.2088   3.7777   4.1880  -3.3693   3.0739  -3.1218   0.00    0.0
2019/01/15 09:27:20.000   4280205.1676  -4034401.0565  -2458261.4935   5  12   4.2087   3.7772   4.1874  -3.3689   3.0731  -3.1209   0.00    0.0
2019/01/15 09:27:23.000   4280205.1342  -4034404.1213  -2458265.3629   5  12   4.2085   3.7764   4.1866  -3.3682   3.0720  -3.1194   0.00    0.0
2019/01/15 09:27:27.000   4280214.0949  -4034408.8878  -2458258.7450   5  12   4.2084   3.7753   4.1855  -3.3674   3.0705  -3.1175   0.00    0.0
2019/01/15 09:27:40.000   4280218.4775  -4034410.9834  -2458280.7317   5  12   4.2078   3.7718   4.1817  -3.3647   3.0656  -3.1112   0.00    0.0
2019/01/15 09:27:44.000   4280233.4302  -4034423.0107  -2458277.8139   5  12   4.2076   3.7707   4.1806  -3.3639   3.0641  -3.1092   0.00    0.0
2019/01/15 09:27:47.000   4280233.1819  -4034416.2256  -2458291.4114   5  12   4.2074   3.7699   4.1797  -3.3633   3.0630  -3.1078   0.00    0.0
2019/01/15 09:27:54.000   4280229.4264  -4034421.3956  -2458272.0235   5  12   4.2071   3.7681   4.1777  -3.3619   3.0603  -3.1044   0.00    0.0
2019/01/15 09:27:57.000   4280216.2589  -4034417.6555  -2458275.8647   5  12   4.2070   3.7673   4.1768  -3.3613   3.0592  -3.1029   0.00    0.0
2019/01/15 09:28:05.000   4280213.1229  -4034414.7763  -2458263.0833   5  12   4.2066   3.7651   4.1744  -3.3596   3.0562  -3.0990   0.00    0.0
2019/01/15 09:28:08.000   4280213.5384  -4034411.9862  -2458265.6975   5  12   4.2065   3.7643   4.1735  -3.3590   3.0550  -3.0975   0.00    0.0
2019/01/15 09:28:20.000   4280224.8654  -4034424.4777  -2458259.2087   5  12   4.2060   3.7612   4.1700  -3.3566   3.0505  -3.0916   0.00    0.0
2019/01/15 09:28:23.000   4280226.1955  -4034417.4663  -2458258.4804   5  12   4.2059   3.7604   4.1691  -3.3560   3.0493  -3.0901   0.00    0.0
2019/01/15 09:28:26.000   4280234.7911  -4034430.7843  -2458272.1819   5  12   4.2057   3.7596   4.1682  -3.3554   3.0482  -3.0886   0.00    0.0
2019/01/15 09:28:32.000   4280205.1160  -4034401.3885  -2458260.0157   5  12   4.2055   3.7580   4.1664  -3.3542   3.0459  -3.0857   0.00    0.0
2019/01/15 09:28:36.000   4280228.3790  -4034418.5219  -2458272.4044   5  12   4.2053   3.7570   4.1652  -3.3534   3.0444  -3.0837   0.00    0.0
2019/01/15 09:28:39.000   4280232.4287  -4034424.9866  -2458276.8214   5  12   4.2052   3.7562   4.1643  -3.3528   3.0432  -3.0822   0.00    0.0
2019/01/15 09:28:43.000   4280234.8714  -4034421.6094  -2458275.9938   5  12   4.2051   3.7551   4.1630  -3.3520   3.0417  -3.0802   0.00    0.0
2019/01/15 09:28:47.000   4280224.1081  -4034418.3893  -2458272.1197   5  12   4.2049   3.7541   4.1618  -3.3512   3.0402  -3.0782   0.00    0.0
2019/01/15 09:28:51.000   4280224.0734  -4034413.9921  -2458274.5941   5  12   4.2047   3.7530   4.1606  -3.3504   3.0387  -3.0762   0.00    0.0
2019/01/15 09:28:54.000   4280244.3065  -4034433.5615  -2458297.0946   5  12   4.2046   3.7523   4.1597  -3.3498   3.0375  -3.0747   0.00    0.0
2019/01/15 09:28:55.000   4280206.1506  -4034405.4912  -2458276.4833   5  12   4.2046   3.7520   4.1594  -3.3496   3.0371  -3.0742   0.00    0.0
2019/01/15 09:28:56.000   4280217.8175  -4034422.3950  -2458275.5157   5  12   4.2045   3.7517   4.1591  -3.3494   3.0367  -3.0737   0.00    0.0
2019/01/15 09:28:57.000   4280215.6002  -4034422.5291  -2458271.6220   5  12   4.2045   3.7515   4.1588  -3.3492   3.0364  -3.0732   0.00    0.0
2019/01/15 09:28:58.000   4280224.7567  -4034425.4928  -2458276.2236   5  12   4.2045   3.7512   4.1585  -3.3490   3.0360  -3.0727   0.00    0.0
2019/01/15 09:29:00.000   4280219.2612  -4034416.5296  -2458269.2459   5  12   4.2044   3.7507   4.1578  -3.3486   3.0352  -3.0717   0.00    0.0
2019/01/15 09:29:02.000   4280206.6892  -4034401.9528  -2458268.7290   5  12   4.2043   3.7502   4.1572  -3.3482   3.0345  -3.0707   0.00    0.0
2019/01/15 09:29:42.000   4280223.8618  -4034419.4463  -2458271.4334   5  12   4.2028   3.7399   4.1447  -3.3403   3.0191  -3.0505   0.00    0.0
2019/01/15 09:29:43.000   4280214.7522  -4034413.5574  -2458268.4101   5  12   4.2028   3.7396   4.1444  -3.3401   3.0187  -3.0500   0.00    0.0
2019/01/15 09:29:44.000   4280215.4431  -4034411.0849  -2458258.8841   5  12   4.2028   3.7394   4.1440  -3.3399   3.0183  -3.0495   0.00    0.0
2019/01/15 09:29:53.000   4280222.0641  -4034419.1759  -2458257.1307   5  12   4.2025   3.7371   4.1412  -3.3381   3.0148  -3.0449   0.00    0.0
2019/01/15 09:29:55.000   4280226.3136  -4034410.9892  -2458253.8108   5  12   4.2024   3.7366   4.1405  -3.3377   3.0141  -3.0439   0.00    0.0
2019/01/15 09:29:59.000   4280231.7975  -4034431.1362  -2458271.1418   5  12   4.2023   3.7356   4.1392  -3.3369   3.0125  -3.0419   0.00    0.0
2019/01/15 09:30:00.000   4280219.7386  -4034420.6206  -2458259.5699   5  12   4.2022   3.7353   4.1389  -3.3367   3.0121  -3.0414   0.00    0.0
2019/01/15 09:30:01.000   4280223.3661  -4034413.1197  -2458254.4876   5  12   4.2022   3.7351   4.1386  -3.3365   3.0118  -3.0408   0.00    0.0
2019/01/15 09:30:03.000   4280225.7726  -4034419.7026  -2458275.5418   5  12   4.2021   3.7346   4.1380  -3.3362   3.0110  -3.0398   0.00    0.0
2019/01/15 09:30:04.000   4280222.3089  -4034415.1501  -2458255.3723   5  12   4.2021   3.7343   4.1376  -3.3360   3.0106  -3.0393   0.00    0.0
2019/01/15 09:30:18.000   4280221.3008  -4034419.6654  -2458262.8915   5  12   4.2017   3.7308   4.1331  -3.3332   3.0052  -3.0321   0.00    0.0
2019/01/15 09:30:22.000   4280220.6945  -4034419.3021  -2458262.0125   5  12   4.2015   3.7298   4.1318  -3.3325   3.0036  -3.0301   0.00    0.0
2019/01/15 09:30:25.000   4280211.2931  -4034408.1302  -2458255.1563   5  12   4.2015   3.7290   4.1308  -3.3319   3.0025  -3.0285   0.00    0.0
2019/01/15 09:30:26.000   4280211.7202  -4034412.8784  -2458251.4254   5  12   4.2014   3.7288   4.1305  -3.3317   3.0021  -3.0280   0.00    0.0
2019/01/15 09:30:27.000   4280214.3645  -4034415.2989  -2458263.2617   5  12   4.2014   3.7285   4.1302  -3.3315   3.0017  -3.0275   0.00    0.0
2019/01/15 09:30:29.000   4280216.5639  -4034405.0767  -2458268.7822   5  12   4.2013   3.7280   4.1295  -3.3311   3.0009  -3.0265   0.00    0.0
2019/01/15 09:30:31.000   4280225.8758  -4034420.9717  -2458269.4119   5  12   4.2013   3.7275   4.1288  -3.3307   3.0001  -3.0254   0.00    0.0
2019/01/15 09:30:33.000   4280218.1361  -4034414.7961  -2458264.9166   5  12   4.2012   3.7270   4.1282  -3.3304   2.9994  -3.0244   0.00    0.0
2019/01/15 09:30:40.000   4280212.5105  -4034394.4859  -2458254.3878   5  12   4.2010   3.7253   4.1259  -3.3290   2.9966  -3.0208   0.00    0.0
2019/01/15 09:30:44.000   4280216.4089  -4034404.6794  -2458263.8804   5  12   4.2009   3.7243   4.1246  -3.3282   2.9951  -3.0187   0.00    0.0
2019/01/15 09:30:46.000   4280211.0434  -4034414.7998  -2458267.1446   5  12   4.2008   3.7238   4.1239  -3.3279   2.9943  -3.0177   0.00    0.0
2019/01/15 09:30:50.000   4280216.3402  -4034415.6220  -2458280.3353   5  12   4.2007   3.7228   4.1226  -3.3271   2.9928  -3.0156   0.00    0.0
2019/01/15 09:30:53.000   4280217.6627  -4034413.9400  -2458282.3007   5  12   4.2007   3.7221   4.1216  -3.3265   2.9916  -3.0141   0.00    0.0
2019/01/15 09:30:54.000   4280223.1293  -4034413.7100  -2458275.1377   5  12   4.2006   3.7218   4.1212  -3.3263   2.9912  -3.0135   0.00    0.0
2019/01/15 09:30:55.000   4280201.9284  -4034403.8684  -2458264.4167   5  12   4.2006   3.7216   4.1209  -3.3261   2.9908  -3.0130   0.00    0.0
2019/01/15 09:31:01.000   4280229.2196  -4034420.1694  -2458278.5401   5  12   4.2004   3.7201   4.1189  -3.3250   2.9885  -3.0099   0.00    0.0
2019/01/15 09:31:05.000   4280213.1225  -4034406.0930  -2458245.1846   5  12   4.2003   3.7191   4.1176  -3.3242   2.9869  -3.0078   0.00    0.0
2019/01/15 09:31:06.000   4280225.8575  -4034418.8949  -2458270.8761   5  12   4.2003   3.7189   4.1172  -3.3241   2.9865  -3.0073   0.00    0.0
2019/01/15 09:31:29.000   4280221.2162  -4034421.9573  -2458274.3697   5  12   4.1997   3.7133   4.1094  -3.3197   2.9776  -2.9953   0.00    0.0
2019/01/15 09:32:01.000   4280213.8886  -4034415.8457  -2458254.6869   5  12   4.1991   3.7055   4.0985  -3.3138   2.9650  -2.9784   0.00    0.0
2019/01/15 09:32:11.000   4280227.3119  -4034434.4856  -2458273.8646   5  12   4.1989   3.7032   4.0950  -3.3119   2.9611  -2.9731   0.00    0.0
2019/01/15 09:32:18.000   4280226.1730  -4034429.6065  -2458263.4933   5  12   4.1988   3.7015   4.0925  -3.3107   2.9584  -2.9694   0.00    0.0
2019/01/15 09:32:19.000   4280218.9707  -4034414.1667  -2458258.8445   5  12   4.1987   3.7013   4.0922  -3.3105   2.9580  -2.9689   0.00    0.0
2019/01/15 09:32:21.000   4280225.2873  -4034424.2784  -2458266.3156   5  12   4.1987   3.7008   4.0915  -3.3101   2.9572  -2.9678   0.00    0.0
2019/01/15 09:32:26.000   4280220.3349  -4034418.7929  -2458262.9847   5  12   4.1986   3.6996   4.0898  -3.3092   2.9552  -2.9652   0.00    0.0
2019/01/15 09:32:27.000   4280229.6732  -4034422.0236  -2458270.2030   5  12   4.1986   3.6994   4.0894  -3.3090   2.9548  -2.9646   0.00    0.0
2019/01/15 09:32:28.000   4280229.0676  -4034430.4105  -2458265.3774   5  12   4.1986   3.6991   4.0890  -3.3088   2.9544  -2.9641   0.00    0.0
2019/01/15 09:32:29.000   4280223.5583  -4034425.4858  -2458262.2444   5  12   4.1986   3.6989   4.0887  -3.3087   2.9541  -2.9636   0.00    0.0
2019/01/15 09:32:54.000   4280200.2477  -4034410.2988  -2458256.2592   5  12   4.1982   3.6931   4.0799  -3.3041   2.9442  -2.9502   0.00    0.0
2019/01/15 09:33:05.000   4280209.4988  -4034404.9377  -2458239.9501   5  12   4.1981   3.6905   4.0759  -3.3022   2.9399  -2.9443   0.00    0.0
2019/01/15 09:33:06.000   4280209.1903  -4034408.3602  -2458237.9081   5  12   4.1981   3.6903   4.0756  -3.3020   2.9395  -2.9438   0.00    0.0
2019/01/15 09:33:09.000   4280210.4688  -4034411.8099  -2458259.8089   5  12   4.1980   3.6896   4.0745  -3.3015   2.9383  -2.9422   0.00    0.0
2019/01/15 09:33:10.000   4280221.5932  -4034421.8029  -2458274.1583   5  12   4.1980   3.6893   4.0742  -3.3013   2.9379  -2.9416   0.00    0.0
2019/01/15 09:33:17.000   4280219.5977  -4034419.4792  -2458272.8054   5  12   4.1980   3.6877   4.0716  -3.3000   2.9352  -2.9379   0.00    0.0
2019/01/15 09:33:37.000   4280213.8398  -4034419.3186  -2458255.9874   5  12   4.1978   3.6832   4.0644  -3.2965   2.9273  -2.9271   0.00    0.0
2019/01/15 09:33:51.000   4280214.3831  -4034402.3059  -2458254.2033   5  12   4.1977   3.6800   4.0593  -3.2941   2.9218  -2.9195   0.00    0.0
2019/01/15 09:33:59.000   4280219.8285  -4034404.2064  -2458276.6905   5  12   4.1977   3.6782   4.0564  -3.2927   2.9186  -2.9152   0.00    0.0
2019/01/15 09:34:03.000   4280188.3812  -4034381.7873  -2458236.1089   5  12   4.1977   3.6773   4.0550  -3.2920   2.9171  -2.9130   0.00    0.0
2019/01/15 09:34:32.000   4280209.4359  -4034395.2184  -2458255.0393   5  11   4.2432   3.7569   4.0912  -3.3617   2.8194  -2.8303   0.00    0.0
2019/01/15 09:34:46.000   4280216.6892  -4034402.5879  -2458269.4009   5  12   4.1976   3.6678   4.0391  -3.2847   2.9001  -2.8896   0.00    0.0
2019/01/15 09:34:47.000   4280229.7927  -4034419.3086  -2458272.6114   5  12   4.1976   3.6675   4.0387  -3.2845   2.8997  -2.8890   0.00    0.0
2019/01/15 09:34:51.000   4280216.8760  -4034400.0096  -2458272.0763   5  12   4.1976   3.6667   4.0372  -3.2839   2.8981  -2.8869   0.00    0.0
2019/01/15 09:34:53.000   4280217.2239  -4034412.6468  -2458272.3818   5  12   4.1976   3.6662   4.0365  -3.2835   2.8974  -2.8858   0.00    0.0
2019/01/15 09:34:54.000   4280211.9012  -4034412.3363  -2458270.0370   5  12   4.1976   3.6660   4.0361  -3.2834   2.8970  -2.8852   0.00    0.0
2019/01/15 09:34:55.000   4280211.2239  -4034409.2901  -2458272.6771   5  12   4.1977   3.6658   4.0357  -3.2832   2.8966  -2.8847   0.00    0.0
2019/01/15 09:35:06.000   4280217.3960  -4034419.0013  -2458268.7313   5  12   4.1977   3.6634   4.0316  -3.2814   2.8922  -2.8786   0.00    0.0
2019/01/15 09:35:07.000   4280223.8635  -4034425.2727  -2458270.5631   5  12   4.1977   3.6632   4.0312  -3.2812   2.8918  -2.8781   0.00    0.0
2019/01/15 09:35:09.000   4280203.8605  -4034410.0714  -2458249.6681   5  12   4.1977   3.6628   4.0305  -3.2809   2.8911  -2.8770   0.00    0.0
2019/01/15 09:35:21.000   4280229.4451  -4034424.9320  -2458269.3623   5  12   4.1978   3.6602   4.0260  -3.2789   2.8863  -2.8704   0.00    0.0
2019/01/15 09:35:26.000   4280234.6772  -4034425.3112  -2458271.6355   5  12   4.1978   3.6591   4.0241  -3.2781   2.8843  -2.8676   0.00    0.0
2019/01/15 09:35:39.000   4280220.2910  -4034407.6268  -2458258.7631   5  12   4.1979   3.6563   4.0192  -3.2760   2.8792  -2.8605   0.00    0.0
2019/01/15 09:35:46.000   4280213.3527  -4034404.6955  -2458263.0176   5  12   4.1980   3.6549   4.0165  -3.2749   2.8765  -2.8566   0.00    0.0
2019/01/15 09:35:48.000   4280216.7832  -4034411.7093  -2458271.4256   5  12   4.1980   3.6544   4.0157  -3.2745   2.8757  -2.8555   0.00    0.0
2019/01/15 09:36:26.000   4280205.9955  -4034386.3147  -2458256.5365   5  12   4.1986   3.6465   4.0012  -3.2685   2.8607  -2.8345   0.00    0.0
2019/01/15 09:36:33.000   4280208.3879  -4034423.4941  -2458279.4363   5  12   4.1987   3.6451   3.9985  -3.2674   2.8580  -2.8306   0.00    0.0
2019/01/15 09:36:34.000   4280205.0596  -4034410.1738  -2458271.5926   5  12   4.1987   3.6449   3.9981  -3.2673   2.8576  -2.8300   0.00    0.0
2019/01/15 09:36:38.000   4280226.6004  -4034423.6909  -2458272.4614   5  12   4.1988   3.6440   3.9966  -3.2667   2.8560  -2.8278   0.00    0.0
2019/01/15 09:36:43.000   4280227.8262  -4034421.5782  -2458264.2268   5  12   4.1989   3.6430   3.9947  -3.2659   2.8540  -2.8250   0.00    0.0
2019/01/15 09:37:16.000   4280222.1612  -4034424.1913  -2458278.1030   5  12   4.1996   3.6363   3.9818  -3.2609   2.8411  -2.8066   0.00    0.0
2019/01/15 09:37:18.000   4280221.5532  -4034422.2628  -2458277.4805   5  12   4.1996   3.6359   3.9811  -3.2606   2.8403  -2.8055   0.00    0.0
2019/01/15 09:37:19.000   4280221.0917  -4034410.5126  -2458271.4769   5  12   4.1997   3.6358   3.9807  -3.2604   2.8399  -2.8050   0.00    0.0
2019/01/15 09:37:24.000   4280225.8163  -4034434.5851  -2458269.7110   5  12   4.1998   3.6348   3.9787  -3.2597   2.8379  -2.8022   0.00    0.0
2019/01/15 09:37:29.000   4280237.1883  -4034424.1243  -2458282.6794   5  12   4.1999   3.6338   3.9768  -3.2589   2.8360  -2.7994   0.00    0.0
2019/01/15 09:37:33.000   4280229.1136  -4034429.8461  -2458269.0758   5  12   4.2000   3.6330   3.9752  -3.2583   2.8344  -2.7971   0.00    0.0
2019/01/15 09:37:35.000   4280227.9911  -4034416.5457  -2458269.6653   5  12   4.2001   3.6326   3.9744  -3.2580   2.8336  -2.7960   0.00    0.0
2019/01/15 09:37:36.000   4280230.3865  -4034419.6983  -2458270.5198   5  12   4.2001   3.6324   3.9740  -3.2579   2.8332  -2.7955   0.00    0.0
2019/01/15 09:37:37.000   4280225.0740  -4034424.9701  -2458269.1684   5  12   4.2001   3.6322   3.9736  -3.2577   2.8328  -2.7949   0.00    0.0
2019/01/15 09:37:41.000   4280229.8785  -4034417.9414  -2458272.7000   5  12   4.2002   3.6314   3.9721  -3.2571   2.8313  -2.7927   0.00    0.0
2019/01/15 09:37:42.000   4280225.0312  -4034416.4841  -2458265.9996   5  12   4.2003   3.6312   3.9717  -3.2570   2.8309  -2.7921   0.00    0.0
2019/01/15 09:37:44.000   4280228.9421  -4034414.9287  -2458258.6660   5  12   4.2003   3.6308   3.9709  -3.2567   2.8301  -2.7910   0.00    0.0
2019/01/15 09:37:45.000   4280227.1087  -4034417.4621  -2458266.0052   5  12   4.2004   3.6306   3.9705  -3.2565   2.8297  -2.7904   0.00    0.0
2019/01/15 09:37:47.000   4280218.6838  -4034416.4310  -2458266.3161   5  12   4.2004   3.6302   3.9697  -3.2563   2.8289  -2.7893   0.00    0.0
2019/01/15 09:37:52.000   4280227.0924  -4034418.0795  -2458258.0004   5  12   4.2006   3.6292   3.9678  -3.2555   2.8270  -2.7865   0.00    0.0
2019/01/15 09:38:17.000   4280222.8361  -4034420.6406  -2458269.7213   5  12   4.2014   3.6244   3.9579  -3.2519   2.8172  -2.7725   0.00    0.0
2019/01/15 09:38:20.000   4280227.6617  -4034422.8461  -2458264.1309   5  12   4.2015   3.6238   3.9567  -3.2515   2.8160  -2.7708   0.00    0.0
2019/01/15 09:38:22.000   4280234.2811  -4034419.6558  -2458273.3552   5  12   4.2015   3.6234   3.9559  -3.2512   2.8152  -2.7697   0.00    0.0
2019/01/15 09:38:28.000   4280225.4968  -4034424.1389  -2458263.1015   5  12   4.2017   3.6223   3.9535  -3.2503   2.8129  -2.7663   0.00    0.0
2019/01/15 09:38:33.000   4280207.6994  -4034413.1608  -2458257.8753   5  12   4.2019   3.6213   3.9516  -3.2496   2.8109  -2.7635   0.00    0.0
2019/01/15 09:38:36.000   4280225.7857  -4034421.4665  -2458267.6851   5  12   4.2020   3.6208   3.9504  -3.2492   2.8098  -2.7618   0.00    0.0
2019/01/15 09:38:39.000   4280211.6971  -4034414.9957  -2458279.1523   5  12   4.2021   3.6202   3.9492  -3.2488   2.8086  -2.7601   0.00    0.0
2019/01/15 09:38:43.000   4280216.3419  -4034409.8183  -2458275.4356   5  12   4.2023   3.6194   3.9476  -3.2482   2.8070  -2.7579   0.00    0.0
2019/01/15 09:38:46.000   4280231.2907  -4034423.5873  -2458279.1072   5  12   4.2024   3.6189   3.9464  -3.2478   2.8059  -2.7562   0.00    0.0
2019/01/15 09:38:49.000   4280231.5455  -4034424.4994  -2458276.9284   5  12   4.2025   3.6183   3.9452  -3.2474   2.8047  -2.7545   0.00    0.0
2019/01/15 09:38:58.000   4280215.6282  -4034417.9023  -2458274.3148   5  12   4.2029   3.6166   3.9416  -3.2461   2.8012  -2.7494   0.00    0.0
2019/01/15 09:39:02.000   4280218.5860  -4034416.3187  -2458266.2668   5  12   4.2030   3.6159   3.9400  -3.2456   2.7996  -2.7472   0.00    0.0
2019/01/15 09:39:09.000   4280226.2258  -4034422.0842  -2458272.2610   5  12   4.2033   3.6146   3.9372  -3.2446   2.7969  -2.7432   0.00    0.0
2019/01/15 09:39:12.000   4280234.8664  -4034420.9932  -2458272.6796   5  12   4.2035   3.6140   3.9360  -3.2442   2.7957  -2.7415   0.00    0.0
2019/01/15 09:39:13.000   4280220.7404  -4034402.4143  -2458255.5010   5  12   4.2035   3.6138   3.9356  -3.2441   2.7954  -2.7410   0.00    0.0
2019/01/15 09:39:21.000   4280207.8463  -4034418.6400  -2458269.6953   5  12   4.2038   3.6124   3.9325  -3.2430   2.7922  -2.7364   0.00    0.0
2019/01/15 09:39:30.000   4280227.2473  -4034410.5194  -2458282.4137   5  12   4.2042   3.6107   3.9288  -3.2418   2.7888  -2.7314   0.00    0.0
2019/01/15 09:39:43.000   4280213.3976  -4034410.4071  -2458272.2990   5  12   4.2048   3.6084   3.9236  -3.2401   2.7837  -2.7240   0.00    0.0
2019/01/15 09:40:18.000   4280207.5713  -4034404.1634  -2458266.5074   5  12   4.2066   3.6021   3.9096  -3.2355   2.7702  -2.7042   0.00    0.0
2019/01/15 09:40:23.000   4280217.2076  -4034412.2956  -2458277.1668   5  12   4.2069   3.6012   3.9075  -3.2349   2.7683  -2.7014   0.00    0.0
2019/01/15 09:40:36.000   4280213.0673  -4034411.2758  -2458262.2412   5  12   4.2076   3.5989   3.9023  -3.2332   2.7633  -2.6940   0.00    0.0
2019/01/15 09:40:42.000   4280218.7270  -4034418.6053  -2458275.1879   5  12   4.2079   3.5979   3.8999  -3.2324   2.7609  -2.6906   0.00    0.0
2019/01/15 09:40:47.000   4280219.7296  -4034410.9192  -2458267.2013   5  12   4.2082   3.5970   3.8978  -3.2318   2.7590  -2.6878   0.00    0.0
2019/01/15 09:40:55.000   4280231.7848  -4034426.5370  -2458272.3777   5  12   4.2087   3.5957   3.8946  -3.2308   2.7560  -2.6833   0.00    0.0
2019/01/15 09:40:56.000   4280228.5328  -4034425.2564  -2458276.0262   5  12   4.2087   3.5955   3.8942  -3.2307   2.7556  -2.6827   0.00    0.0
2019/01/15 09:41:00.000   4280214.7153  -4034409.5638  -2458261.2121   5  12   4.2090   3.5948   3.8926  -3.2302   2.7540  -2.6804   0.00    0.0
2019/01/15 09:41:01.000   4280211.4083  -4034404.3299  -2458250.3787   5  12   4.2090   3.5946   3.8922  -3.2301   2.7537  -2.6799   0.00    0.0
2019/01/15 09:41:02.000   4280212.7200  -4034409.9573  -2458272.9916   5  12   4.2091   3.5945   3.8918  -3.2300   2.7533  -2.6793   0.00    0.0
2019/01/15 09:41:11.000   4280238.3791  -4034423.5448  -2458269.1325   5  12   4.2096   3.5929   3.8881  -3.2289   2.7498  -2.6742   0.00    0.0
2019/01/15 09:41:12.000   4280219.6036  -4034409.8498  -2458250.2127   5  12   4.2097   3.5928   3.8877  -3.2287   2.7494  -2.6736   0.00    0.0
2019/01/15 09:41:16.000   4280223.0514  -4034419.7314  -2458265.8383   5  12   4.2099   3.5921   3.8861  -3.2283   2.7479  -2.6714   0.00    0.0
2019/01/15 09:41:17.000   4280223.8736  -4034420.8893  -2458273.3773   5  12   4.2100   3.5919   3.8857  -3.2281   2.7475  -2.6708   0.00    0.0
2019/01/15 09:41:18.000   4280229.4420  -4034430.1114  -2458277.9706   5  12   4.2101   3.5917   3.8853  -3.2280   2.7471  -2.6702   0.00    0.0
2019/01/15 09:41:19.000   4280219.0046  -4034427.8425  -2458269.3087   5  12   4.2101   3.5916   3.8849  -3.2279   2.7468  -2.6697   0.00    0.0
2019/01/15 09:41:20.000   4280220.1783  -4034426.1221  -2458274.8520   5  12   4.2102   3.5914   3.8845  -3.2278   2.7464  -2.6691   0.00    0.0
2019/01/15 09:41:27.000   4280220.8677  -4034420.4902  -2458276.2704   5  12   4.2106   3.5902   3.8816  -3.2269   2.7437  -2.6651   0.00    0.0
2019/01/15 09:41:31.000   4280233.0578  -4034432.1536  -2458277.0113   5  12   4.2109   3.5896   3.8800  -3.2265   2.7422  -2.6628   0.00    0.0
2019/01/15 09:41:32.000   4280227.0072  -4034419.0655  -2458273.4679   5  12   4.2110   3.5894   3.8796  -3.2263   2.7418  -2.6623   0.00    0.0
2019/01/15 09:41:38.000   4280221.0418  -4034417.8033  -2458277.2137   5  12   4.2113   3.5884   3.8771  -3.2256   2.7395  -2.6589   0.00    0.0
2019/01/15 09:41:40.000   4280212.0004  -4034410.7664  -2458266.6269   5  12   4.2115   3.5881   3.8763  -3.2254   2.7387  -2.6577   0.00    0.0
2019/01/15 09:41:41.000   4280227.9841  -4034418.6843  -2458271.1469   5  12   4.2115   3.5879   3.8759  -3.2253   2.7384  -2.6572   0.00    0.0
2019/01/15 09:41:43.000   4280218.1141  -4034413.6313  -2458265.2809   5  12   4.2117   3.5876   3.8751  -3.2250   2.7376  -2.6560   0.00    0.0
2019/01/15 09:41:50.000   4280224.8617  -4034419.7309  -2458267.2011   5  12   4.2121   3.5864   3.8722  -3.2242   2.7349  -2.6521   0.00    0.0
2019/01/15 09:41:51.000   4280212.8495  -4034406.6233  -2458250.4486   5  12   4.2122   3.5862   3.8718  -3.2241   2.7346  -2.6515   0.00    0.0
2019/01/15 09:41:54.000   4280219.5026  -4034416.4431  -2458264.0173   5  12   4.2124   3.5857   3.8706  -3.2237   2.7334  -2.6498   0.00    0.0
2019/01/15 09:42:00.000   4280238.5988  -4034421.6245  -2458271.5027   5  12   4.2128   3.5848   3.8682  -3.2231   2.7311  -2.6464   0.00    0.0
2019/01/15 09:42:01.000   4280208.1442  -4034406.1238  -2458259.4413   5  12   4.2129   3.5846   3.8678  -3.2229   2.7308  -2.6458   0.00    0.0
2019/01/15 09:42:05.000   4280210.3218  -4034410.6932  -2458259.8403   5  12   4.2132   3.5839   3.8661  -3.2225   2.7292  -2.6435   0.00    0.0
2019/01/15 09:42:09.000   4280213.4929  -4034419.9231  -2458264.3101   5  12   4.2135   3.5833   3.8645  -3.2220   2.7277  -2.6413   0.00    0.0
2019/01/15 09:42:31.000   4280222.5086  -4034418.0443  -2458267.4466   5  12   4.2151   3.5798   3.8555  -3.2195   2.7194  -2.6288   0.00    0.0
2019/01/15 09:42:32.000   4280231.2608  -4034429.6716  -2458289.2459   5  12   4.2151   3.5796   3.8551  -3.2194   2.7190  -2.6282   0.00    0.0
2019/01/15 09:42:36.000   4280211.1870  -4034409.8595  -2458259.4815   5  12   4.2154   3.5790   3.8535  -3.2190   2.7175  -2.6259   0.00    0.0
2019/01/15 09:42:37.000   4280218.4175  -4034415.5835  -2458277.9672   5  12   4.2155   3.5788   3.8531  -3.2189   2.7171  -2.6253   0.00    0.0
2019/01/15 09:42:38.000   4280218.5343  -4034419.0502  -2458272.1297   5  12   4.2156   3.5786   3.8527  -3.2188   2.7167  -2.6248   0.00    0.0
2019/01/15 09:42:43.000   4280214.4500  -4034425.0755  -2458277.6398   5  12   4.2160   3.5778   3.8506  -3.2182   2.7148  -2.6219   0.00    0.0
2019/01/15 09:42:46.000   4280228.1019  -4034422.4813  -2458276.1712   5  12   4.2162   3.5774   3.8494  -3.2179   2.7137  -2.6202   0.00    0.0
2019/01/15 09:42:52.000   4280223.3226  -4034416.1039  -2458269.7144   5  12   4.2167   3.5764   3.8469  -3.2172   2.7115  -2.6168   0.00    0.0
2019/01/15 09:42:59.000   4280222.3755  -4034406.1321  -2458264.0577   5  12   4.2172   3.5753   3.8441  -3.2165   2.7088  -2.6128   0.00    0.0
2019/01/15 09:43:00.000   4280223.5639  -4034415.8805  -2458274.2261   5  12   4.2173   3.5752   3.8437  -3.2163   2.7084  -2.6123   0.00    0.0
2019/01/15 09:43:05.000   4280215.6686  -4034416.1847  -2458267.2058   5  12   4.2177   3.5744   3.8416  -3.2158   2.7066  -2.6094   0.00    0.0
2019/01/15 09:43:06.000   4280233.3984  -4034425.4674  -2458271.4726   5  12   4.2178   3.5742   3.8412  -3.2157   2.7062  -2.6089   0.00    0.0
2019/01/15 09:43:10.000   4280222.1263  -4034413.8492  -2458264.2638   5  12   4.2181   3.5736   3.8396  -3.2153   2.7047  -2.6066   0.00    0.0
2019/01/15 09:43:12.000   4280223.9718  -4034418.7507  -2458273.7067   5  12   4.2183   3.5733   3.8387  -3.2151   2.7039  -2.6055   0.00    0.0
2019/01/15 09:43:21.000   4280211.9559  -4034408.8203  -2458258.9933   5  12   4.2190   3.5719   3.8351  -3.2141   2.7006  -2.6003   0.00    0.0
2019/01/15 09:43:22.000   4280219.5458  -4034413.0647  -2458264.3868   5  12   4.2191   3.5718   3.8346  -3.2140   2.7002  -2.5998   0.00    0.0
2019/01/15 09:43:25.000   4280206.1711  -4034405.3809  -2458261.4964   5  12   4.2193   3.5713   3.8334  -3.2137   2.6991  -2.5981   0.00    0.0
2019/01/15 09:43:28.000   4280203.3658  -4034399.2891  -2458256.9110   5  12   4.2196   3.5709   3.8322  -3.2134   2.6979  -2.5964   0.00    0.0
2019/01/15 09:43:31.000   4280217.5846  -4034415.5241  -2458254.2285   5  12   4.2198   3.5704   3.8310  -3.2131   2.6968  -2.5947   0.00    0.0
2019/01/15 09:43:32.000   4280233.0624  -4034416.9361  -2458259.7673   5  12   4.2199   3.5703   3.8305  -3.2130   2.6964  -2.5941   0.00    0.0
2019/01/15 09:43:33.000   4280222.7595  -4034405.3805  -2458254.4328   5  12   4.2200   3.5701   3.8301  -3.2128   2.6961  -2.5935   0.00    0.0
2019/01/15 09:43:38.000   4280215.2163  -4034395.6369  -2458260.6229   5  12   4.2204   3.5694   3.8281  -3.2123   2.6942  -2.5907   0.00    0.0
2019/01/15 09:43:39.000   4280212.6737  -4034402.4840  -2458259.3182   5  12   4.2205   3.5692   3.8277  -3.2122   2.6938  -2.5901   0.00    0.0
2019/01/15 09:43:40.000   4280209.1768  -4034410.1428  -2458269.1118   5  12   4.2206   3.5690   3.8273  -3.2121   2.6935  -2.5895   0.00    0.0
2019/01/15 09:43:41.000   4280217.3501  -4034405.2816  -2458264.4137   5  12   4.2207   3.5689   3.8269  -3.2120   2.6931  -2.5890   0.00    0.0
2019/01/15 09:43:46.000   4280215.9891  -4034400.3799  -2458256.9395   5  12   4.2211   3.5681   3.8248  -3.2115   2.6912  -2.5861   0.00    0.0
2019/01/15 09:43:48.000   4280223.0909  -4034405.8572  -2458265.5325   5  12   4.2213   3.5678   3.8240  -3.2113   2.6905  -2.5850   0.00    0.0
2019/01/15 09:43:49.000   4280229.7966  -4034423.8349  -2458267.1602   5  12   4.2214   3.5677   3.8236  -3.2112   2.6901  -2.5844   0.00    0.0
2019/01/15 09:43:51.000   4280218.7188  -4034411.3722  -2458256.5851   5  12   4.2215   3.5674   3.8228  -3.2110   2.6894  -2.5833   0.00    0.0
2019/01/15 09:43:54.000   4280210.3386  -4034398.2953  -2458253.5815   5  12   4.2218   3.5670   3.8215  -3.2107   2.6882  -2.5816   0.00    0.0
2019/01/15 09:43:55.000   4280210.3122  -4034404.0265  -2458261.9046   5  12   4.2219   3.5668   3.8211  -3.2106   2.6879  -2.5810   0.00    0.0
2019/01/15 09:43:56.000   4280205.4340  -4034397.4116  -2458259.1785   5  12   4.2220   3.5667   3.8207  -3.2105   2.6875  -2.5804   0.00    0.0
2019/01/15 09:43:58.000   4280216.1078  -4034417.0552  -2458264.4659   5  12   4.2222   3.5664   3.8199  -3.2103   2.6867  -2.5793   0.00    0.0
2019/01/15 09:44:24.000   4280228.9374  -4034418.1492  -2458283.1582   5  12   4.2245   3.5625   3.8092  -3.2077   2.6771  -2.5645   0.00    0.0
2019/01/15 09:44:40.000   4280220.8622  -4034422.6204  -2458272.8043   5  12   4.2260   3.5602   3.8027  -3.2062   2.6712  -2.5554   0.00    0.0
2019/01/15 09:44:41.000   4280213.7418  -4034413.6176  -2458262.6000   5  12   4.2261   3.5601   3.8022  -3.2061   2.6708  -2.5549   0.00    0.0
2019/01/15 09:44:49.000   4280232.0465  -4034421.5656  -2458267.1158   5  12   4.2269   3.5589   3.7990  -3.2053   2.6679  -2.5503   0.00    0.0
2019/01/15 09:44:51.000   4280226.4926  -4034419.3819  -2458259.6756   5  12   4.2271   3.5587   3.7981  -3.2051   2.6671  -2.5492   0.00    0.0
2019/01/15 09:45:02.000   4280225.2395  -4034407.8570  -2458260.8739   5  12   4.2282   3.5571   3.7936  -3.2041   2.6631  -2.5429   0.00    0.0
2019/01/15 09:45:07.000   4280222.9212  -4034415.2736  -2458256.2997   5  12   4.2287   3.5564   3.7916  -3.2036   2.6613  -2.5401   0.00    0.0
2019/01/15 09:45:12.000   4280232.1642  -4034424.6973  -2458264.8774   5  12   4.2292   3.5557   3.7895  -3.2032   2.6594  -2.5373   0.00    0.0
2019/01/15 09:45:13.000   4280221.1579  -4034412.0162  -2458257.9657   5  12   4.2293   3.5556   3.7891  -3.2031   2.6591  -2.5367   0.00    0.0
2019/01/15 09:45:26.000   4280224.8650  -4034411.2224  -2458256.9104   5  12   4.2306   3.5538   3.7838  -3.2019   2.6543  -2.5293   0.00    0.0
2019/01/15 09:45:31.000   4280222.9684  -4034415.1102  -2458256.4225   5  12   4.2311   3.5531   3.7817  -3.2015   2.6525  -2.5265   0.00    0.0
2019/01/15 09:45:32.000   4280216.9895  -4034411.3220  -2458255.4538   5  12   4.2312   3.5530   3.7813  -3.2014   2.6521  -2.5259   0.00    0.0
2019/01/15 09:45:34.000   4280212.9337  -4034413.3030  -2458263.7704   5  12   4.2315   3.5527   3.7805  -3.2012   2.6514  -2.5248   0.00    0.0
2019/01/15 09:45:40.000   4280213.5613  -4034419.3280  -2458264.9591   5  12   4.2321   3.5519   3.7780  -3.2007   2.6492  -2.5214   0.00    0.0
2019/01/15 09:45:47.000   4280220.9854  -4034420.3705  -2458269.6893   5  12   4.2328   3.5509   3.7752  -3.2001   2.6467  -2.5174   0.00    0.0
2019/01/15 09:45:51.000   4280214.5304  -4034415.1565  -2458253.6876   5  12   4.2333   3.5504   3.7735  -3.1997   2.6452  -2.5151   0.00    0.0
2019/01/15 09:46:31.000   4280218.2762  -4034416.8220  -2458273.3196   5  12   4.2377   3.5451   3.7571  -3.1964   2.6308  -2.4925   0.00    0.0
2019/01/15 09:46:37.000   4280217.5875  -4034421.5440  -2458281.5655   5  12   4.2384   3.5443   3.7547  -3.1959   2.6286  -2.4891   0.00    0.0
2019/01/15 09:46:38.000   4280216.9433  -4034419.8798  -2458272.7687   5  12   4.2385   3.5442   3.7543  -3.1958   2.6282  -2.4885   0.00    0.0
2019/01/15 09:46:39.000   4280231.8482  -4034431.5353  -2458278.3713   5  12   4.2386   3.5441   3.7539  -3.1957   2.6279  -2.4879   0.00    0.0
2019/01/15 09:46:44.000   4280228.3833  -4034432.0234  -2458271.9463   5  12   4.2392   3.5434   3.7518  -3.1953   2.6261  -2.4851   0.00    0.0
2019/01/15 09:46:50.000   4280217.3622  -4034404.6191  -2458263.5502   5  12   4.2399   3.5427   3.7494  -3.1948   2.6239  -2.4817   0.00    0.0
2019/01/15 09:46:51.000   4280224.8355  -4034420.3769  -2458274.4362   5  12   4.2400   3.5426   3.7489  -3.1948   2.6236  -2.4812   0.00    0.0
2019/01/15 09:46:52.000   4280235.0851  -4034419.9898  -2458274.5811   5  12   4.2401   3.5424   3.7485  -3.1947   2.6232  -2.4806   0.00    0.0
2019/01/15 09:46:56.000   4280228.3160  -4034416.5143  -2458262.9880   5  12   4.2406   3.5419   3.7469  -3.1944   2.6218  -2.4783   0.00    0.0
2019/01/15 09:47:00.000   4280223.6812  -4034418.4057  -2458265.6003   5  12   4.2411   3.5414   3.7453  -3.1941   2.6204  -2.4761   0.00    0.0
2019/01/15 09:47:02.000   4280224.0586  -4034421.4420  -2458261.3851   5  12   4.2413   3.5412   3.7444  -3.1939   2.6196  -2.4749   0.00    0.0
2019/01/15 09:47:15.000   4280216.6570  -4034419.3807  -2458271.7444   5  12   4.2429   3.5396   3.7391  -3.1929   2.6150  -2.4676   0.00    0.0
2019/01/15 09:47:24.000   4280211.9789  -4034417.0254  -2458266.5691   5  12   4.2440   3.5384   3.7355  -3.1922   2.6118  -2.4625   0.00    0.0
2019/01/15 09:47:27.000   4280220.1534  -4034422.2232  -2458259.0508   5  12   4.2443   3.5381   3.7342  -3.1920   2.6108  -2.4608   0.00    0.0
2019/01/15 09:47:29.000   4280211.0201  -4034413.4103  -2458261.5662   5  12   4.2446   3.5378   3.7334  -3.1919   2.6100  -2.4597   0.00    0.0
2019/01/15 09:47:35.000   4280217.8983  -4034415.6835  -2458274.3756   5  12   4.2453   3.5371   3.7310  -3.1914   2.6079  -2.4563   0.00    0.0
2019/01/15 09:47:36.000   4280210.1576  -4034409.9948  -2458272.5341   5  12   4.2455   3.5370   3.7306  -3.1913   2.6076  -2.4557   0.00    0.0
2019/01/15 09:47:39.000   4280213.3217  -4034416.5418  -2458257.9696   5  12   4.2458   3.5366   3.7293  -3.1911   2.6065  -2.4540   0.00    0.0
2019/01/15 09:47:42.000   4280216.3214  -4034416.9084  -2458258.4334   5  12   4.2462   3.5363   3.7281  -3.1909   2.6054  -2.4524   0.00    0.0
2019/01/15 09:47:43.000   4280214.0578  -4034412.6270  -2458256.3013   5  12   4.2463   3.5361   3.7277  -3.1908   2.6051  -2.4518   0.00    0.0
2019/01/15 09:47:45.000   4280208.9256  -4034407.1189  -2458255.6054   5  12   4.2466   3.5359   3.7269  -3.1907   2.6044  -2.4507   0.00    0.0
2019/01/15 09:47:49.000   4280220.8363  -4034423.2916  -2458268.0195   5  12   4.2471   3.5354   3.7253  -3.1904   2.6030  -2.4484   0.00    0.0
2019/01/15 09:47:50.000   4280226.5210  -4034426.4600  -2458269.7148   5  12   4.2472   3.5353   3.7248  -3.1903   2.6026  -2.4478   0.00    0.0
2019/01/15 09:47:52.000   4280216.3283  -4034408.7381  -2458266.6834   5  12   4.2475   3.5351   3.7240  -3.1902   2.6019  -2.4467   0.00    0.0
2019/01/15 09:47:53.000   4280212.7208  -4034400.1410  -2458262.7685   5  12   4.2476   3.5349   3.7236  -3.1901   2.6016  -2.4462   0.00    0.0
2019/01/15 09:47:56.000   4280220.5359  -4034408.1541  -2458256.5274   5  12   4.2480   3.5346   3.7224  -3.1899   2.6005  -2.4445   0.00    0.0
2019/01/15 09:47:57.000   4280214.4902  -4034410.4232  -2458260.8622   5  12   4.2481   3.5345   3.7220  -3.1898   2.6002  -2.4439   0.00    0.0
2019/01/15 09:47:58.000   4280234.9492  -4034415.2433  -2458266.2896   5  12   4.2483   3.5343   3.7216  -3.1898   2.5998  -2.4433   0.00    0.0
2019/01/15 09:48:00.000   4280224.0243  -4034414.0844  -2458259.1532   5  12   4.2485   3.5341   3.7208  -3.1896   2.5991  -2.4422   0.00    0.0
2019/01/15 09:48:02.000   4280217.5578  -4034400.5480  -2458254.6859   5  12   4.2488   3.5339   3.7200  -3.1895   2.5984  -2.4411   0.00    0.0
2019/01/15 09:48:08.000   4280217.3515  -4034415.1935  -2458273.1381   5  12   4.2495   3.5332   3.7175  -3.1891   2.5963  -2.4377   0.00    0.0
2019/01/15 09:48:09.000   4280224.8687  -4034419.2682  -2458264.7108   5  12   4.2497   3.5330   3.7171  -3.1890   2.5959  -2.4371   0.00    0.0
2019/01/15 09:48:26.000   4280209.0372  -4034412.7199  -2458260.0178   5  12   4.2519   3.5311   3.7102  -3.1878   2.5900  -2.4276   0.00    0.0
2019/01/15 09:48:29.000   4280225.9310  -4034424.1730  -2458265.7538   5  12   4.2523   3.5307   3.7090  -3.1876   2.5890  -2.4259   0.00    0.0
2019/01/15 09:48:32.000   4280227.8881  -4034417.8847  -2458268.6150   5  12   4.2527   3.5304   3.7078  -3.1874   2.5879  -2.4242   0.00    0.0
2019/01/15 09:48:33.000   4280225.8960  -4034414.8983  -2458267.7534   5  12   4.2529   3.5303   3.7073  -3.1874   2.5876  -2.4236   0.00    0.0
2019/01/15 09:48:37.000   4280220.9328  -4034418.4071  -2458267.8589   5  12   4.2534   3.5298   3.7057  -3.1871   2.5862  -2.4214   0.00    0.0
2019/01/15 09:48:39.000   4280223.2505  -4034419.8036  -2458261.2901   5  12   4.2537   3.5296   3.7049  -3.1870   2.5855  -2.4203   0.00    0.0
2019/01/15 09:48:53.000   4280231.0098  -4034404.6446  -2458264.3646   5  12   4.2556   3.5280   3.6992  -3.1861   2.5806  -2.4124   0.00    0.0
2019/01/15 09:48:59.000   4280212.1713  -4034410.6089  -2458258.4079   5  12   4.2564   3.5274   3.6968  -3.1857   2.5785  -2.4090   0.00    0.0
2019/01/15 09:49:00.000   4280200.6003  -4034401.1406  -2458248.8782   5  12   4.2565   3.5272   3.6964  -3.1856   2.5782  -2.4085   0.00    0.0
2019/01/15 09:49:01.000   4280200.8058  -4034399.6339  -2458251.2569   5  12   4.2567   3.5271   3.6960  -3.1856   2.5778  -2.4079   0.00    0.0
2019/01/15 09:49:02.000   4280217.2045  -4034409.0010  -2458259.8953   5  12   4.2568   3.5270   3.6956  -3.1855   2.5775  -2.4073   0.00    0.0
2019/01/15 09:49:07.000   4280234.2356  -4034420.6716  -2458263.0564   5  12   4.2575   3.5265   3.6935  -3.1852   2.5758  -2.4045   0.00    0.0
2019/01/15 09:49:11.000   4280222.6876  -4034415.3482  -2458273.6340   5  12   4.2581   3.5260   3.6919  -3.1850   2.5744  -2.4023   0.00    0.0
2019/01/15 09:49:13.000   4280230.8751  -4034409.3594  -2458265.1078   5  12   4.2584   3.5258   3.6911  -3.1848   2.5737  -2.4012   0.00    0.0
2019/01/15 09:49:26.000   4280208.1989  -4034413.7873  -2458268.6804   5  12   4.2602   3.5244   3.6859  -3.1841   2.5692  -2.3939   0.00    0.0
2019/01/15 09:49:27.000   4280202.3247  -4034399.2818  -2458250.8462   5  12   4.2604   3.5243   3.6855  -3.1840   2.5689  -2.3933   0.00    0.0
2019/01/15 09:49:28.000   4280214.5280  -4034410.9308  -2458271.6641   5  12   4.2605   3.5242   3.6851  -3.1839   2.5686  -2.3928   0.00    0.0
2019/01/15 09:49:29.000   4280208.2626  -4034405.0743  -2458270.8370   5  12   4.2606   3.5241   3.6847  -3.1839   2.5682  -2.3922   0.00    0.0
2019/01/15 09:49:33.000   4280220.2256  -4034417.1432  -2458270.4456   5  12   4.2612   3.5236   3.6830  -3.1836   2.5668  -2.3900   0.00    0.0
2019/01/15 09:49:34.000   4280230.0629  -4034420.8879  -2458268.8435   5  12   4.2614   3.5235   3.6826  -3.1836   2.5665  -2.3894   0.00    0.0
2019/01/15 09:49:41.000   4280224.7003  -4034409.2710  -2458264.9071   5  12   4.2624   3.5228   3.6798  -3.1832   2.5641  -2.3855   0.00    0.0
2019/01/15 09:49:47.000   4280211.8107  -4034403.4208  -2458257.8811   5  12   4.2632   3.5222   3.6774  -3.1828   2.5621  -2.3821   0.00    0.0
2019/01/15 09:49:49.000   4280209.3703  -4034403.4633  -2458257.7758   5  12   4.2635   3.5220   3.6766  -3.1827   2.5614  -2.3810   0.00    0.0
2019/01/15 09:49:52.000   4280222.5896  -4034413.5706  -2458256.5058   5  12   4.2640   3.5216   3.6754  -3.1826   2.5604  -2.3793   0.00    0.0
2019/01/15 09:49:56.000   4280214.1901  -4034401.9404  -2458249.0379   5  12   4.2646   3.5212   3.6738  -3.1823   2.5590  -2.3771   0.00    0.0
2019/01/15 09:49:57.000   4280216.2329  -4034415.5412  -2458262.1581   5  12   4.2647   3.5211   3.6734  -3.1823   2.5587  -2.3765   0.00    0.0
2019/01/15 09:50:01.000   4280217.0259  -4034412.7226  -2458253.0037   5  12   4.2653   3.5207   3.6717  -3.1821   2.5573  -2.3743   0.00    0.0
2019/01/15 09:50:04.000   4280203.5349  -4034403.0728  -2458264.9684   5  12   4.2658   3.5204   3.6705  -3.1819   2.5563  -2.3726   0.00    0.0
2019/01/15 09:50:25.000   4280223.2315  -4034404.1119  -2458269.4207   5  12   4.2689   3.5183   3.6621  -3.1808   2.5492  -2.3609   0.00    0.0
2019/01/15 09:50:29.000   4280207.3397  -4034403.3623  -2458264.6336   5  12   4.2695   3.5179   3.6605  -3.1806   2.5478  -2.3587   0.00    0.0
2019/01/15 09:50:40.000   4280223.4948  -4034407.4419  -2458248.4457   5  12   4.2712   3.5168   3.6561  -3.1800   2.5441  -2.3525   0.00    0.0
2019/01/15 09:50:41.000   4280226.4852  -4034412.5019  -2458257.6755   5  12   4.2714   3.5167   3.6557  -3.1799   2.5438  -2.3520   0.00    0.0
2019/01/15 09:51:10.000   4280227.3201  -4034431.2047  -2458263.0847   5  12   4.2759   3.5139   3.6441  -3.1785   2.5341  -2.3358   0.00    0.0
2019/01/15 09:51:14.000   4280252.2048  -4034449.5278  -2458275.4500   5  12   4.2766   3.5135   3.6425  -3.1783   2.5328  -2.3336   0.00    0.0
2019/01/15 09:51:28.000   4280237.3462  -4034427.3196  -2458260.3605   5  12   4.2789   3.5122   3.6369  -3.1777   2.5281  -2.3258   0.00    0.0
2019/01/15 09:51:30.000   4280219.3909  -4034415.2052  -2458258.4143   5  12   4.2792   3.5120   3.6361  -3.1776   2.5275  -2.3247   0.00    0.0
2019/01/15 09:51:35.000   4280230.3963  -4034421.1543  -2458257.2214   5  12   4.2800   3.5115   3.6341  -3.1774   2.5258  -2.3220   0.00    0.0
2019/01/15 09:51:36.000   4280240.0351  -4034432.5769  -2458264.6705   5  12   4.2802   3.5114   3.6337  -3.1774   2.5255  -2.3214   0.00    0.0
2019/01/15 09:51:38.000   4280247.4724  -4034429.6168  -2458258.7717   5  12   4.2805   3.5112   3.6329  -3.1773   2.5248  -2.3203   0.00    0.0
2019/01/15 09:51:39.000   4280236.1950  -4034422.8713  -2458264.2239   5  12   4.2807   3.5111   3.6325  -3.1772   2.5245  -2.3197   0.00    0.0
2019/01/15 09:51:48.000   4280207.6575  -4034395.5825  -2458245.1856   5  12   4.2821   3.5103   3.6289  -3.1768   2.5216  -2.3148   0.00    0.0
2019/01/15 09:51:59.000   4280224.4450  -4034412.9884  -2458271.0649   5  12   4.2840   3.5093   3.6246  -3.1764   2.5179  -2.3087   0.00    0.0
2019/01/15 09:52:00.000   4280205.0196  -4034405.1181  -2458265.0482   5  12   4.2841   3.5092   3.6242  -3.1763   2.5176  -2.3081   0.00    0.0
2019/01/15 09:52:25.000   4280216.9200  -4034415.1936  -2458260.8803   5  12   4.2884   3.5070   3.6143  -3.1754   2.5095  -2.2943   0.00    0.0
2019/01/15 09:52:26.000   4280227.4505  -4034408.7257  -2458259.7801   5  12   4.2886   3.5070   3.6139  -3.1753   2.5092  -2.2937   0.00    0.0
2019/01/15 09:52:27.000   4280221.6096  -4034414.3883  -2458267.3421   5  12   4.2887   3.5069   3.6135  -3.1753   2.5088  -2.2932   0.00    0.0
2019/01/15 09:52:30.000   4280226.3974  -4034419.2179  -2458271.0786   5  12   4.2892   3.5066   3.6123  -3.1752   2.5079  -2.2915   0.00    0.0
2019/01/15 09:52:31.000   4280211.6918  -4034407.9628  -2458260.7525   5  12   4.2894   3.5065   3.6119  -3.1751   2.5075  -2.2910   0.00    0.0
2019/01/15 09:52:32.000   4280205.6933  -4034399.3310  -2458254.7155   5  12   4.2896   3.5064   3.6115  -3.1751   2.5072  -2.2904   0.00    0.0
2019/01/15 09:52:36.000   4280214.9619  -4034414.6421  -2458255.5285   5  12   4.2903   3.5061   3.6100  -3.1750   2.5059  -2.2882   0.00    0.0
2019/01/15 09:52:39.000   4280223.1016  -4034423.2477  -2458269.3251   5  11   4.5270   3.7129   3.6286  -3.4415   2.4106  -2.1636   0.00    0.0
2019/01/15 09:52:40.000   4280216.5811  -4034417.1071  -2458268.3632   5  11   4.5274   3.7130   3.6282  -3.4417   2.4103  -2.1630   0.00    0.0
2019/01/15 09:52:41.000   4280213.6356  -4034410.6522  -2458270.6072   5  11   4.5278   3.7130   3.6278  -3.4419   2.4100  -2.1624   0.00    0.0
2019/01/15 09:52:42.000   4280219.8789  -4034405.9505  -2458264.3239   5  11   4.5282   3.7131   3.6274  -3.4421   2.4097  -2.1618   0.00    0.0
2019/01/15 09:52:43.000   4280213.2376  -4034416.4755  -2458275.1563   5  11   4.5287   3.7131   3.6270  -3.4423   2.4094  -2.1612   0.00    0.0
2019/01/15 09:52:44.000   4280207.9521  -4034411.5463  -2458259.1811   5  11   4.5291   3.7131   3.6266  -3.4425   2.4090  -2.1607   0.00    0.0
2019/01/15 09:52:45.000   4280207.9032  -4034405.4890  -2458248.6270   5  11   4.5295   3.7132   3.6262  -3.4426   2.4087  -2.1601   0.00    0.0
2019/01/15 09:52:49.000   4280227.7003  -4034425.4395  -2458279.4525   5  11   4.5311   3.7134   3.6245  -3.4434   2.4075  -2.1577   0.00    0.0
2019/01/15 09:52:50.000   4280222.1257  -4034422.4462  -2458279.7864   5  11   4.5315   3.7134   3.6241  -3.4436   2.4071  -2.1571   0.00    0.0
2019/01/15 09:52:53.000   4280210.7807  -4034412.5348  -2458269.1698   5  11   4.5328   3.7136   3.6229  -3.4441   2.4062  -2.1554   0.00    0.0
2019/01/15 09:52:55.000   4280227.8849  -4034423.8628  -2458270.6596   5  11   4.5336   3.7137   3.6221  -3.4445   2.4056  -2.1542   0.00    0.0
2019/01/15 09:52:56.000   4280208.2969  -4034414.0278  -2458267.4485   5  11   4.5340   3.7137   3.6217  -3.4447   2.4052  -2.1536   0.00    0.0
2019/01/15 09:52:57.000   4280217.0220  -4034418.7144  -2458269.5475   5  11   4.5344   3.7137   3.6213  -3.4448   2.4049  -2.1530   0.00    0.0
2019/01/15 09:52:58.000   4280219.4464  -4034418.2158  -2458281.9143   5  11   4.5348   3.7138   3.6208  -3.4450   2.4046  -2.1524   0.00    0.0
2019/01/15 09:52:59.000   4280220.1117  -4034413.6962  -2458268.5764   5  11   4.5353   3.7138   3.6204  -3.4452   2.4043  -2.1519   0.00    0.0
2019/01/15 09:53:00.000   4280226.8525  -4034415.6533  -2458265.5676   5  11   4.5357   3.7139   3.6200  -3.4454   2.4040  -2.1513   0.00    0.0
2019/01/15 09:53:01.000   4280207.6218  -4034410.0061  -2458259.5654   5  11   4.5361   3.7139   3.6196  -3.4456   2.4037  -2.1507   0.00    0.0
2019/01/15 09:53:05.000   4280217.3479  -4034395.4927  -2458258.5890   5  11   4.5378   3.7141   3.6180  -3.4463   2.4024  -2.1483   0.00    0.0
2019/01/15 09:53:09.000   4280228.6106  -4034409.8520  -2458257.7743   5  11   4.5394   3.7143   3.6163  -3.4471   2.4011  -2.1460   0.00    0.0
2019/01/15 09:53:10.000   4280213.7320  -4034402.9551  -2458252.1887   5  11   4.5398   3.7144   3.6159  -3.4473   2.4008  -2.1454   0.00    0.0
2019/01/15 09:53:12.000   4280221.0995  -4034415.3265  -2458262.2927   5  11   4.5407   3.7145   3.6151  -3.4477   2.4002  -2.1442   0.00    0.0
2019/01/15 09:53:19.000   4280213.2962  -4034416.6996  -2458278.9227   5  11   4.5436   3.7148   3.6123  -3.4490   2.3980  -2.1401   0.00    0.0
2019/01/15 09:53:20.000   4280224.7846  -4034421.7434  -2458280.1879   5  11   4.5440   3.7149   3.6118  -3.4492   2.3977  -2.1396   0.00    0.0
2019/01/15 09:53:24.000   4280210.4150  -4034406.5347  -2458263.0287   5  12   4.2988   3.5022   3.5911  -3.1733   2.4905  -2.2618   0.00    0.0
2019/01/15 09:53:25.000   4280216.9883  -4034408.7284  -2458273.5538   5  12   4.2990   3.5021   3.5907  -3.1733   2.4902  -2.2613   0.00    0.0
2019/01/15 09:53:26.000   4280204.8825  -4034406.9261  -2458264.9790   5  12   4.2992   3.5020   3.5903  -3.1733   2.4899  -2.2607   0.00    0.0
2019/01/15 09:53:27.000   4280213.7712  -4034408.9022  -2458277.1178   5  12   4.2993   3.5019   3.5899  -3.1732   2.4896  -2.2602   0.00    0.0
2019/01/15 09:53:28.000   4280212.5211  -4034408.1821  -2458270.5308   5  12   4.2995   3.5018   3.5896  -3.1732   2.4893  -2.2596   0.00    0.0
2019/01/15 09:53:29.000   4280222.2119  -4034410.0423  -2458264.8361   5  12   4.2997   3.5018   3.5892  -3.1732   2.4889  -2.2591   0.00    0.0
2019/01/15 09:53:32.000   4280228.9453  -4034417.9086  -2458287.6397   5  12   4.3002   3.5015   3.5880  -3.1731   2.4880  -2.2574   0.00    0.0
2019/01/15 09:53:40.000   4280223.8859  -4034414.6405  -2458268.0797   5  12   4.3017   3.5009   3.5849  -3.1729   2.4855  -2.2531   0.00    0.0
2019/01/15 09:53:42.000   4280210.7926  -4034405.6596  -2458261.0504   5  12   4.3021   3.5007   3.5841  -3.1728   2.4848  -2.2520   0.00    0.0
2019/01/15 09:53:43.000   4280219.1289  -4034419.6299  -2458268.6761   5  12   4.3023   3.5007   3.5837  -3.1728   2.4845  -2.2514   0.00    0.0
2019/01/15 09:53:44.000   4280221.6121  -4034416.0824  -2458265.9783   5  12   4.3024   3.5006   3.5833  -3.1727   2.4842  -2.2509   0.00    0.0
2019/01/15 09:53:56.000   4280226.9224  -4034406.9070  -2458262.7600   5  12   4.3047   3.4997   3.5786  -3.1724   2.4804  -2.2443   0.00    0.0
2019/01/15 09:53:57.000   4280223.0120  -4034411.1470  -2458255.1291   5  12   4.3048   3.4996   3.5782  -3.1724   2.4801  -2.2438   0.00    0.0
2019/01/15 09:54:07.000   4280216.1674  -4034419.4181  -2458268.3377   5  12   4.3067   3.4988   3.5744  -3.1721   2.4770  -2.2383   0.00    0.0
2019/01/15 09:54:15.000   4280227.0585  -4034425.5640  -2458270.3602   5  12   4.3082   3.4982   3.5713  -3.1719   2.4745  -2.2339   0.00    0.0
2019/01/15 09:54:19.000   4280223.1292  -4034419.1043  -2458280.9220   5  12   4.3090   3.4979   3.5697  -3.1718   2.4732  -2.2317   0.00    0.0
2019/01/15 09:54:38.000   4280222.9828  -4034419.3294  -2458267.0597   5  12   4.3126   3.4966   3.5624  -3.1714   2.4673  -2.2214   0.00    0.0
2019/01/15 09:54:39.000   4280222.8006  -4034417.4735  -2458268.2944   5  12   4.3128   3.4965   3.5620  -3.1714   2.4670  -2.2208   0.00    0.0
2019/01/15 09:54:40.000   4280202.6679  -4034400.5245  -2458250.6717   5  12   4.3130   3.4964   3.5616  -3.1713   2.4667  -2.2203   0.00    0.0
2019/01/15 09:54:47.000   4280224.4118  -4034415.0576  -2458264.4029   5  12   4.3143   3.4959   3.5589  -3.1712   2.4645  -2.2165   0.00    0.0
2019/01/15 09:54:54.000   4280216.7664  -4034393.4441  -2458251.2851   5  12   4.3157   3.4955   3.5562  -3.1710   2.4624  -2.2127   0.00    0.0
2019/01/15 09:54:57.000   4280239.9211  -4034422.0200  -2458257.8584   5  12   4.3163   3.4952   3.5551  -3.1710   2.4614  -2.2110   0.00    0.0
2019/01/15 09:54:59.000   4280230.1699  -4034420.1719  -2458259.7238   5  12   4.3167   3.4951   3.5543  -3.1709   2.4608  -2.2100   0.00    0.0
2019/01/15 09:55:08.000   4280217.9718  -4034410.4453  -2458254.0294   5  12   4.3184   3.4945   3.5508  -3.1708   2.4581  -2.2051   0.00    0.0
2019/01/15 09:55:15.000   4280222.8742  -4034410.8880  -2458267.9942   5  12   4.3198   3.4940   3.5482  -3.1706   2.4559  -2.2013   0.00    0.0
2019/01/15 09:55:16.000   4280221.1907  -4034401.8924  -2458268.0266   5  12   4.3200   3.4940   3.5478  -3.1706   2.4556  -2.2007   0.00    0.0
2019/01/15 09:55:19.000   4280228.0987  -4034431.6683  -2458245.0682   5  11   4.6711   4.3336   3.5514  -3.8215   2.5490  -2.2722   0.00    0.0
2019/01/15 09:55:27.000   4280200.6677  -4034399.9065  -2458264.4070   5  12   4.3222   3.4932   3.5436  -3.1704   2.4523  -2.1948   0.00    0.0
2019/01/15 09:55:29.000   4280235.1702  -4034429.3383  -2458273.0970   5  12   4.3226   3.4931   3.5428  -3.1704   2.4517  -2.1937   0.00    0.0
2019/01/15 09:55:30.000   4280222.4952  -4034424.0399  -2458281.5226   5  12   4.3228   3.4930   3.5424  -3.1704   2.4514  -2.1931   0.00    0.0
2019/01/15 09:55:31.000   4280224.8513  -4034418.5983  -2458278.6801   5  12   4.3230   3.4930   3.5420  -3.1703   2.4511  -2.1926   0.00    0.0
2019/01/15 09:55:32.000   4280217.7808  -4034410.9348  -2458276.3105   5  12   4.3232   3.4929   3.5417  -3.1703   2.4508  -2.1921   0.00    0.0
2019/01/15 09:55:33.000   4280217.2533  -4034417.2361  -2458257.9672   5  12   4.3234   3.4928   3.5413  -3.1703   2.4505  -2.1915   0.00    0.0
2019/01/15 09:55:37.000   4280212.9716  -4034407.3911  -2458262.4137   5  12   4.3242   3.4926   3.5398  -3.1703   2.4492  -2.1894   0.00    0.0
2019/01/15 09:55:38.000   4280205.9391  -4034406.8448  -2458266.4248   5  12   4.3244   3.4925   3.5394  -3.1702   2.4489  -2.1888   0.00    0.0
2019/01/15 09:55:41.000   4280202.3162  -4034404.3632  -2458258.0941   5  12   4.3250   3.4923   3.5382  -3.1702   2.4480  -2.1872   0.00    0.0
2019/01/15 09:55:51.000   4280229.6269  -4034419.3966  -2458262.3352   5  12   4.3271   3.4917   3.5344  -3.1700   2.4450  -2.1818   0.00    0.0
2019/01/15 09:55:54.000   4280214.9713  -4034407.3842  -2458266.9347   5  12   4.3277   3.4915   3.5333  -3.1700   2.4441  -2.1802   0.00    0.0
2019/01/15 09:55:56.000   4280214.8143  -4034414.3817  -2458271.9998   5  12   4.3281   3.4914   3.5325  -3.1700   2.4435  -2.1791   0.00    0.0
2019/01/15 09:55:59.000   4280226.0820  -4034419.9351  -2458264.1685   5  12   4.3287   3.4912   3.5314  -3.1699   2.4426  -2.1775   0.00    0.0
2019/01/15 09:56:02.000   4280216.6656  -4034409.4882  -2458265.2048   5  12   4.3293   3.4910   3.5303  -3.1699   2.4417  -2.1759   0.00    0.0
2019/01/15 09:56:03.000   4280204.0971  -4034405.5158  -2458266.1314   5  12   4.3295   3.4909   3.5299  -3.1699   2.4414  -2.1753   0.00    0.0
2019/01/15 09:56:07.000   4280207.4667  -4034405.0896  -2458266.6006   5  12   4.3303   3.4907   3.5284  -3.1698   2.4402  -2.1732   0.00    0.0
2019/01/15 09:56:08.000   4280199.2260  -4034406.9606  -2458272.4264   5  12   4.3305   3.4906   3.5280  -3.1698   2.4399  -2.1726   0.00    0.0
2019/01/15 09:56:13.000   4280210.0493  -4034407.3765  -2458258.0890   5  11   4.6201   3.7256   3.5426  -3.4844   2.3455  -2.0397   0.00    0.0
2019/01/15 09:56:24.000   4280221.0074  -4034413.2264  -2458275.7428   5  12   4.3339   3.4897   3.5219  -3.1696   2.4351  -2.1640   0.00    0.0
2019/01/15 09:56:26.000   4280214.4008  -4034416.9714  -2458275.7595   5  12   4.3343   3.4895   3.5212  -3.1696   2.4345  -2.1629   0.00    0.0
2019/01/15 09:56:30.000   4280229.6835  -4034411.3849  -2458267.4548   5  12   4.3351   3.4893   3.5197  -3.1696   2.4333  -2.1608   0.00    0.0
2019/01/15 09:56:32.000   4280223.8248  -4034418.2002  -2458280.8289   5  12   4.3355   3.4892   3.5189  -3.1696   2.4328  -2.1597   0.00    0.0
2019/01/15 09:56:38.000   4280222.5220  -4034411.8348  -2458264.7437   5  11   4.6316   3.7274   3.5328  -3.4899   2.3383  -2.0255   0.00    0.0
2019/01/15 09:56:42.000   4280220.4148  -4034408.6249  -2458262.2996   5  11   4.6335   3.7277   3.5312  -3.4908   2.3372  -2.0232   0.00    0.0
2019/01/15 09:57:03.000   4280210.9957  -4034404.6248  -2458259.6354   5  12   4.3421   3.4874   3.5073  -3.1693   2.4236  -2.1431   0.00    0.0
2019/01/15 09:57:04.000   4280211.7958  -4034405.1206  -2458263.1463   5  11   4.6438   3.7294   3.5226  -3.4957   2.3309  -2.0108   0.00    0.0
2019/01/15 09:57:05.000   4280222.9974  -4034407.1089  -2458259.3418   5  11   4.6443   3.7295   3.5222  -3.4959   2.3306  -2.0102   0.00    0.0
2019/01/15 09:57:06.000   4280225.9409  -4034413.9217  -2458262.3601   5  11   4.6447   3.7296   3.5219  -3.4962   2.3303  -2.0096   0.00    0.0
2019/01/15 09:57:09.000   4280213.9711  -4034412.8979  -2458273.9263   5  12   4.3434   3.4871   3.5050  -3.1693   2.4219  -2.1399   0.00    0.0
2019/01/15 09:57:10.000   4280208.5269  -4034411.0513  -2458271.4249   5  12   4.3436   3.4870   3.5047  -3.1693   2.4216  -2.1393   0.00    0.0
2019/01/15 09:57:12.000   4280216.1864  -4034408.4631  -2458270.8429   5  12   4.3440   3.4869   3.5039  -3.1693   2.4210  -2.1383   0.00    0.0
