% program   : RTKPOST ver.2.4.2
% inp file  : D:\Google Drive\UERJ\_Projeto Final\Python\tcc-guilherme\20190115_LevantamentoCompleto_Smoothed.19o
% inp file  : D:\Google Drive\UERJ\_Projeto Final\20190115_Marco 91500 IBGE\brdm0150.19p
% obs start : 2019/01/15 09:25:22.0 GPST (week2036 206722.0s)
% obs end   : 2019/01/15 10:25:42.0 GPST (week2036 210342.0s)
% pos mode  : single
% elev mask : 15.0 deg
% ionos opt : off
% tropo opt : off
% ephemeris : broadcast
% navi sys  : gps glonass
%
% (x/y/z-ecef=WGS84,Q=1:fix,2:float,3:sbas,4:dgps,5:single,6:ppp,ns=# of satellites)
%  GPST                      x-ecef(m)      y-ecef(m)      z-ecef(m)   Q  ns   sdx(m)   sdy(m)   sdz(m)  sdxy(m)  sdyz(m)  sdzx(m) age(s)  ratio
2019/01/15 09:25:22.000   4280234.3641  -4034428.6953  -2458283.5531   5   9   8.4825  10.6694   6.1126  -8.3153  -3.6017  -1.8918   0.00    0.0
2019/01/15 09:25:23.000   4280223.0577  -4034436.3524  -2458290.1135   5  10   7.9560   8.9685   5.0114  -7.2207   2.6953  -3.7265   0.00    0.0
2019/01/15 09:25:24.000   4280236.8375  -4034444.4183  -2458277.3042   5   9   7.9806   9.0933   5.9492  -7.2852   1.5693  -3.4522   0.00    0.0
2019/01/15 09:25:25.000   4280231.2671  -4034437.2313  -2458269.9693   5  10   7.9578   8.9691   5.0117  -7.2226   2.6973  -3.7270   0.00    0.0
2019/01/15 09:25:26.000   4280221.0954  -4034419.9536  -2458271.9647   5  10   7.9588   8.9694   5.0119  -7.2235   2.6983  -3.7272   0.00    0.0
2019/01/15 09:25:27.000   4280214.3303  -4034422.1115  -2458281.9800   5   9   8.4722   9.9269   6.8336  -8.0333   5.2002  -5.2320   0.00    0.0
2019/01/15 09:25:28.000   4280216.4861  -4034430.5920  -2458276.0572   5  10   7.9606   8.9700   5.0122  -7.2253   2.7002  -3.7277   0.00    0.0
2019/01/15 09:25:29.000   4280216.6293  -4034419.0559  -2458277.0928   5   9   8.4731   9.9268   6.8330  -8.0341   5.2000  -5.2309   0.00    0.0
2019/01/15 09:25:30.000   4280232.5099  -4034432.3690  -2458289.2778   5   9   8.4735   9.9268   6.8326  -8.0344   5.1999  -5.2304   0.00    0.0
2019/01/15 09:25:31.000   4280223.4190  -4034423.6070  -2458260.7386   5   9   8.4740   9.9267   6.8323  -8.0348   5.1998  -5.2298   0.00    0.0
2019/01/15 09:25:32.000   4280213.8381  -4034414.5373  -2458263.5898   5   9   8.4745   9.9267   6.8320  -8.0352   5.1997  -5.2293   0.00    0.0
2019/01/15 09:25:33.000   4280217.0245  -4034419.6960  -2458269.9359   5   9   8.4749   9.9266   6.8316  -8.0356   5.1996  -5.2287   0.00    0.0
2019/01/15 09:25:34.000   4280215.3638  -4034415.4532  -2458269.6313   5   9   8.4754   9.9266   6.8313  -8.0359   5.1995  -5.2282   0.00    0.0
2019/01/15 09:25:35.000   4280217.8879  -4034417.5103  -2458270.7292   5   9   8.4758   9.9265   6.8310  -8.0363   5.1994  -5.2276   0.00    0.0
2019/01/15 09:25:36.000   4280224.0969  -4034421.1410  -2458266.2562   5   9   8.4763   9.9265   6.8306  -8.0367   5.1993  -5.2271   0.00    0.0
2019/01/15 09:25:37.000   4280226.6367  -4034422.5525  -2458271.0058   5   9   8.4767   9.9264   6.8303  -8.0370   5.1992  -5.2265   0.00    0.0
2019/01/15 09:25:38.000   4280229.3911  -4034419.7165  -2458269.7220   5  10   7.6083   7.5291   6.8294  -6.3574   5.2543  -5.2577   0.00    0.0
2019/01/15 09:25:39.000   4280232.6145  -4034420.2347  -2458267.3911   5  10   7.6082   7.5285   6.8291  -6.3571   5.2539  -5.2570   0.00    0.0
2019/01/15 09:25:40.000   4280243.1657  -4034431.6404  -2458297.9587   5   9   7.8664   7.9335   9.5354  -6.7390   6.6531  -6.3977   0.00    0.0
2019/01/15 09:25:41.000   4280247.8703  -4034435.7503  -2458301.4390   5   9   7.8655   7.9321   9.5330  -6.7378   6.6508  -6.3950   0.00    0.0
2019/01/15 09:25:42.000   4280252.0343  -4034438.6272  -2458305.5945   5   9   7.8647   7.9308   9.5306  -6.7366   6.6486  -6.3922   0.00    0.0
2019/01/15 09:25:43.000   4280253.6320  -4034436.7928  -2458311.1020   5   9   7.8639   7.9295   9.5281  -6.7354   6.6464  -6.3895   0.00    0.0
2019/01/15 09:25:44.000   4280257.9111  -4034439.6316  -2458315.3641   5   9   7.8630   7.9281   9.5257  -6.7342   6.6442  -6.3867   0.00    0.0
2019/01/15 09:25:45.000   4280262.0126  -4034442.6047  -2458319.2000   5   9   7.8622   7.9268   9.5233  -6.7329   6.6420  -6.3840   0.00    0.0
