% program   : RTKPOST ver.2.4.2
% inp file  : D:\Google Drive\UERJ\_Projeto Final\Python\tcc-guilherme\20190115_LevantamentoCompleto_Smoothed.19o
% inp file  : D:\Google Drive\UERJ\_Projeto Final\20190115_Marco 91500 IBGE\brdm0150.19p
% obs start : 2019/01/15 09:25:22.0 GPST (week2036 206722.0s)
% obs end   : 2019/01/15 10:25:42.0 GPST (week2036 210342.0s)
% pos mode  : single
% elev mask : 15.0 deg
% ionos opt : off
% tropo opt : off
% ephemeris : broadcast
%
% (x/y/z-ecef=WGS84,Q=1:fix,2:float,3:sbas,4:dgps,5:single,6:ppp,ns=# of satellites)
%  GPST                      x-ecef(m)      y-ecef(m)      z-ecef(m)   Q  ns   sdx(m)   sdy(m)   sdz(m)  sdxy(m)  sdyz(m)  sdzx(m) age(s)  ratio
2019/01/15 09:25:22.000   4280239.2751  -4034434.1100  -2458276.0554   5   6   9.9554  10.8757   7.5521  -8.6096  -4.2877  -3.7827   0.00    0.0
2019/01/15 09:25:23.000   4280233.8185  -4034437.0846  -2458291.8762   5   6   9.9571  10.8762   7.5523  -8.6112  -4.2869  -3.7831   0.00    0.0
2019/01/15 09:25:24.000   4280234.4874  -4034436.3170  -2458283.6159   5   6   9.9587  10.8767   7.5525  -8.6128  -4.2862  -3.7835   0.00    0.0
2019/01/15 09:25:25.000   4280228.6403  -4034434.3161  -2458271.9035   5   6   9.9604  10.8772   7.5527  -8.6144  -4.2854  -3.7839   0.00    0.0
2019/01/15 09:25:26.000   4280223.1949  -4034428.1924  -2458261.3963   5   6   9.9621  10.8777   7.5529  -8.6159  -4.2847  -3.7843   0.00    0.0
2019/01/15 09:25:27.000   4280226.5842  -4034423.7156  -2458289.5418   5   5  10.7946  10.9417  16.4757  -8.8967  -1.0545  -8.6678   0.00    0.0
2019/01/15 09:25:28.000   4280237.0739  -4034435.0189  -2458288.7627   5   6   9.9655  10.8787   7.5534  -8.6191  -4.2832  -3.7851   0.00    0.0
2019/01/15 09:25:29.000   4280226.8943  -4034423.2485  -2458288.1418   5   5  10.7946  10.9426  16.4610  -8.8989  -1.0685  -8.6573   0.00    0.0
2019/01/15 09:25:30.000   4280235.5321  -4034430.9150  -2458290.9838   5   5  10.7946  10.9430  16.4537  -8.8999  -1.0754  -8.6520   0.00    0.0
2019/01/15 09:25:31.000   4280228.5926  -4034423.1919  -2458280.2753   5   5  10.7946  10.9434  16.4464  -8.9010  -1.0821  -8.6468   0.00    0.0
2019/01/15 09:25:32.000   4280221.9642  -4034416.4952  -2458277.1288   5   5  10.7947  10.9438  16.4391  -8.9021  -1.0889  -8.6416   0.00    0.0
2019/01/15 09:25:33.000   4280228.3904  -4034425.6074  -2458282.2276   5   5  10.7947  10.9442  16.4318  -8.9032  -1.0955  -8.6363   0.00    0.0
2019/01/15 09:25:34.000   4280226.8230  -4034421.1948  -2458277.4485   5   5  10.7947  10.9447  16.4245  -8.9043  -1.1021  -8.6311   0.00    0.0
2019/01/15 09:25:35.000   4280229.4715  -4034426.0866  -2458281.8565   5   5  10.7947  10.9451  16.4171  -8.9054  -1.1087  -8.6259   0.00    0.0
2019/01/15 09:25:36.000   4280230.3974  -4034427.3747  -2458280.2283   5   5  10.7947  10.9455  16.4098  -8.9065  -1.1151  -8.6207   0.00    0.0
2019/01/15 09:25:37.000   4280231.8622  -4034429.1570  -2458281.7735   5   5  10.7948  10.9459  16.4025  -8.9075  -1.1215  -8.6155   0.00    0.0
2019/01/15 09:25:38.000   4280232.4202  -4034427.0446  -2458287.4042   5   6  10.6192   8.4354  13.3698  -8.1139   8.0578  -9.6197   0.00    0.0
2019/01/15 09:25:39.000   4280232.0570  -4034426.7245  -2458284.6381   5   6  10.6183   8.4340  13.3661  -8.1127   8.0551  -9.6168   0.00    0.0
2019/01/15 09:25:40.000   4280231.5656  -4034426.9905  -2458286.2446   5   6  10.6174   8.4327  13.3623  -8.1115   8.0524  -9.6138   0.00    0.0
2019/01/15 09:25:41.000   4280232.5750  -4034429.6229  -2458284.2006   5   6  10.6166   8.4313  13.3586  -8.1103   8.0497  -9.6108   0.00    0.0
2019/01/15 09:25:42.000   4280232.9825  -4034430.9994  -2458282.1877   5   6  10.6157   8.4300  13.3548  -8.1091   8.0470  -9.6079   0.00    0.0
2019/01/15 09:25:43.000   4280232.1531  -4034428.1918  -2458285.8490   5   6  10.6148   8.4286  13.3511  -8.1079   8.0443  -9.6049   0.00    0.0
2019/01/15 09:25:44.000   4280232.5160  -4034429.4663  -2458284.2367   5   6  10.6140   8.4273  13.3474  -8.1068   8.0416  -9.6019   0.00    0.0
2019/01/15 09:25:45.000   4280232.8484  -4034430.9355  -2458281.9966   5   6  10.6131   8.4260  13.3436  -8.1056   8.0389  -9.5990   0.00    0.0
2019/01/15 09:25:46.000   4280232.5667  -4034429.8861  -2458283.4751   5   6  10.6123   8.4246  13.3399  -8.1044   8.0362  -9.5960   0.00    0.0
2019/01/15 09:25:47.000   4280232.0073  -4034427.9852  -2458286.1290   5   6  10.6114   8.4233  13.3362  -8.1032   8.0335  -9.5931   0.00    0.0
2019/01/15 09:25:48.000   4280231.7727  -4034427.4358  -2458286.6634   5   6  10.6106   8.4219  13.3324  -8.1020   8.0308  -9.5901   0.00    0.0
2019/01/15 09:25:49.000   4280231.9415  -4034428.2845  -2458285.2060   5   6  10.6097   8.4206  13.3287  -8.1008   8.0281  -9.5871   0.00    0.0
2019/01/15 09:27:31.000   4280227.7388  -4034421.3234  -2458279.9613   5   6  10.5293   8.2895  12.9507  -7.9869   7.7595  -9.2899   0.00    0.0
2019/01/15 09:27:32.000   4280227.6709  -4034421.3375  -2458279.7352   5   6  10.5286   8.2883  12.9470  -7.9859   7.7569  -9.2870   0.00    0.0
2019/01/15 09:27:33.000   4280227.7426  -4034421.4372  -2458279.7884   5   6  10.5279   8.2871  12.9434  -7.9848   7.7543  -9.2841   0.00    0.0
2019/01/15 09:27:34.000   4280227.7348  -4034421.5114  -2458279.8157   5   6  10.5272   8.2859  12.9397  -7.9838   7.7518  -9.2813   0.00    0.0
2019/01/15 09:27:35.000   4280227.7477  -4034421.5130  -2458279.5522   5   6  10.5264   8.2846  12.9360  -7.9827   7.7492  -9.2784   0.00    0.0
2019/01/15 09:27:36.000   4280227.8388  -4034421.5662  -2458279.7001   5   6  10.5257   8.2834  12.9323  -7.9817   7.7466  -9.2755   0.00    0.0
2019/01/15 09:27:37.000   4280227.8444  -4034421.5529  -2458279.6770   5   6  10.5250   8.2822  12.9287  -7.9807   7.7441  -9.2727   0.00    0.0
2019/01/15 09:27:38.000   4280227.8790  -4034421.4820  -2458279.6264   5   6  10.5243   8.2810  12.9250  -7.9796   7.7415  -9.2698   0.00    0.0
2019/01/15 09:27:39.000   4280227.8979  -4034421.4498  -2458279.5977   5   6  10.5236   8.2797  12.9213  -7.9786   7.7389  -9.2669   0.00    0.0
2019/01/15 09:27:40.000   4280227.9428  -4034421.3849  -2458279.7337   5   6  10.5229   8.2785  12.9177  -7.9775   7.7364  -9.2641   0.00    0.0
2019/01/15 09:27:41.000   4280227.9758  -4034421.3157  -2458279.9079   5   6  10.5222   8.2773  12.9140  -7.9765   7.7338  -9.2612   0.00    0.0
2019/01/15 09:27:42.000   4280227.9006  -4034421.1880  -2458280.0181   5   6  10.5215   8.2761  12.9103  -7.9755   7.7312  -9.2584   0.00    0.0
2019/01/15 09:27:43.000   4280227.9615  -4034421.1273  -2458280.0884   5   6  10.5207   8.2749  12.9066  -7.9744   7.7287  -9.2555   0.00    0.0
2019/01/15 09:27:44.000   4280228.0009  -4034421.1015  -2458280.0460   5   6  10.5200   8.2736  12.9030  -7.9734   7.7261  -9.2526   0.00    0.0
2019/01/15 09:27:45.000   4280228.0770  -4034421.0747  -2458280.3069   5   6  10.5193   8.2724  12.8993  -7.9724   7.7236  -9.2498   0.00    0.0
2019/01/15 09:27:46.000   4280227.9818  -4034421.0146  -2458280.2868   5   6  10.5186   8.2712  12.8957  -7.9713   7.7210  -9.2469   0.00    0.0
2019/01/15 09:27:47.000   4280228.0282  -4034420.9027  -2458280.4875   5   6  10.5179   8.2700  12.8920  -7.9703   7.7185  -9.2441   0.00    0.0
2019/01/15 09:27:48.000   4280228.0272  -4034420.7701  -2458280.5731   5   6  10.5172   8.2688  12.8883  -7.9693   7.7159  -9.2412   0.00    0.0
2019/01/15 09:27:49.000   4280228.1399  -4034420.8836  -2458280.5767   5   6  10.5165   8.2676  12.8847  -7.9682   7.7134  -9.2384   0.00    0.0
2019/01/15 09:27:50.000   4280228.0612  -4034420.8115  -2458280.4609   5   6  10.5158   8.2664  12.8810  -7.9672   7.7108  -9.2355   0.00    0.0
2019/01/15 09:27:51.000   4280228.0450  -4034420.7717  -2458280.3580   5   6  10.5151   8.2652  12.8773  -7.9662   7.7083  -9.2327   0.00    0.0
2019/01/15 09:27:52.000   4280228.0077  -4034420.7496  -2458280.3069   5   6  10.5144   8.2640  12.8737  -7.9652   7.7057  -9.2298   0.00    0.0
2019/01/15 09:27:53.000   4280228.1620  -4034420.8396  -2458280.4301   5   6  10.5138   8.2627  12.8700  -7.9641   7.7032  -9.2270   0.00    0.0
2019/01/15 09:27:54.000   4280228.1224  -4034420.7827  -2458280.2878   5   6  10.5131   8.2615  12.8664  -7.9631   7.7006  -9.2241   0.00    0.0
2019/01/15 09:27:55.000   4280228.0429  -4034420.7120  -2458280.3079   5   6  10.5124   8.2603  12.8627  -7.9621   7.6981  -9.2213   0.00    0.0
2019/01/15 09:27:56.000   4280228.0678  -4034420.6206  -2458280.4651   5   6  10.5117   8.2591  12.8590  -7.9611   7.6955  -9.2184   0.00    0.0
2019/01/15 09:27:57.000   4280228.0851  -4034420.6598  -2458280.4595   5   6  10.5110   8.2579  12.8554  -7.9601   7.6930  -9.2156   0.00    0.0
2019/01/15 09:27:58.000   4280228.0516  -4034420.6421  -2458280.6538   5   6  10.5103   8.2567  12.8517  -7.9590   7.6904  -9.2128   0.00    0.0
2019/01/15 09:27:59.000   4280228.1919  -4034420.6825  -2458280.9417   5   6  10.5096   8.2555  12.8481  -7.9580   7.6879  -9.2099   0.00    0.0
2019/01/15 09:28:00.000   4280228.2172  -4034420.6708  -2458281.0643   5   6  10.5089   8.2543  12.8444  -7.9570   7.6854  -9.2071   0.00    0.0
2019/01/15 09:28:01.000   4280228.1476  -4034420.5537  -2458281.1394   5   6  10.5083   8.2531  12.8408  -7.9560   7.6828  -9.2042   0.00    0.0
2019/01/15 09:28:02.000   4280228.1766  -4034420.5725  -2458281.2145   5   6  10.5076   8.2519  12.8371  -7.9550   7.6803  -9.2014   0.00    0.0
2019/01/15 09:28:03.000   4280228.2228  -4034420.5734  -2458281.2277   5   6  10.5069   8.2507  12.8335  -7.9540   7.6777  -9.1986   0.00    0.0
2019/01/15 09:28:04.000   4280228.1571  -4034420.7416  -2458281.1872   5   6  10.5062   8.2495  12.8298  -7.9530   7.6752  -9.1957   0.00    0.0
2019/01/15 09:28:05.000   4280227.8676  -4034420.7957  -2458281.1099   5   6  10.5055   8.2484  12.8261  -7.9520   7.6727  -9.1929   0.00    0.0
2019/01/15 09:28:06.000   4280227.6340  -4034420.8351  -2458281.1904   5   6  10.5049   8.2472  12.8225  -7.9509   7.6702  -9.1900   0.00    0.0
2019/01/15 09:28:07.000   4280227.8173  -4034421.2442  -2458281.1214   5   6  10.5042   8.2460  12.8188  -7.9499   7.6676  -9.1872   0.00    0.0
2019/01/15 09:28:08.000   4280228.0339  -4034421.6612  -2458281.1290   5   6  10.5035   8.2448  12.8152  -7.9489   7.6651  -9.1844   0.00    0.0
2019/01/15 09:28:09.000   4280228.4644  -4034422.1093  -2458281.2726   5   6  10.5028   8.2436  12.8116  -7.9479   7.6626  -9.1815   0.00    0.0
2019/01/15 09:28:10.000   4280229.0120  -4034422.4674  -2458281.5601   5   6  10.5022   8.2424  12.8079  -7.9469   7.6600  -9.1787   0.00    0.0
2019/01/15 09:28:11.000   4280229.2798  -4034422.4136  -2458281.6808   5   6  10.5015   8.2412  12.8043  -7.9459   7.6575  -9.1759   0.00    0.0
2019/01/15 09:28:12.000   4280229.1085  -4034422.3792  -2458281.6859   5   6  10.5008   8.2400  12.8006  -7.9449   7.6550  -9.1731   0.00    0.0
2019/01/15 09:28:13.000   4280228.7357  -4034422.3131  -2458281.7648   5   6  10.5002   8.2388  12.7970  -7.9439   7.6525  -9.1702   0.00    0.0
2019/01/15 09:28:14.000   4280228.2499  -4034422.3975  -2458281.4948   5   6  10.4995   8.2377  12.7933  -7.9429   7.6499  -9.1674   0.00    0.0
2019/01/15 09:28:15.000   4280228.2715  -4034422.8833  -2458281.1244   5   6  10.4988   8.2365  12.7897  -7.9419   7.6474  -9.1646   0.00    0.0
2019/01/15 09:28:16.000   4280228.5964  -4034423.2457  -2458280.7054   5   6  10.4982   8.2353  12.7860  -7.9410   7.6449  -9.1618   0.00    0.0
2019/01/15 09:28:17.000   4280228.9014  -4034423.3016  -2458280.2285   5   6  10.4975   8.2341  12.7824  -7.9400   7.6424  -9.1589   0.00    0.0
2019/01/15 09:28:18.000   4280228.9433  -4034423.1713  -2458279.6342   5   6  10.4968   8.2329  12.7787  -7.9390   7.6399  -9.1561   0.00    0.0
2019/01/15 09:28:19.000   4280229.1189  -4034423.3512  -2458279.6170   5   6  10.4962   8.2318  12.7751  -7.9380   7.6374  -9.1533   0.00    0.0
2019/01/15 09:28:20.000   4280228.6268  -4034423.2797  -2458279.4184   5   6  10.4955   8.2306  12.7715  -7.9370   7.6348  -9.1505   0.00    0.0
2019/01/15 09:28:21.000   4280228.1926  -4034423.1742  -2458279.5625   5   6  10.4949   8.2294  12.7678  -7.9360   7.6323  -9.1476   0.00    0.0
2019/01/15 09:28:22.000   4280227.7994  -4034423.0919  -2458280.0327   5   6  10.4942   8.2282  12.7642  -7.9350   7.6298  -9.1448   0.00    0.0
2019/01/15 09:28:23.000   4280227.6542  -4034422.8964  -2458280.3434   5   6  10.4936   8.2271  12.7606  -7.9340   7.6273  -9.1420   0.00    0.0
2019/01/15 09:28:24.000   4280228.0535  -4034422.9484  -2458280.9228   5   6  10.4929   8.2259  12.7569  -7.9330   7.6248  -9.1392   0.00    0.0
2019/01/15 09:28:25.000   4280228.5972  -4034423.0590  -2458281.6677   5   6  10.4922   8.2247  12.7533  -7.9321   7.6223  -9.1364   0.00    0.0
2019/01/15 09:28:26.000   4280229.0865  -4034423.3076  -2458282.2731   5   6  10.4916   8.2235  12.7496  -7.9311   7.6198  -9.1336   0.00    0.0
2019/01/15 09:28:27.000   4280229.0465  -4034423.3120  -2458282.1080   5   6  10.4909   8.2224  12.7460  -7.9301   7.6173  -9.1307   0.00    0.0
2019/01/15 09:28:28.000   4280228.5667  -4034423.2520  -2458281.4747   5   6  10.4903   8.2212  12.7424  -7.9291   7.6148  -9.1279   0.00    0.0
2019/01/15 09:28:29.000   4280228.2906  -4034423.1642  -2458281.0568   5   6  10.4897   8.2200  12.7387  -7.9282   7.6123  -9.1251   0.00    0.0
2019/01/15 09:28:30.000   4280228.2714  -4034423.4294  -2458280.9185   5   6  10.4890   8.2189  12.7351  -7.9272   7.6098  -9.1223   0.00    0.0
2019/01/15 09:28:31.000   4280228.2161  -4034423.4544  -2458280.4887   5   6  10.4884   8.2177  12.7315  -7.9262   7.6073  -9.1195   0.00    0.0
2019/01/15 09:28:32.000   4280227.6403  -4034422.9392  -2458279.7339   5   6  10.4877   8.2165  12.7278  -7.9252   7.6048  -9.1167   0.00    0.0
2019/01/15 09:28:33.000   4280227.3396  -4034422.6646  -2458279.3082   5   6  10.4871   8.2154  12.7242  -7.9243   7.6023  -9.1139   0.00    0.0
2019/01/15 09:28:34.000   4280226.8066  -4034422.3030  -2458278.6481   5   6  10.4864   8.2142  12.7206  -7.9233   7.5998  -9.1111   0.00    0.0
2019/01/15 09:28:35.000   4280226.8491  -4034422.1124  -2458278.3493   5   6  10.4858   8.2130  12.7170  -7.9223   7.5973  -9.1083   0.00    0.0
2019/01/15 09:28:36.000   4280227.5369  -4034422.3147  -2458278.3543   5   6  10.4852   8.2119  12.7133  -7.9213   7.5948  -9.1055   0.00    0.0
2019/01/15 09:28:37.000   4280227.9374  -4034422.4098  -2458278.2342   5   6  10.4845   8.2107  12.7097  -7.9204   7.5923  -9.1027   0.00    0.0
2019/01/15 09:28:38.000   4280228.2050  -4034422.5787  -2458278.2009   5   6  10.4839   8.2096  12.7061  -7.9194   7.5898  -9.0999   0.00    0.0
2019/01/15 09:28:39.000   4280228.3240  -4034422.8225  -2458278.3914   5   6  10.4833   8.2084  12.7025  -7.9185   7.5873  -9.0971   0.00    0.0
2019/01/15 09:28:40.000   4280228.6101  -4034423.1772  -2458278.6347   5   6  10.4826   8.2072  12.6988  -7.9175   7.5848  -9.0943   0.00    0.0
2019/01/15 09:28:41.000   4280228.8315  -4034423.3374  -2458278.6410   5   6  10.4820   8.2061  12.6952  -7.9165   7.5823  -9.0915   0.00    0.0
2019/01/15 09:28:42.000   4280228.9313  -4034423.3291  -2458278.8749   5   6  10.4814   8.2049  12.6916  -7.9156   7.5799  -9.0887   0.00    0.0
2019/01/15 09:28:43.000   4280228.4590  -4034422.8050  -2458278.5914   5   6  10.4807   8.2038  12.6880  -7.9146   7.5774  -9.0859   0.00    0.0
2019/01/15 09:28:44.000   4280227.7589  -4034422.3095  -2458278.5155   5   6  10.4801   8.2026  12.6843  -7.9137   7.5749  -9.0831   0.00    0.0
2019/01/15 09:28:45.000   4280227.3121  -4034421.9483  -2458278.4765   5   6  10.4795   8.2015  12.6807  -7.9127   7.5724  -9.0803   0.00    0.0
2019/01/15 09:28:46.000   4280226.8815  -4034421.4246  -2458278.4079   5   6  10.4789   8.2003  12.6771  -7.9117   7.5699  -9.0775   0.00    0.0
2019/01/15 09:28:47.000   4280226.7144  -4034421.0010  -2458278.2508   5   6  10.4783   8.1992  12.6735  -7.9108   7.5674  -9.0747   0.00    0.0
2019/01/15 09:28:48.000   4280227.2154  -4034421.0257  -2458278.5210   5   6  10.4776   8.1980  12.6699  -7.9098   7.5650  -9.0719   0.00    0.0
2019/01/15 09:28:49.000   4280227.2201  -4034421.0378  -2458278.4262   5   6  10.4770   8.1969  12.6663  -7.9089   7.5625  -9.0691   0.00    0.0
2019/01/15 09:28:50.000   4280226.6958  -4034420.8136  -2458278.3065   5   6  10.4764   8.1957  12.6626  -7.9079   7.5600  -9.0663   0.00    0.0
2019/01/15 09:28:51.000   4280226.4768  -4034420.6280  -2458277.9831   5   6  10.4758   8.1946  12.6590  -7.9070   7.5575  -9.0635   0.00    0.0
2019/01/15 09:28:52.000   4280226.5231  -4034420.6838  -2458277.8357   5   6  10.4752   8.1934  12.6554  -7.9060   7.5551  -9.0607   0.00    0.0
2019/01/15 09:28:53.000   4280226.8133  -4034420.9539  -2458278.0303   5   6  10.4745   8.1923  12.6518  -7.9051   7.5526  -9.0580   0.00    0.0
2019/01/15 09:28:54.000   4280227.3051  -4034421.3606  -2458278.5567   5   6  10.4739   8.1912  12.6482  -7.9041   7.5501  -9.0552   0.00    0.0
2019/01/15 09:28:55.000   4280227.5234  -4034421.5275  -2458278.8468   5   6  10.4733   8.1900  12.6446  -7.9032   7.5476  -9.0524   0.00    0.0
2019/01/15 09:28:56.000   4280227.1929  -4034421.5101  -2458278.6895   5   6  10.4727   8.1889  12.6410  -7.9023   7.5452  -9.0496   0.00    0.0
2019/01/15 09:28:57.000   4280226.5429  -4034421.3906  -2458278.4512   5   6  10.4721   8.1877  12.6373  -7.9013   7.5427  -9.0468   0.00    0.0
2019/01/15 09:28:58.000   4280226.1496  -4034421.3596  -2458278.6683   5   6  10.4715   8.1866  12.6337  -7.9004   7.5402  -9.0440   0.00    0.0
2019/01/15 09:28:59.000   4280225.5999  -4034421.0776  -2458278.8322   5   6  10.4709   8.1855  12.6301  -7.8994   7.5378  -9.0413   0.00    0.0
2019/01/15 09:29:00.000   4280225.4469  -4034420.9396  -2458279.1992   5   6  10.4703   8.1843  12.6265  -7.8985   7.5353  -9.0385   0.00    0.0
2019/01/15 09:29:01.000   4280225.8797  -4034420.8932  -2458279.7546   5   6  10.4697   8.1832  12.6229  -7.8976   7.5328  -9.0357   0.00    0.0
2019/01/15 09:29:02.000   4280226.5811  -4034420.8580  -2458280.1131   5   6  10.4691   8.1821  12.6193  -7.8966   7.5304  -9.0329   0.00    0.0
2019/01/15 09:29:03.000   4280227.6941  -4034421.2698  -2458280.3361   5   6  10.4685   8.1809  12.6157  -7.8957   7.5279  -9.0301   0.00    0.0
2019/01/15 09:29:04.000   4280228.1045  -4034421.7347  -2458280.0629   5   6  10.4679   8.1798  12.6121  -7.8948   7.5255  -9.0274   0.00    0.0
2019/01/15 09:29:05.000   4280227.9555  -4034421.8389  -2458279.4832   5   6  10.4673   8.1787  12.6085  -7.8938   7.5230  -9.0246   0.00    0.0
2019/01/15 09:29:06.000   4280227.3286  -4034421.5951  -2458278.5809   5   6  10.4667   8.1775  12.6049  -7.8929   7.5206  -9.0218   0.00    0.0
2019/01/15 09:29:07.000   4280226.9280  -4034421.6112  -2458277.8475   5   6  10.4661   8.1764  12.6013  -7.8920   7.5181  -9.0191   0.00    0.0
2019/01/15 09:29:08.000   4280226.8269  -4034421.5586  -2458277.5124   5   6  10.4655   8.1753  12.5977  -7.8911   7.5156  -9.0163   0.00    0.0
2019/01/15 09:29:09.000   4280227.0198  -4034421.5279  -2458277.4667   5   6  10.4649   8.1742  12.5941  -7.8901   7.5132  -9.0135   0.00    0.0
2019/01/15 09:29:10.000   4280227.3867  -4034421.5552  -2458277.7818   5   6  10.4643   8.1730  12.5905  -7.8892   7.5107  -9.0107   0.00    0.0
2019/01/15 09:29:11.000   4280227.6188  -4034421.6692  -2458277.9392   5   6  10.4637   8.1719  12.5869  -7.8883   7.5083  -9.0080   0.00    0.0
2019/01/15 09:29:12.000   4280227.7602  -4034421.6416  -2458278.3159   5   6  10.4631   8.1708  12.5833  -7.8874   7.5058  -9.0052   0.00    0.0
2019/01/15 09:29:13.000   4280227.4491  -4034421.3013  -2458278.4587   5   6  10.4625   8.1697  12.5797  -7.8864   7.5034  -9.0025   0.00    0.0
2019/01/15 09:29:14.000   4280227.1750  -4034421.1474  -2458278.5403   5   6  10.4619   8.1685  12.5761  -7.8855   7.5010  -8.9997   0.00    0.0
2019/01/15 09:29:15.000   4280227.0341  -4034420.9420  -2458278.3140   5   6  10.4614   8.1674  12.5725  -7.8846   7.4985  -8.9969   0.00    0.0
2019/01/15 09:29:16.000   4280227.4411  -4034421.1793  -2458278.1145   5   6  10.4608   8.1663  12.5689  -7.8837   7.4961  -8.9942   0.00    0.0
2019/01/15 09:29:17.000   4280227.6545  -4034421.3186  -2458277.8407   5   6  10.4602   8.1652  12.5653  -7.8828   7.4936  -8.9914   0.00    0.0
2019/01/15 09:29:18.000   4280227.3634  -4034421.3850  -2458277.3693   5   6  10.4596   8.1641  12.5617  -7.8819   7.4912  -8.9886   0.00    0.0
2019/01/15 09:29:19.000   4280227.2718  -4034421.3841  -2458276.9885   5   6  10.4590   8.1630  12.5581  -7.8809   7.4887  -8.9859   0.00    0.0
2019/01/15 09:29:20.000   4280227.5877  -4034421.5315  -2458276.3487   5   6  10.4585   8.1618  12.5545  -7.8800   7.4863  -8.9831   0.00    0.0
2019/01/15 09:29:21.000   4280227.8210  -4034421.5883  -2458275.7961   5   6  10.4579   8.1607  12.5510  -7.8791   7.4839  -8.9804   0.00    0.0
2019/01/15 09:29:22.000   4280227.7659  -4034421.1286  -2458275.5002   5   6  10.4573   8.1596  12.5474  -7.8782   7.4814  -8.9776   0.00    0.0
2019/01/15 09:29:23.000   4280227.4332  -4034420.5057  -2458275.3493   5   6  10.4567   8.1585  12.5438  -7.8773   7.4790  -8.9749   0.00    0.0
2019/01/15 09:29:24.000   4280227.3833  -4034420.2907  -2458275.4196   5   6  10.4562   8.1574  12.5402  -7.8764   7.4766  -8.9721   0.00    0.0
2019/01/15 09:29:25.000   4280227.4034  -4034420.4357  -2458275.6520   5   6  10.4556   8.1563  12.5366  -7.8755   7.4741  -8.9694   0.00    0.0
2019/01/15 09:29:26.000   4280227.5382  -4034420.7981  -2458276.0402   5   6  10.4550   8.1552  12.5330  -7.8746   7.4717  -8.9666   0.00    0.0
2019/01/15 09:29:27.000   4280227.4713  -4034421.2232  -2458276.0338   5   6  10.4544   8.1541  12.5294  -7.8737   7.4693  -8.9639   0.00    0.0
2019/01/15 09:29:28.000   4280227.3455  -4034421.4069  -2458275.7659   5   6  10.4539   8.1530  12.5259  -7.8728   7.4668  -8.9611   0.00    0.0
2019/01/15 09:29:29.000   4280227.2173  -4034421.5915  -2458275.6561   5   6  10.4533   8.1518  12.5223  -7.8719   7.4644  -8.9584   0.00    0.0
2019/01/15 09:29:30.000   4280227.2721  -4034421.8265  -2458275.7494   5   6  10.4527   8.1507  12.5187  -7.8710   7.4620  -8.9556   0.00    0.0
2019/01/15 09:29:31.000   4280227.3055  -4034421.7567  -2458275.9216   5   6  10.4522   8.1496  12.5151  -7.8701   7.4596  -8.9529   0.00    0.0
2019/01/15 09:29:32.000   4280227.0973  -4034421.2942  -2458275.7272   5   6  10.4516   8.1485  12.5115  -7.8692   7.4571  -8.9501   0.00    0.0
2019/01/15 09:29:33.000   4280227.2189  -4034421.1010  -2458275.7128   5   6  10.4511   8.1474  12.5079  -7.8683   7.4547  -8.9474   0.00    0.0
2019/01/15 09:29:34.000   4280226.9415  -4034420.8995  -2458275.4384   5   6  10.4505   8.1463  12.5044  -7.8674   7.4523  -8.9446   0.00    0.0
2019/01/15 09:29:35.000   4280226.3182  -4034420.5332  -2458275.1635   5   6  10.4499   8.1452  12.5008  -7.8665   7.4499  -8.9419   0.00    0.0
2019/01/15 09:29:36.000   4280225.8165  -4034420.3102  -2458274.7924   5   6  10.4494   8.1441  12.4972  -7.8656   7.4475  -8.9392   0.00    0.0
2019/01/15 09:29:37.000   4280225.7377  -4034420.3911  -2458274.7578   5   6  10.4488   8.1430  12.4936  -7.8647   7.4450  -8.9364   0.00    0.0
2019/01/15 09:29:38.000   4280225.4241  -4034420.3272  -2458274.2816   5   6  10.4483   8.1419  12.4901  -7.8638   7.4426  -8.9337   0.00    0.0
2019/01/15 09:29:39.000   4280225.4125  -4034420.5196  -2458273.7835   5   6  10.4477   8.1408  12.4865  -7.8630   7.4402  -8.9309   0.00    0.0
2019/01/15 09:29:40.000   4280225.6464  -4034420.7320  -2458273.3779   5   6  10.4472   8.1398  12.4829  -7.8621   7.4378  -8.9282   0.00    0.0
2019/01/15 09:29:41.000   4280225.9873  -4034420.8323  -2458273.2850   5   6  10.4466   8.1387  12.4794  -7.8612   7.4354  -8.9255   0.00    0.0
2019/01/15 09:29:42.000   4280226.0317  -4034420.7759  -2458273.6753   5   6  10.4461   8.1376  12.4758  -7.8603   7.4330  -8.9227   0.00    0.0
2019/01/15 09:29:43.000   4280225.9739  -4034420.7717  -2458274.5051   5   6  10.4455   8.1365  12.4722  -7.8594   7.4306  -8.9200   0.00    0.0
2019/01/15 09:29:44.000   4280225.9060  -4034420.8656  -2458275.0219   5   6  10.4450   8.1354  12.4686  -7.8585   7.4282  -8.9173   0.00    0.0
2019/01/15 09:29:45.000   4280225.9077  -4034421.4095  -2458275.4940   5   6  10.4444   8.1343  12.4651  -7.8577   7.4258  -8.9145   0.00    0.0
2019/01/15 09:29:46.000   4280225.8670  -4034421.7534  -2458275.3768   5   6  10.4439   8.1332  12.4615  -7.8568   7.4234  -8.9118   0.00    0.0
2019/01/15 09:29:47.000   4280225.9419  -4034421.8299  -2458274.5280   5   6  10.4433   8.1321  12.4579  -7.8559   7.4210  -8.9091   0.00    0.0
2019/01/15 09:29:48.000   4280225.6917  -4034421.6563  -2458273.3952   5   6  10.4428   8.1310  12.4544  -7.8550   7.4185  -8.9064   0.00    0.0
2019/01/15 09:29:49.000   4280225.9339  -4034421.7614  -2458272.8517   5   6  10.4422   8.1300  12.4508  -7.8541   7.4161  -8.9036   0.00    0.0
2019/01/15 09:29:50.000   4280225.8087  -4034421.6201  -2458272.5012   5   6  10.4417   8.1289  12.4472  -7.8533   7.4137  -8.9009   0.00    0.0
2019/01/15 09:29:51.000   4280226.1710  -4034421.5587  -2458272.5512   5   6  10.4412   8.1278  12.4437  -7.8524   7.4113  -8.8982   0.00    0.0
2019/01/15 09:29:52.000   4280226.2899  -4034421.2818  -2458272.1137   5   6  10.4406   8.1267  12.4401  -7.8515   7.4090  -8.8955   0.00    0.0
2019/01/15 09:29:53.000   4280226.2511  -4034421.1294  -2458271.8538   5   6  10.4401   8.1256  12.4366  -7.8507   7.4066  -8.8927   0.00    0.0
2019/01/15 09:29:54.000   4280225.5548  -4034420.5403  -2458271.4362   5   6  10.4396   8.1245  12.4330  -7.8498   7.4042  -8.8900   0.00    0.0
2019/01/15 09:29:55.000   4280225.2583  -4034420.2000  -2458271.4382   5   6  10.4390   8.1235  12.4294  -7.8489   7.4018  -8.8873   0.00    0.0
2019/01/15 09:29:56.000   4280225.3417  -4034420.3032  -2458271.5469   5   6  10.4385   8.1224  12.4259  -7.8481   7.3994  -8.8846   0.00    0.0
2019/01/15 09:29:57.000   4280225.5141  -4034420.5542  -2458271.7185   5   6  10.4380   8.1213  12.4223  -7.8472   7.3970  -8.8819   0.00    0.0
2019/01/15 09:29:58.000   4280225.6672  -4034420.7945  -2458272.0543   5   6  10.4374   8.1202  12.4188  -7.8463   7.3946  -8.8792   0.00    0.0
2019/01/15 09:29:59.000   4280226.3430  -4034421.3559  -2458272.6783   5   6  10.4369   8.1192  12.4152  -7.8455   7.3922  -8.8764   0.00    0.0
2019/01/15 09:30:00.000   4280227.1819  -4034421.9301  -2458273.6114   5   6  10.4364   8.1181  12.4117  -7.8446   7.3898  -8.8737   0.00    0.0
2019/01/15 09:30:01.000   4280227.8723  -4034422.1831  -2458274.2339   5   6  10.4359   8.1170  12.4081  -7.8437   7.3874  -8.8710   0.00    0.0
2019/01/15 09:30:02.000   4280227.9113  -4034421.9729  -2458274.4432   5   6  10.4353   8.1159  12.4046  -7.8429   7.3850  -8.8683   0.00    0.0
2019/01/15 09:30:03.000   4280228.0533  -4034421.7418  -2458274.5436   5   6  10.4348   8.1149  12.4010  -7.8420   7.3827  -8.8656   0.00    0.0
2019/01/15 09:30:04.000   4280228.1730  -4034421.5794  -2458274.2717   5   6  10.4343   8.1138  12.3975  -7.8412   7.3803  -8.8629   0.00    0.0
2019/01/15 09:30:05.000   4280228.5413  -4034421.8917  -2458274.3588   5   6  10.4338   8.1127  12.3939  -7.8403   7.3779  -8.8602   0.00    0.0
2019/01/15 09:30:06.000   4280228.9529  -4034422.1856  -2458274.4660   5   6  10.4333   8.1117  12.3904  -7.8395   7.3755  -8.8575   0.00    0.0
2019/01/15 09:30:07.000   4280229.0815  -4034422.3295  -2458274.2818   5   6  10.4327   8.1106  12.3868  -7.8386   7.3731  -8.8548   0.00    0.0
2019/01/15 09:30:08.000   4280229.1808  -4034422.2603  -2458274.2964   5   6  10.4322   8.1095  12.3833  -7.8378   7.3708  -8.8521   0.00    0.0
2019/01/15 09:30:09.000   4280229.1992  -4034422.0738  -2458274.4502   5   6  10.4317   8.1085  12.3797  -7.8369   7.3684  -8.8493   0.00    0.0
2019/01/15 09:30:10.000   4280229.0387  -4034421.9716  -2458274.4733   5   6  10.4312   8.1074  12.3762  -7.8361   7.3660  -8.8466   0.00    0.0
2019/01/15 09:30:11.000   4280229.2118  -4034422.0900  -2458274.6539   5   6  10.4307   8.1063  12.3726  -7.8352   7.3636  -8.8439   0.00    0.0
2019/01/15 09:30:12.000   4280229.6010  -4034422.3721  -2458274.5652   5   6  10.4302   8.1053  12.3691  -7.8344   7.3613  -8.8412   0.00    0.0
2019/01/15 09:30:13.000   4280229.9402  -4034422.5992  -2458274.5161   5   6  10.4297   8.1042  12.3655  -7.8335   7.3589  -8.8385   0.00    0.0
2019/01/15 09:30:14.000   4280229.9714  -4034422.7460  -2458274.1887   5   6  10.4292   8.1031  12.3620  -7.8327   7.3565  -8.8358   0.00    0.0
2019/01/15 09:30:15.000   4280230.1067  -4034423.1791  -2458274.2535   5   6  10.4287   8.1021  12.3585  -7.8318   7.3542  -8.8332   0.00    0.0
2019/01/15 09:30:16.000   4280230.3097  -4034423.6518  -2458274.4182   5   6  10.4282   8.1010  12.3549  -7.8310   7.3518  -8.8305   0.00    0.0
2019/01/15 09:30:17.000   4280230.4715  -4034423.9701  -2458274.3528   5   6  10.4277   8.1000  12.3514  -7.8302   7.3494  -8.8278   0.00    0.0
2019/01/15 09:30:18.000   4280230.4523  -4034423.8600  -2458274.0074   5   6  10.4272   8.0989  12.3478  -7.8293   7.3471  -8.8251   0.00    0.0
2019/01/15 09:30:19.000   4280230.1194  -4034423.5195  -2458273.4064   5   6  10.4267   8.0979  12.3443  -7.8285   7.3447  -8.8224   0.00    0.0
2019/01/15 09:30:20.000   4280230.1094  -4034423.2418  -2458272.9818   5   6  10.4262   8.0968  12.3408  -7.8277   7.3423  -8.8197   0.00    0.0
2019/01/15 09:30:21.000   4280230.0825  -4034422.9915  -2458272.8632   5   6  10.4257   8.0958  12.3372  -7.8268   7.3400  -8.8170   0.00    0.0
2019/01/15 09:30:22.000   4280229.5272  -4034422.5619  -2458272.3486   5   6  10.4252   8.0947  12.3337  -7.8260   7.3376  -8.8143   0.00    0.0
2019/01/15 09:30:23.000   4280228.9968  -4034422.4267  -2458272.0214   5   6  10.4247   8.0937  12.3302  -7.8252   7.3353  -8.8116   0.00    0.0
2019/01/15 09:30:24.000   4280228.8455  -4034422.4575  -2458272.0229   5   6  10.4242   8.0926  12.3266  -7.8243   7.3329  -8.8089   0.00    0.0
2019/01/15 09:30:25.000   4280228.9000  -4034422.5391  -2458272.0299   5   6  10.4237   8.0916  12.3231  -7.8235   7.3306  -8.8063   0.00    0.0
2019/01/15 09:30:26.000   4280228.8717  -4034422.6348  -2458271.6869   5   6  10.4232   8.0905  12.3196  -7.8227   7.3282  -8.8036   0.00    0.0
2019/01/15 09:30:27.000   4280228.4804  -4034422.4007  -2458271.1659   5   6  10.4227   8.0895  12.3161  -7.8218   7.3259  -8.8009   0.00    0.0
2019/01/15 09:30:28.000   4280228.2439  -4034422.2543  -2458270.8155   5   6  10.4222   8.0884  12.3125  -7.8210   7.3235  -8.7982   0.00    0.0
2019/01/15 09:30:29.000   4280227.9501  -4034421.8838  -2458270.4973   5   6  10.4217   8.0874  12.3090  -7.8202   7.3212  -8.7955   0.00    0.0
2019/01/15 09:30:30.000   4280227.5842  -4034421.5629  -2458270.2539   5   6  10.4212   8.0863  12.3055  -7.8194   7.3188  -8.7928   0.00    0.0
2019/01/15 09:30:31.000   4280227.4774  -4034421.3215  -2458270.1836   5   6  10.4208   8.0853  12.3019  -7.8185   7.3165  -8.7902   0.00    0.0
2019/01/15 09:30:32.000   4280227.5085  -4034421.0036  -2458270.1600   5   6  10.4203   8.0842  12.2984  -7.8177   7.3141  -8.7875   0.00    0.0
2019/01/15 09:30:33.000   4280227.1418  -4034420.7820  -2458269.7936   5   6  10.4198   8.0832  12.2949  -7.8169   7.3118  -8.7848   0.00    0.0
2019/01/15 09:30:34.000   4280227.1154  -4034420.8442  -2458269.8986   5   6  10.4193   8.0822  12.2914  -7.8161   7.3094  -8.7821   0.00    0.0
2019/01/15 09:30:35.000   4280227.0149  -4034420.6558  -2458270.0173   5   6  10.4188   8.0811  12.2879  -7.8153   7.3071  -8.7795   0.00    0.0
2019/01/15 09:30:36.000   4280227.1124  -4034420.6092  -2458270.3071   5   6  10.4184   8.0801  12.2843  -7.8145   7.3047  -8.7768   0.00    0.0
2019/01/15 09:30:37.000   4280227.6149  -4034420.9499  -2458270.6059   5   6  10.4179   8.0790  12.2808  -7.8136   7.3024  -8.7741   0.00    0.0
2019/01/15 09:30:38.000   4280227.9385  -4034421.2012  -2458270.6904   5   6  10.4174   8.0780  12.2773  -7.8128   7.3001  -8.7715   0.00    0.0
2019/01/15 09:30:39.000   4280228.0918  -4034421.3803  -2458270.5934   5   6  10.4169   8.0770  12.2738  -7.8120   7.2977  -8.7688   0.00    0.0
2019/01/15 09:30:40.000   4280228.0687  -4034421.2910  -2458270.3388   5   6  10.4165   8.0759  12.2703  -7.8112   7.2954  -8.7661   0.00    0.0
2019/01/15 09:30:41.000   4280227.2656  -4034420.9743  -2458269.7952   5   6  10.4160   8.0749  12.2668  -7.8104   7.2931  -8.7634   0.00    0.0
2019/01/15 09:30:42.000   4280226.3406  -4034420.5259  -2458269.0579   5   6  10.4155   8.0739  12.2632  -7.8096   7.2907  -8.7608   0.00    0.0
2019/01/15 09:30:43.000   4280226.1039  -4034420.2502  -2458268.7007   5   6  10.4150   8.0728  12.2597  -7.8088   7.2884  -8.7581   0.00    0.0
2019/01/15 09:30:44.000   4280226.3330  -4034420.1160  -2458268.7410   5   6  10.4146   8.0718  12.2562  -7.8080   7.2861  -8.7555   0.00    0.0
2019/01/15 09:30:45.000   4280226.1982  -4034420.0221  -2458268.6979   5   6  10.4141   8.0708  12.2527  -7.8072   7.2837  -8.7528   0.00    0.0
2019/01/15 09:30:46.000   4280226.0334  -4034419.9614  -2458269.0993   5   6  10.4136   8.0698  12.2492  -7.8064   7.2814  -8.7501   0.00    0.0
2019/01/15 09:30:47.000   4280225.8404  -4034419.8564  -2458269.8011   5   6  10.4132   8.0687  12.2457  -7.8056   7.2791  -8.7475   0.00    0.0
2019/01/15 09:30:48.000   4280225.8402  -4034419.8644  -2458270.5376   5   6  10.4127   8.0677  12.2422  -7.8048   7.2768  -8.7448   0.00    0.0
2019/01/15 09:30:49.000   4280226.0278  -4034420.0099  -2458270.9424   5   6  10.4123   8.0667  12.2387  -7.8040   7.2744  -8.7422   0.00    0.0
2019/01/15 09:30:50.000   4280226.4319  -4034420.2856  -2458271.2918   5   6  10.4118   8.0657  12.2352  -7.8032   7.2721  -8.7395   0.00    0.0
2019/01/15 09:30:51.000   4280226.3438  -4034420.5473  -2458271.0031   5   6  10.4113   8.0646  12.2317  -7.8024   7.2698  -8.7368   0.00    0.0
2019/01/15 09:30:52.000   4280226.3948  -4034420.5980  -2458270.9802   5   6  10.4109   8.0636  12.2282  -7.8016   7.2675  -8.7342   0.00    0.0
2019/01/15 09:30:53.000   4280226.3158  -4034420.5760  -2458271.0089   5   6  10.4104   8.0626  12.2247  -7.8008   7.2652  -8.7315   0.00    0.0
2019/01/15 09:30:54.000   4280226.0182  -4034420.4614  -2458271.0447   5   6  10.4100   8.0616  12.2212  -7.8000   7.2628  -8.7289   0.00    0.0
2019/01/15 09:30:55.000   4280225.4803  -4034420.2916  -2458271.0574   5   6  10.4095   8.0606  12.2177  -7.7992   7.2605  -8.7262   0.00    0.0
2019/01/15 09:30:56.000   4280225.3843  -4034420.3810  -2458271.1827   5   6  10.4091   8.0595  12.2142  -7.7984   7.2582  -8.7236   0.00    0.0
2019/01/15 09:30:57.000   4280225.2174  -4034420.3556  -2458271.1254   5   6  10.4086   8.0585  12.2107  -7.7976   7.2559  -8.7209   0.00    0.0
2019/01/15 09:30:58.000   4280225.0805  -4034420.4518  -2458270.7543   5   6  10.4082   8.0575  12.2072  -7.7968   7.2536  -8.7183   0.00    0.0
2019/01/15 09:30:59.000   4280225.2256  -4034420.6981  -2458270.3892   5   6  10.4077   8.0565  12.2037  -7.7960   7.2513  -8.7156   0.00    0.0
2019/01/15 09:31:00.000   4280225.6416  -4034421.1225  -2458270.5471   5   6  10.4073   8.0555  12.2002  -7.7953   7.2490  -8.7130   0.00    0.0
2019/01/15 09:31:01.000   4280225.5183  -4034421.1817  -2458270.5221   5   6  10.4068   8.0545  12.1967  -7.7945   7.2466  -8.7104   0.00    0.0
2019/01/15 09:31:02.000   4280225.2380  -4034421.0040  -2458270.3579   5   6  10.4064   8.0534  12.1932  -7.7937   7.2443  -8.7077   0.00    0.0
2019/01/15 09:31:03.000   4280224.9084  -4034420.6321  -2458270.0036   5   6  10.4059   8.0524  12.1897  -7.7929   7.2420  -8.7051   0.00    0.0
2019/01/15 09:31:04.000   4280224.8681  -4034420.6674  -2458269.7748   5   6  10.4055   8.0514  12.1862  -7.7921   7.2397  -8.7024   0.00    0.0
2019/01/15 09:31:05.000   4280225.1996  -4034420.9479  -2458269.4182   5   6  10.4051   8.0504  12.1827  -7.7913   7.2374  -8.6998   0.00    0.0
2019/01/15 09:31:06.000   4280225.7783  -4034421.3890  -2458269.7061   5   6  10.4046   8.0494  12.1792  -7.7906   7.2351  -8.6972   0.00    0.0
2019/01/15 09:31:07.000   4280226.3440  -4034421.7718  -2458270.2273   5   6  10.4042   8.0484  12.1757  -7.7898   7.2328  -8.6945   0.00    0.0
2019/01/15 09:31:08.000   4280226.4444  -4034421.6527  -2458270.4142   5   6  10.4038   8.0474  12.1722  -7.7890   7.2305  -8.6919   0.00    0.0
2019/01/15 09:31:09.000   4280226.2801  -4034421.4670  -2458269.9199   5   6  10.4033   8.0464  12.1687  -7.7882   7.2282  -8.6893   0.00    0.0
2019/01/15 09:31:10.000   4280226.1641  -4034421.3640  -2458269.5391   5   6  10.4029   8.0454  12.1653  -7.7875   7.2259  -8.6866   0.00    0.0
2019/01/15 09:31:11.000   4280226.0592  -4034421.5018  -2458269.1925   5   6  10.4025   8.0444  12.1618  -7.7867   7.2236  -8.6840   0.00    0.0
2019/01/15 09:31:12.000   4280225.9983  -4034421.4249  -2458268.9009   5   6  10.4020   8.0434  12.1583  -7.7859   7.2213  -8.6814   0.00    0.0
2019/01/15 09:31:13.000   4280226.3052  -4034421.5143  -2458269.0193   5   6  10.4016   8.0424  12.1548  -7.7852   7.2191  -8.6787   0.00    0.0
2019/01/15 09:31:14.000   4280226.3394  -4034421.4825  -2458269.0381   5   6  10.4012   8.0414  12.1513  -7.7844   7.2168  -8.6761   0.00    0.0
2019/01/15 09:31:15.000   4280226.5134  -4034421.5899  -2458269.1480   5   6  10.4007   8.0404  12.1478  -7.7836   7.2145  -8.6735   0.00    0.0
2019/01/15 09:31:16.000   4280226.5687  -4034421.6388  -2458269.2022   5   6  10.4003   8.0394  12.1444  -7.7829   7.2122  -8.6708   0.00    0.0
2019/01/15 09:31:17.000   4280226.6528  -4034421.8122  -2458268.8283   5   6  10.3999   8.0384  12.1409  -7.7821   7.2099  -8.6682   0.00    0.0
2019/01/15 09:31:18.000   4280226.7737  -4034422.1874  -2458268.5951   5   6  10.3995   8.0374  12.1374  -7.7813   7.2076  -8.6656   0.00    0.0
2019/01/15 09:31:19.000   4280227.3793  -4034422.7818  -2458268.8155   5   6  10.3990   8.0364  12.1339  -7.7806   7.2053  -8.6630   0.00    0.0
2019/01/15 09:31:20.000   4280227.5435  -4034422.9251  -2458268.7064   5   6  10.3986   8.0354  12.1305  -7.7798   7.2030  -8.6604   0.00    0.0
2019/01/15 09:31:21.000   4280227.6072  -4034422.8997  -2458268.7873   5   6  10.3982   8.0344  12.1270  -7.7790   7.2008  -8.6577   0.00    0.0
2019/01/15 09:31:22.000   4280227.8932  -4034422.8895  -2458268.5609   5   6  10.3978   8.0334  12.1235  -7.7783   7.1985  -8.6551   0.00    0.0
2019/01/15 09:31:23.000   4280228.0078  -4034423.0026  -2458268.1360   5   6  10.3974   8.0324  12.1200  -7.7775   7.1962  -8.6525   0.00    0.0
2019/01/15 09:31:24.000   4280228.1930  -4034423.1118  -2458268.0276   5   6  10.3970   8.0314  12.1166  -7.7768   7.1939  -8.6499   0.00    0.0
2019/01/15 09:31:25.000   4280228.2652  -4034423.1165  -2458268.1356   5   6  10.3965   8.0304  12.1131  -7.7760   7.1916  -8.6473   0.00    0.0
2019/01/15 09:31:26.000   4280228.5368  -4034423.1362  -2458268.7445   5   6  10.3961   8.0294  12.1096  -7.7753   7.1894  -8.6447   0.00    0.0
2019/01/15 09:31:27.000   4280228.5750  -4034422.9499  -2458269.1336   5   6  10.3957   8.0285  12.1062  -7.7745   7.1871  -8.6420   0.00    0.0
2019/01/15 09:31:28.000   4280228.5495  -4034422.9470  -2458269.3996   5   6  10.3953   8.0275  12.1027  -7.7738   7.1848  -8.6394   0.00    0.0
2019/01/15 09:31:29.000   4280228.3000  -4034423.0394  -2458269.5297   5   6  10.3949   8.0265  12.0992  -7.7730   7.1825  -8.6368   0.00    0.0
2019/01/15 09:31:30.000   4280227.8783  -4034422.9547  -2458269.6363   5   6  10.3945   8.0255  12.0958  -7.7723   7.1803  -8.6342   0.00    0.0
2019/01/15 09:31:31.000   4280227.6150  -4034422.7969  -2458269.6632   5   6  10.3941   8.0245  12.0923  -7.7715   7.1780  -8.6316   0.00    0.0
2019/01/15 09:31:32.000   4280227.4138  -4034422.9652  -2458269.6358   5   6  10.3937   8.0235  12.0888  -7.7708   7.1757  -8.6290   0.00    0.0
2019/01/15 09:31:33.000   4280227.5756  -4034423.4405  -2458269.9079   5   6  10.3933   8.0226  12.0854  -7.7700   7.1735  -8.6264   0.00    0.0
2019/01/15 09:31:34.000   4280227.8779  -4034423.7904  -2458270.1492   5   6  10.3929   8.0216  12.0819  -7.7693   7.1712  -8.6238   0.00    0.0
2019/01/15 09:31:35.000   4280228.0218  -4034423.9422  -2458270.2532   5   6  10.3925   8.0206  12.0785  -7.7685   7.1689  -8.6212   0.00    0.0
2019/01/15 09:31:36.000   4280228.2659  -4034424.1894  -2458270.6912   5   6  10.3921   8.0196  12.0750  -7.7678   7.1667  -8.6186   0.00    0.0
2019/01/15 09:31:37.000   4280228.1221  -4034423.9969  -2458270.8571   5   6  10.3917   8.0186  12.0715  -7.7671   7.1644  -8.6160   0.00    0.0
2019/01/15 09:31:38.000   4280227.9061  -4034423.9021  -2458270.9028   5   6  10.3913   8.0177  12.0681  -7.7663   7.1622  -8.6134   0.00    0.0
2019/01/15 09:31:39.000   4280227.5718  -4034423.6931  -2458270.8177   5   6  10.3909   8.0167  12.0646  -7.7656   7.1599  -8.6108   0.00    0.0
2019/01/15 09:31:40.000   4280227.0309  -4034423.2060  -2458270.4262   5   6  10.3905   8.0157  12.0612  -7.7648   7.1576  -8.6082   0.00    0.0
2019/01/15 09:31:41.000   4280226.6976  -4034423.0046  -2458269.8694   5   6  10.3901   8.0147  12.0577  -7.7641   7.1554  -8.6056   0.00    0.0
2019/01/15 09:31:42.000   4280227.0908  -4034423.4050  -2458270.0252   5   6  10.3897   8.0138  12.0543  -7.7634   7.1531  -8.6030   0.00    0.0
2019/01/15 09:31:43.000   4280226.9360  -4034423.4706  -2458270.0517   5   6  10.3893   8.0128  12.0508  -7.7626   7.1509  -8.6004   0.00    0.0
2019/01/15 09:31:44.000   4280226.6795  -4034423.3323  -2458270.1820   5   6  10.3889   8.0118  12.0474  -7.7619   7.1486  -8.5978   0.00    0.0
2019/01/15 09:31:45.000   4280226.7180  -4034423.2561  -2458270.3028   5   6  10.3885   8.0108  12.0439  -7.7612   7.1464  -8.5952   0.00    0.0
2019/01/15 09:31:46.000   4280226.5714  -4034422.9656  -2458270.4835   5   6  10.3882   8.0099  12.0405  -7.7604   7.1441  -8.5926   0.00    0.0
2019/01/15 09:31:47.000   4280226.7355  -4034422.7667  -2458270.7659   5   6  10.3878   8.0089  12.0370  -7.7597   7.1419  -8.5900   0.00    0.0
2019/01/15 09:31:48.000   4280226.6972  -4034422.7832  -2458270.7360   5   6  10.3874   8.0079  12.0336  -7.7590   7.1396  -8.5875   0.00    0.0
2019/01/15 09:31:49.000   4280226.7241  -4034422.8230  -2458270.7410   5   6  10.3870   8.0070  12.0301  -7.7583   7.1374  -8.5849   0.00    0.0
2019/01/15 09:31:50.000   4280226.7558  -4034422.9040  -2458270.6668   5   6  10.3866   8.0060  12.0267  -7.7575   7.1351  -8.5823   0.00    0.0
2019/01/15 09:31:51.000   4280226.2197  -4034422.6340  -2458270.1411   5   6  10.3863   8.0050  12.0232  -7.7568   7.1329  -8.5797   0.00    0.0
2019/01/15 09:31:52.000   4280225.9345  -4034422.3186  -2458269.9749   5   6  10.3859   8.0041  12.0198  -7.7561   7.1307  -8.5771   0.00    0.0
2019/01/15 09:31:53.000   4280225.8301  -4034422.1031  -2458269.8878   5   6  10.3855   8.0031  12.0164  -7.7554   7.1284  -8.5745   0.00    0.0
2019/01/15 09:31:54.000   4280225.8980  -4034421.9612  -2458270.1893   5   6  10.3851   8.0022  12.0129  -7.7547   7.1262  -8.5720   0.00    0.0
2019/01/15 09:31:55.000   4280225.8132  -4034421.9715  -2458270.3846   5   6  10.3847   8.0012  12.0095  -7.7539   7.1239  -8.5694   0.00    0.0
2019/01/15 09:31:56.000   4280225.4269  -4034422.0247  -2458269.9737   5   6  10.3844   8.0002  12.0060  -7.7532   7.1217  -8.5668   0.00    0.0
2019/01/15 09:31:57.000   4280225.5366  -4034422.2793  -2458269.8240   5   6  10.3840   7.9993  12.0026  -7.7525   7.1195  -8.5642   0.00    0.0
2019/01/15 09:31:58.000   4280225.6574  -4034422.5084  -2458269.6495   5   6  10.3836   7.9983  11.9992  -7.7518   7.1172  -8.5616   0.00    0.0
2019/01/15 09:31:59.000   4280225.9402  -4034422.8434  -2458269.8002   5   6  10.3833   7.9974  11.9957  -7.7511   7.1150  -8.5591   0.00    0.0
2019/01/15 09:32:00.000   4280225.6830  -4034422.5090  -2458269.6421   5   6  10.3829   7.9964  11.9923  -7.7504   7.1128  -8.5565   0.00    0.0
2019/01/15 09:32:01.000   4280225.4196  -4034422.1048  -2458269.6615   5   6  10.3825   7.9955  11.9889  -7.7497   7.1105  -8.5539   0.00    0.0
2019/01/15 09:32:02.000   4280225.2760  -4034421.9394  -2458269.6541   5   6  10.3822   7.9945  11.9854  -7.7490   7.1083  -8.5514   0.00    0.0
2019/01/15 09:32:03.000   4280225.3237  -4034422.0061  -2458269.5917   5   6  10.3818   7.9935  11.9820  -7.7482   7.1061  -8.5488   0.00    0.0
2019/01/15 09:32:04.000   4280225.1729  -4034421.9159  -2458269.4886   5   6  10.3814   7.9926  11.9786  -7.7475   7.1039  -8.5462   0.00    0.0
2019/01/15 09:32:05.000   4280224.9492  -4034421.7626  -2458269.2287   5   6  10.3811   7.9916  11.9752  -7.7468   7.1016  -8.5436   0.00    0.0
2019/01/15 09:32:06.000   4280224.4829  -4034421.4167  -2458269.5222   5   6  10.3807   7.9907  11.9717  -7.7461   7.0994  -8.5411   0.00    0.0
2019/01/15 09:32:07.000   4280224.5707  -4034421.4995  -2458269.9262   5   6  10.3804   7.9897  11.9683  -7.7454   7.0972  -8.5385   0.00    0.0
2019/01/15 09:32:08.000   4280224.9022  -4034421.6176  -2458270.0196   5   6  10.3800   7.9888  11.9649  -7.7447   7.0950  -8.5360   0.00    0.0
2019/01/15 09:32:09.000   4280225.1538  -4034421.8396  -2458270.1678   5   6  10.3796   7.9878  11.9615  -7.7440   7.0928  -8.5334   0.00    0.0
2019/01/15 09:32:10.000   4280225.0578  -4034421.8457  -2458270.3133   5   6  10.3793   7.9869  11.9580  -7.7433   7.0905  -8.5308   0.00    0.0
2019/01/15 09:32:11.000   4280225.2915  -4034422.1264  -2458270.7041   5   6  10.3789   7.9860  11.9546  -7.7426   7.0883  -8.5283   0.00    0.0
2019/01/15 09:32:12.000   4280225.3724  -4034422.2558  -2458270.6613   5   6  10.3786   7.9850  11.9512  -7.7419   7.0861  -8.5257   0.00    0.0
2019/01/15 09:32:13.000   4280225.6506  -4034422.4350  -2458270.6998   5   6  10.3782   7.9841  11.9478  -7.7412   7.0839  -8.5232   0.00    0.0
2019/01/15 09:32:14.000   4280226.0203  -4034422.6899  -2458270.8448   5   6  10.3779   7.9831  11.9443  -7.7405   7.0817  -8.5206   0.00    0.0
2019/01/15 09:32:15.000   4280226.1925  -4034422.8373  -2458270.4456   5   6  10.3775   7.9822  11.9409  -7.7398   7.0795  -8.5180   0.00    0.0
2019/01/15 09:32:16.000   4280225.9189  -4034422.7036  -2458269.7679   5   6  10.3772   7.9812  11.9375  -7.7391   7.0773  -8.5155   0.00    0.0
2019/01/15 09:32:17.000   4280225.5144  -4034422.4827  -2458269.2473   5   6  10.3768   7.9803  11.9341  -7.7385   7.0751  -8.5129   0.00    0.0
2019/01/15 09:32:18.000   4280225.2793  -4034422.3166  -2458268.7875   5   6  10.3765   7.9794  11.9307  -7.7378   7.0728  -8.5104   0.00    0.0
2019/01/15 09:32:19.000   4280224.9261  -4034422.1860  -2458268.6039   5   6  10.3762   7.9784  11.9273  -7.7371   7.0706  -8.5078   0.00    0.0
2019/01/15 09:32:20.000   4280225.1168  -4034422.5523  -2458268.8317   5   6  10.3758   7.9775  11.9239  -7.7364   7.0684  -8.5053   0.00    0.0
2019/01/15 09:32:21.000   4280225.7384  -4034423.3336  -2458269.0356   5   6  10.3755   7.9766  11.9205  -7.7357   7.0662  -8.5027   0.00    0.0
2019/01/15 09:32:22.000   4280226.3708  -4034423.7737  -2458269.2700   5   6  10.3751   7.9756  11.9170  -7.7350   7.0640  -8.5002   0.00    0.0
2019/01/15 09:32:23.000   4280226.5723  -4034423.6779  -2458269.0711   5   6  10.3748   7.9747  11.9136  -7.7343   7.0618  -8.4976   0.00    0.0
2019/01/15 09:32:24.000   4280226.7745  -4034423.4476  -2458268.9470   5   6  10.3745   7.9737  11.9102  -7.7337   7.0596  -8.4951   0.00    0.0
2019/01/15 09:32:25.000   4280227.1042  -4034423.4736  -2458269.2223   5   6  10.3741   7.9728  11.9068  -7.7330   7.0574  -8.4926   0.00    0.0
2019/01/15 09:32:26.000   4280226.8624  -4034423.4928  -2458269.1063   5   6  10.3738   7.9719  11.9034  -7.7323   7.0552  -8.4900   0.00    0.0
2019/01/15 09:32:27.000   4280226.3353  -4034423.2961  -2458268.7498   5   6  10.3735   7.9710  11.9000  -7.7316   7.0530  -8.4875   0.00    0.0
2019/01/15 09:32:28.000   4280226.0891  -4034423.3748  -2458268.3495   5   6  10.3731   7.9700  11.8966  -7.7309   7.0508  -8.4849   0.00    0.0
2019/01/15 09:32:29.000   4280226.2735  -4034423.4930  -2458268.0964   5   6  10.3728   7.9691  11.8932  -7.7303   7.0486  -8.4824   0.00    0.0
2019/01/15 09:32:30.000   4280226.4173  -4034423.6708  -2458268.3065   5   6  10.3725   7.9682  11.8898  -7.7296   7.0465  -8.4799   0.00    0.0
2019/01/15 09:32:31.000   4280226.4957  -4034423.8047  -2458268.3874   5   6  10.3721   7.9672  11.8864  -7.7289   7.0443  -8.4773   0.00    0.0
2019/01/15 09:32:32.000   4280226.5050  -4034423.8907  -2458268.8243   5   6  10.3718   7.9663  11.8830  -7.7282   7.0421  -8.4748   0.00    0.0
2019/01/15 09:32:33.000   4280226.3126  -4034423.8119  -2458268.9813   5   6  10.3715   7.9654  11.8796  -7.7276   7.0399  -8.4723   0.00    0.0
2019/01/15 09:32:34.000   4280225.8511  -4034423.5896  -2458268.8204   5   6  10.3712   7.9645  11.8762  -7.7269   7.0377  -8.4697   0.00    0.0
2019/01/15 09:32:35.000   4280225.7880  -4034423.4954  -2458269.0034   5   6  10.3709   7.9635  11.8728  -7.7262   7.0355  -8.4672   0.00    0.0
2019/01/15 09:32:36.000   4280225.9959  -4034423.2952  -2458269.4840   5   6  10.3705   7.9626  11.8694  -7.7256   7.0333  -8.4647   0.00    0.0
2019/01/15 09:32:37.000   4280225.8542  -4034423.0430  -2458269.5150   5   6  10.3702   7.9617  11.8660  -7.7249   7.0311  -8.4621   0.00    0.0
2019/01/15 09:32:38.000   4280225.5293  -4034422.8369  -2458269.6454   5   6  10.3699   7.9608  11.8626  -7.7242   7.0290  -8.4596   0.00    0.0
2019/01/15 09:32:39.000   4280225.1527  -4034422.5848  -2458269.4414   5   6  10.3696   7.9599  11.8593  -7.7236   7.0268  -8.4571   0.00    0.0
2019/01/15 09:32:40.000   4280224.9153  -4034422.1938  -2458269.3862   5   6  10.3693   7.9589  11.8559  -7.7229   7.0246  -8.4546   0.00    0.0
2019/01/15 09:32:41.000   4280224.6044  -4034421.9042  -2458269.1221   5   6  10.3689   7.9580  11.8525  -7.7222   7.0224  -8.4520   0.00    0.0
2019/01/15 09:32:42.000   4280224.6418  -4034421.7736  -2458269.2778   5   6  10.3686   7.9571  11.8491  -7.7216   7.0203  -8.4495   0.00    0.0
2019/01/15 09:32:43.000   4280224.7281  -4034421.7447  -2458269.7394   5   6  10.3683   7.9562  11.8457  -7.7209   7.0181  -8.4470   0.00    0.0
2019/01/15 09:32:44.000   4280225.3227  -4034422.1526  -2458270.3612   5   6  10.3680   7.9553  11.8423  -7.7203   7.0159  -8.4445   0.00    0.0
2019/01/15 09:32:45.000   4280226.1007  -4034422.8080  -2458271.2389   5   6  10.3677   7.9544  11.8389  -7.7196   7.0137  -8.4420   0.00    0.0
2019/01/15 09:32:46.000   4280226.3985  -4034423.1866  -2458271.7363   5   6  10.3674   7.9535  11.8355  -7.7189   7.0116  -8.4394   0.00    0.0
2019/01/15 09:32:47.000   4280226.5032  -4034423.2325  -2458272.2451   5   6  10.3671   7.9525  11.8322  -7.7183   7.0094  -8.4369   0.00    0.0
2019/01/15 09:32:48.000   4280226.4325  -4034422.9620  -2458272.8162   5   6  10.3668   7.9516  11.8288  -7.7176   7.0072  -8.4344   0.00    0.0
2019/01/15 09:32:49.000   4280226.3230  -4034422.8430  -2458273.2934   5   6  10.3665   7.9507  11.8254  -7.7170   7.0051  -8.4319   0.00    0.0
2019/01/15 09:32:50.000   4280226.1289  -4034422.7163  -2458273.3713   5   6  10.3662   7.9498  11.8220  -7.7163   7.0029  -8.4294   0.00    0.0
2019/01/15 09:32:51.000   4280226.3313  -4034422.6769  -2458273.6198   5   6  10.3659   7.9489  11.8187  -7.7157   7.0007  -8.4269   0.00    0.0
2019/01/15 09:32:52.000   4280226.6122  -4034422.6897  -2458273.8988   5   6  10.3656   7.9480  11.8153  -7.7150   6.9986  -8.4244   0.00    0.0
2019/01/15 09:32:53.000   4280226.9829  -4034422.8040  -2458274.3080   5   6  10.3653   7.9471  11.8119  -7.7144   6.9964  -8.4219   0.00    0.0
2019/01/15 09:32:54.000   4280226.3443  -4034422.3540  -2458274.2422   5   6  10.3650   7.9462  11.8085  -7.7137   6.9942  -8.4194   0.00    0.0
2019/01/15 09:32:55.000   4280226.0370  -4034422.1357  -2458274.5562   5   6  10.3647   7.9453  11.8052  -7.7131   6.9921  -8.4168   0.00    0.0
2019/01/15 09:32:56.000   4280225.8959  -4034421.9714  -2458275.3117   5   6  10.3644   7.9444  11.8018  -7.7124   6.9899  -8.4143   0.00    0.0
2019/01/15 09:32:57.000   4280226.1088  -4034421.9415  -2458276.0559   5   6  10.3641   7.9435  11.7984  -7.7118   6.9878  -8.4118   0.00    0.0
2019/01/15 09:32:58.000   4280225.6392  -4034421.7864  -2458276.1582   5   6  10.3638   7.9426  11.7950  -7.7112   6.9856  -8.4093   0.00    0.0
2019/01/15 09:32:59.000   4280225.1280  -4034421.5687  -2458276.0991   5   6  10.3635   7.9417  11.7917  -7.7105   6.9835  -8.4068   0.00    0.0
2019/01/15 09:33:00.000   4280224.7348  -4034421.3729  -2458275.8082   5   6  10.3632   7.9408  11.7883  -7.7099   6.9813  -8.4043   0.00    0.0
2019/01/15 09:33:01.000   4280224.6264  -4034421.3508  -2458276.0329   5   6  10.3629   7.9399  11.7849  -7.7092   6.9792  -8.4018   0.00    0.0
2019/01/15 09:33:02.000   4280224.8728  -4034421.5017  -2458276.3486   5   6  10.3626   7.9390  11.7816  -7.7086   6.9770  -8.3993   0.00    0.0
2019/01/15 09:33:03.000   4280225.6371  -4034421.6109  -2458276.8556   5   6  10.3624   7.9381  11.7782  -7.7080   6.9749  -8.3968   0.00    0.0
2019/01/15 09:33:04.000   4280226.3505  -4034421.7526  -2458277.3523   5   6  10.3621   7.9372  11.7748  -7.7073   6.9727  -8.3943   0.00    0.0
2019/01/15 09:33:05.000   4280226.3370  -4034421.5202  -2458277.2714   5   6  10.3618   7.9363  11.7715  -7.7067   6.9706  -8.3919   0.00    0.0
2019/01/15 09:33:06.000   4280225.8057  -4034421.0755  -2458276.8345   5   6  10.3615   7.9354  11.7681  -7.7061   6.9684  -8.3894   0.00    0.0
2019/01/15 09:33:07.000   4280225.2573  -4034420.7159  -2458276.7068   5   6  10.3612   7.9345  11.7648  -7.7054   6.9663  -8.3869   0.00    0.0
2019/01/15 09:33:08.000   4280224.6189  -4034420.4132  -2458276.3572   5   6  10.3609   7.9336  11.7614  -7.7048   6.9641  -8.3844   0.00    0.0
2019/01/15 09:33:09.000   4280224.2088  -4034420.3695  -2458275.9157   5   6  10.3607   7.9327  11.7581  -7.7042   6.9620  -8.3819   0.00    0.0
2019/01/15 09:33:10.000   4280224.2458  -4034420.4740  -2458275.8012   5   6  10.3604   7.9318  11.7547  -7.7035   6.9599  -8.3794   0.00    0.0
2019/01/15 09:33:11.000   4280224.3079  -4034420.4922  -2458275.8506   5   6  10.3601   7.9309  11.7513  -7.7029   6.9577  -8.3769   0.00    0.0
2019/01/15 09:33:12.000   4280224.2105  -4034420.2707  -2458275.6735   5   6  10.3598   7.9301  11.7480  -7.7023   6.9556  -8.3744   0.00    0.0
2019/01/15 09:33:13.000   4280223.8321  -4034419.9101  -2458275.2729   5   6  10.3596   7.9292  11.7446  -7.7017   6.9534  -8.3720   0.00    0.0
2019/01/15 09:33:14.000   4280223.6520  -4034419.5777  -2458275.2285   5   6  10.3593   7.9283  11.7413  -7.7010   6.9513  -8.3695   0.00    0.0
2019/01/15 09:33:15.000   4280223.9453  -4034419.6980  -2458275.5849   5   6  10.3590   7.9274  11.7379  -7.7004   6.9492  -8.3670   0.00    0.0
2019/01/15 09:33:16.000   4280224.0679  -4034419.6369  -2458276.1184   5   6  10.3588   7.9265  11.7346  -7.6998   6.9470  -8.3645   0.00    0.0
2019/01/15 09:33:17.000   4280224.0998  -4034419.7075  -2458277.0373   5   6  10.3585   7.9256  11.7312  -7.6992   6.9449  -8.3620   0.00    0.0
2019/01/15 09:33:18.000   4280224.2785  -4034419.9967  -2458277.9427   5   6  10.3582   7.9247  11.7279  -7.6986   6.9428  -8.3595   0.00    0.0
2019/01/15 09:33:19.000   4280224.7839  -4034420.5449  -2458278.6500   5   6  10.3580   7.9239  11.7245  -7.6980   6.9407  -8.3571   0.00    0.0
2019/01/15 09:33:20.000   4280225.1607  -4034420.9421  -2458278.8278   5   6  10.3577   7.9230  11.7212  -7.6973   6.9385  -8.3546   0.00    0.0
2019/01/15 09:33:21.000   4280225.0682  -4034421.0005  -2458278.3246   5   6  10.3574   7.9221  11.7179  -7.6967   6.9364  -8.3521   0.00    0.0
2019/01/15 09:33:22.000   4280225.3243  -4034421.2326  -2458278.1305   5   6  10.3572   7.9212  11.7145  -7.6961   6.9343  -8.3497   0.00    0.0
2019/01/15 09:33:23.000   4280225.6939  -4034421.5768  -2458278.1983   5   6  10.3569   7.9203  11.7112  -7.6955   6.9322  -8.3472   0.00    0.0
2019/01/15 09:33:24.000   4280225.7730  -4034421.6438  -2458278.1125   5   6  10.3566   7.9195  11.7078  -7.6949   6.9300  -8.3447   0.00    0.0
2019/01/15 09:33:25.000   4280225.9185  -4034421.8182  -2458278.0531   5   6  10.3564   7.9186  11.7045  -7.6943   6.9279  -8.3422   0.00    0.0
2019/01/15 09:33:26.000   4280225.6579  -4034421.6010  -2458277.8752   5   6  10.3561   7.9177  11.7012  -7.6937   6.9258  -8.3398   0.00    0.0
2019/01/15 09:33:27.000   4280225.3553  -4034421.4191  -2458277.2477   5   6  10.3559   7.9168  11.6978  -7.6931   6.9237  -8.3373   0.00    0.0
2019/01/15 09:33:28.000   4280225.8098  -4034421.6624  -2458277.2141   5   6  10.3556   7.9160  11.6945  -7.6925   6.9216  -8.3348   0.00    0.0
2019/01/15 09:33:29.000   4280226.3098  -4034421.9611  -2458277.3178   5   6  10.3554   7.9151  11.6912  -7.6918   6.9195  -8.3324   0.00    0.0
2019/01/15 09:33:30.000   4280226.9336  -4034422.4193  -2458277.3169   5   6  10.3551   7.9142  11.6878  -7.6912   6.9173  -8.3299   0.00    0.0
2019/01/15 09:33:31.000   4280227.1328  -4034422.5427  -2458277.0036   5   6  10.3549   7.9133  11.6845  -7.6906   6.9152  -8.3275   0.00    0.0
2019/01/15 09:33:32.000   4280227.0437  -4034422.5257  -2458276.7553   5   6  10.3546   7.9125  11.6812  -7.6900   6.9131  -8.3250   0.00    0.0
2019/01/15 09:33:33.000   4280226.6484  -4034422.3783  -2458276.3348   5   6  10.3544   7.9116  11.6778  -7.6894   6.9110  -8.3225   0.00    0.0
2019/01/15 09:33:34.000   4280226.9350  -4034422.6341  -2458276.3483   5   6  10.3541   7.9107  11.6745  -7.6888   6.9089  -8.3201   0.00    0.0
2019/01/15 09:33:35.000   4280227.3600  -4034422.9575  -2458276.1693   5   6  10.3539   7.9099  11.6712  -7.6882   6.9068  -8.3176   0.00    0.0
2019/01/15 09:33:36.000   4280226.9747  -4034422.9641  -2458275.5265   5   6  10.3536   7.9090  11.6678  -7.6876   6.9047  -8.3152   0.00    0.0
2019/01/15 09:33:37.000   4280226.6915  -4034423.0994  -2458274.8361   5   6  10.3534   7.9081  11.6645  -7.6870   6.9026  -8.3127   0.00    0.0
2019/01/15 09:33:38.000   4280226.1947  -4034423.1803  -2458274.4958   5   6  10.3532   7.9073  11.6612  -7.6865   6.9005  -8.3103   0.00    0.0
2019/01/15 09:33:39.000   4280225.9340  -4034423.1518  -2458274.3622   5   6  10.3529   7.9064  11.6579  -7.6859   6.8984  -8.3078   0.00    0.0
2019/01/15 09:33:40.000   4280225.4173  -4034423.0168  -2458273.9498   5   6  10.3527   7.9055  11.6546  -7.6853   6.8963  -8.3054   0.00    0.0
2019/01/15 09:33:41.000   4280225.1220  -4034422.9792  -2458273.1396   5   6  10.3524   7.9047  11.6512  -7.6847   6.8942  -8.3029   0.00    0.0
2019/01/15 09:33:42.000   4280225.0496  -4034423.2765  -2458272.2061   5   6  10.3522   7.9038  11.6479  -7.6841   6.8921  -8.3005   0.00    0.0
2019/01/15 09:33:43.000   4280224.9314  -4034423.7925  -2458271.3623   5   6  10.3520   7.9030  11.6446  -7.6835   6.8900  -8.2980   0.00    0.0
2019/01/15 09:33:44.000   4280225.1755  -4034424.2658  -2458271.2061   5   6  10.3517   7.9021  11.6413  -7.6829   6.8879  -8.2956   0.00    0.0
2019/01/15 09:33:45.000   4280225.3457  -4034424.5401  -2458271.4083   5   6  10.3515   7.9012  11.6380  -7.6823   6.8858  -8.2931   0.00    0.0
2019/01/15 09:33:46.000   4280224.7151  -4034424.1282  -2458271.5129   5   6  10.3513   7.9004  11.6347  -7.6817   6.8837  -8.2907   0.00    0.0
2019/01/15 09:33:47.000   4280224.2103  -4034423.6594  -2458271.8137   5   6  10.3510   7.8995  11.6313  -7.6812   6.8816  -8.2882   0.00    0.0
2019/01/15 09:33:48.000   4280224.1666  -4034423.5041  -2458272.1482   5   6  10.3508   7.8987  11.6280  -7.6806   6.8795  -8.2858   0.00    0.0
2019/01/15 09:33:49.000   4280224.3209  -4034423.5526  -2458272.3782   5   6  10.3506   7.8978  11.6247  -7.6800   6.8774  -8.2834   0.00    0.0
2019/01/15 09:33:50.000   4280224.6023  -4034423.6096  -2458272.3700   5   6  10.3504   7.8970  11.6214  -7.6794   6.8753  -8.2809   0.00    0.0
2019/01/15 09:33:51.000   4280225.2198  -4034423.9783  -2458272.5412   5   6  10.3501   7.8961  11.6181  -7.6788   6.8733  -8.2785   0.00    0.0
